11.920878648757935,VFR_HUD,0.0,0.0,55,0,-2.2200000286102295,-0.0,,,,,,,,,,,,,,,,AHRS,0.006831708364188671,0.0007601253455504775,-0.0020657391287386417,0.0,0.0,0.0005465635331347585,0.006374632008373737,GPS_RAW_INT,0,1,0,0,-17000,9999,9999,0,0,0,0,4294967295,4294967295,1000000,0,0,RC_CHANNELS,6592536,16,1501,1499,1005,1501,1000,1000,1500,1500,0,0,0,0,0,0,0,0,0,0,0,MISSION_CURRENT,0,SYS_STATUS,52485167,52461615,53510447,58,0,-1,-1,0,0,0,0,0,0,GLOBAL_POSITION_INT,6593536,0,0,-2090,-2093,0,0,-2,5602,RAW_IMU,2297569354,19,11,-990,-7,0,2,297,-441,240,0,4308,BATTERY_STATUS,0,0,0,32767,[65535, 65535, 65535, 65535, 65535, 65535, 65535, 65535, 65535, 65535],-1,-1,-1,100,0,0,[0, 0, 0, 0],0,0,HEARTBEAT,10,3,193,0,4,3
0.034218788146972656,VFR_HUD,0.0,0.008886955678462982,56,0,-2.0899999141693115,0.02552911825478077,,,,,,,,,,,,,,,,AHRS,0.006831708364188671,0.0007601253455504775,-0.0020657391287386417,0.0,0.0,0.0005465635331347585,0.006374632008373737,GPS_RAW_INT,0,1,0,0,-17000,9999,9999,0,0,0,0,4294967295,4294967295,1000000,0,0,RC_CHANNELS,6593536,16,1501,1499,1004,1501,1000,1001,1500,1500,0,0,0,0,0,0,0,0,0,0,0,MISSION_CURRENT,0,SYS_STATUS,52485167,52461615,53510447,58,0,-1,-1,0,0,0,0,0,0,GLOBAL_POSITION_INT,6593536,0,0,-2090,-2093,0,0,-2,5602,RAW_IMU,2298569571,19,11,-992,-7,-1,2,295,-445,239,0,4308,BATTERY_STATUS,0,0,0,32767,[65535, 65535, 65535, 65535, 65535, 65535, 65535, 65535, 65535, 65535],-1,-1,-1,100,0,0,[0, 0, 0, 0],0,0,HEARTBEAT,10,3,193,0,4,3
0.08444428443908691,VFR_HUD,0.0,0.008886955678462982,56,0,-2.0899999141693115,0.02552911825478077,,,,,,,,,,,,,,,,AHRS,0.006859326269477606,0.0006240974180400372,-0.0020276776049286127,0.0,0.0,0.0005394802428781986,0.004255061969161034,GPS_RAW_INT,0,1,0,0,-17000,9999,9999,0,0,0,0,4294967295,4294967295,1000000,0,0,RC_CHANNELS,6593536,16,1501,1499,1004,1501,1000,1001,1500,1500,0,0,0,0,0,0,0,0,0,0,0,MISSION_CURRENT,0,SYS_STATUS,52485167,52461615,53510447,58,0,-1,-1,0,0,0,0,0,0,GLOBAL_POSITION_INT,6593536,0,0,-2090,-2093,0,0,-2,5602,RAW_IMU,2298569571,19,11,-992,-7,-1,2,295,-445,239,0,4308,BATTERY_STATUS,0,0,0,32767,[65535, 65535, 65535, 65535, 65535, 65535, 65535, 65535, 65535, 65535],-1,-1,-1,100,0,0,[0, 0, 0, 0],0,0,HEARTBEAT,10,3,193,0,4,3
0.1348872184753418,VFR_HUD,0.0,0.008886955678462982,56,0,-2.0899999141693115,0.02552911825478077,,,,,,,,,,,,,,,,AHRS,0.006859326269477606,0.0006240974180400372,-0.0020276776049286127,0.0,0.0,0.0005394802428781986,0.004255061969161034,GPS_RAW_INT,0,1,0,0,-17000,9999,9999,0,0,0,0,4294967295,4294967295,1000000,0,0,RC_CHANNELS,6593536,16,1501,1499,1004,1501,1000,1001,1500,1500,0,0,0,0,0,0,0,0,0,0,0,MISSION_CURRENT,0,SYS_STATUS,52485167,52461615,53510447,58,0,-1,-1,0,0,0,0,0,0,GLOBAL_POSITION_INT,6593536,0,0,-2090,-2093,0,0,-2,5602,RAW_IMU,2298569571,19,11,-992,-7,-1,2,295,-445,239,0,4308,BATTERY_STATUS,0,0,0,32767,[65535, 65535, 65535, 65535, 65535, 65535, 65535, 65535, 65535, 65535],-1,-1,-1,100,0,0,[0, 0, 0, 0],0,0,HEARTBEAT,10,3,193,0,4,3
0.18512344360351562,VFR_HUD,0.0,0.008886955678462982,56,0,-2.0899999141693115,0.02552911825478077,,,,,,,,,,,,,,,,AHRS,0.006859326269477606,0.0006240974180400372,-0.0020276776049286127,0.0,0.0,0.0005394802428781986,0.004255061969161034,GPS_RAW_INT,0,1,0,0,-17000,9999,9999,0,0,0,0,4294967295,4294967295,1000000,0,0,RC_CHANNELS,6593536,16,1501,1499,1004,1501,1000,1001,1500,1500,0,0,0,0,0,0,0,0,0,0,0,MISSION_CURRENT,0,SYS_STATUS,52485167,52461615,53510447,58,0,-1,-1,0,0,0,0,0,0,GLOBAL_POSITION_INT,6593536,0,0,-2090,-2093,0,0,-2,5602,RAW_IMU,2298569571,19,11,-992,-7,-1,2,295,-445,239,0,4308,BATTERY_STATUS,0,0,0,32767,[65535, 65535, 65535, 65535, 65535, 65535, 65535, 65535, 65535, 65535],-1,-1,-1,100,0,0,[0, 0, 0, 0],0,0,HEARTBEAT,10,3,193,0,4,3
0.23532867431640625,VFR_HUD,0.0,0.008886955678462982,56,0,-2.0899999141693115,0.02552911825478077,,,,,,,,,,,,,,,,AHRS,0.006859326269477606,0.0006240974180400372,-0.0020276776049286127,0.0,0.0,0.0005394802428781986,0.004255061969161034,GPS_RAW_INT,0,1,0,0,-17000,9999,9999,0,0,0,0,4294967295,4294967295,1000000,0,0,RC_CHANNELS,6593536,16,1501,1499,1004,1501,1000,1001,1500,1500,0,0,0,0,0,0,0,0,0,0,0,MISSION_CURRENT,0,SYS_STATUS,52485167,52461615,53510447,58,0,-1,-1,0,0,0,0,0,0,GLOBAL_POSITION_INT,6593536,0,0,-2090,-2093,0,0,-2,5602,RAW_IMU,2298569571,19,11,-992,-7,-1,2,295,-445,239,0,4308,BATTERY_STATUS,0,0,0,32767,[65535, 65535, 65535, 65535, 65535, 65535, 65535, 65535, 65535, 65535],-1,-1,-1,100,0,0,[0, 0, 0, 0],0,0,HEARTBEAT,6,8,0,0,0,3
0.28559255599975586,VFR_HUD,0.0,0.008886955678462982,56,0,-2.0899999141693115,0.02552911825478077,,,,,,,,,,,,,,,,AHRS,0.006859326269477606,0.0006240974180400372,-0.0020276776049286127,0.0,0.0,0.0005394802428781986,0.004255061969161034,GPS_RAW_INT,0,1,0,0,-17000,9999,9999,0,0,0,0,4294967295,4294967295,1000000,0,0,RC_CHANNELS,6593536,16,1501,1499,1004,1501,1000,1001,1500,1500,0,0,0,0,0,0,0,0,0,0,0,MISSION_CURRENT,0,SYS_STATUS,52485167,52461615,53510447,58,0,-1,-1,0,0,0,0,0,0,GLOBAL_POSITION_INT,6593536,0,0,-2090,-2093,0,0,-2,5602,RAW_IMU,2298569571,19,11,-992,-7,-1,2,295,-445,239,0,4308,BATTERY_STATUS,0,0,0,32767,[65535, 65535, 65535, 65535, 65535, 65535, 65535, 65535, 65535, 65535],-1,-1,-1,100,0,0,[0, 0, 0, 0],0,0,HEARTBEAT,6,8,0,0,0,3
0.3358314037322998,VFR_HUD,0.0,0.008886955678462982,56,0,-2.0899999141693115,0.02552911825478077,,,,,,,,,,,,,,,,AHRS,0.006859326269477606,0.0006240974180400372,-0.0020276776049286127,0.0,0.0,0.0005394802428781986,0.004255061969161034,GPS_RAW_INT,0,1,0,0,-17000,9999,9999,0,0,0,0,4294967295,4294967295,1000000,0,0,RC_CHANNELS,6593536,16,1501,1499,1004,1501,1000,1001,1500,1500,0,0,0,0,0,0,0,0,0,0,0,MISSION_CURRENT,0,SYS_STATUS,52485167,52461615,53510447,58,0,-1,-1,0,0,0,0,0,0,GLOBAL_POSITION_INT,6593536,0,0,-2090,-2093,0,0,-2,5602,RAW_IMU,2298569571,19,11,-992,-7,-1,2,295,-445,239,0,4308,BATTERY_STATUS,0,0,0,32767,[65535, 65535, 65535, 65535, 65535, 65535, 65535, 65535, 65535, 65535],-1,-1,-1,100,0,0,[0, 0, 0, 0],0,0,HEARTBEAT,6,8,0,0,0,3
0.3860340118408203,VFR_HUD,0.0,0.008886955678462982,56,0,-2.0899999141693115,0.02552911825478077,,,,,,,,,,,,,,,,AHRS,0.006859326269477606,0.0006240974180400372,-0.0020276776049286127,0.0,0.0,0.0005394802428781986,0.004255061969161034,GPS_RAW_INT,0,1,0,0,-17000,9999,9999,0,0,0,0,4294967295,4294967295,1000000,0,0,RC_CHANNELS,6593536,16,1501,1499,1004,1501,1000,1001,1500,1500,0,0,0,0,0,0,0,0,0,0,0,MISSION_CURRENT,0,SYS_STATUS,52485167,52461615,53510447,58,0,-1,-1,0,0,0,0,0,0,GLOBAL_POSITION_INT,6593536,0,0,-2090,-2093,0,0,-2,5602,RAW_IMU,2298569571,19,11,-992,-7,-1,2,295,-445,239,0,4308,BATTERY_STATUS,0,0,0,32767,[65535, 65535, 65535, 65535, 65535, 65535, 65535, 65535, 65535, 65535],-1,-1,-1,100,0,0,[0, 0, 0, 0],0,0,HEARTBEAT,6,8,0,0,0,3
0.4362499713897705,VFR_HUD,0.0,0.008886955678462982,56,0,-2.0899999141693115,0.02552911825478077,,,,,,,,,,,,,,,,AHRS,0.006859326269477606,0.0006240974180400372,-0.0020276776049286127,0.0,0.0,0.0005394802428781986,0.004255061969161034,GPS_RAW_INT,0,1,0,0,-17000,9999,9999,0,0,0,0,4294967295,4294967295,1000000,0,0,RC_CHANNELS,6593536,16,1501,1499,1004,1501,1000,1001,1500,1500,0,0,0,0,0,0,0,0,0,0,0,MISSION_CURRENT,0,SYS_STATUS,52485167,52461615,53510447,58,0,-1,-1,0,0,0,0,0,0,GLOBAL_POSITION_INT,6593536,0,0,-2090,-2093,0,0,-2,5602,RAW_IMU,2298569571,19,11,-992,-7,-1,2,295,-445,239,0,4308,BATTERY_STATUS,0,0,0,32767,[65535, 65535, 65535, 65535, 65535, 65535, 65535, 65535, 65535, 65535],-1,-1,-1,100,0,0,[0, 0, 0, 0],0,0,HEARTBEAT,6,8,0,0,0,3
0.48645615577697754,VFR_HUD,0.0,0.008886955678462982,56,0,-2.0899999141693115,0.02552911825478077,,,,,,,,,,,,,,,,AHRS,0.006859326269477606,0.0006240974180400372,-0.0020276776049286127,0.0,0.0,0.0005394802428781986,0.004255061969161034,GPS_RAW_INT,0,1,0,0,-17000,9999,9999,0,0,0,0,4294967295,4294967295,1000000,0,0,RC_CHANNELS,6593536,16,1501,1499,1004,1501,1000,1001,1500,1500,0,0,0,0,0,0,0,0,0,0,0,MISSION_CURRENT,0,SYS_STATUS,52485167,52461615,53510447,58,0,-1,-1,0,0,0,0,0,0,GLOBAL_POSITION_INT,6593536,0,0,-2090,-2093,0,0,-2,5602,RAW_IMU,2298569571,19,11,-992,-7,-1,2,295,-445,239,0,4308,BATTERY_STATUS,0,0,0,32767,[65535, 65535, 65535, 65535, 65535, 65535, 65535, 65535, 65535, 65535],-1,-1,-1,100,0,0,[0, 0, 0, 0],0,0,HEARTBEAT,6,8,0,0,0,3
0.5366666316986084,VFR_HUD,0.0,0.008886955678462982,56,0,-2.0899999141693115,0.02552911825478077,,,,,,,,,,,,,,,,AHRS,0.006859326269477606,0.0006240974180400372,-0.0020276776049286127,0.0,0.0,0.0005394802428781986,0.004255061969161034,GPS_RAW_INT,0,1,0,0,-17000,9999,9999,0,0,0,0,4294967295,4294967295,1000000,0,0,RC_CHANNELS,6593536,16,1501,1499,1004,1501,1000,1001,1500,1500,0,0,0,0,0,0,0,0,0,0,0,MISSION_CURRENT,0,SYS_STATUS,52485167,52461615,53510447,58,0,-1,-1,0,0,0,0,0,0,GLOBAL_POSITION_INT,6593536,0,0,-2090,-2093,0,0,-2,5602,RAW_IMU,2298569571,19,11,-992,-7,-1,2,295,-445,239,0,4308,BATTERY_STATUS,0,0,0,32767,[65535, 65535, 65535, 65535, 65535, 65535, 65535, 65535, 65535, 65535],-1,-1,-1,100,0,0,[0, 0, 0, 0],0,0,HEARTBEAT,6,8,0,0,0,3
0.5876774787902832,VFR_HUD,0.0,0.008886955678462982,56,0,-2.0899999141693115,0.02552911825478077,,,,,,,,,,,,,,,,AHRS,0.006859326269477606,0.0006240974180400372,-0.0020276776049286127,0.0,0.0,0.0005394802428781986,0.004255061969161034,GPS_RAW_INT,0,1,0,0,-17000,9999,9999,0,0,0,0,4294967295,4294967295,1000000,0,0,RC_CHANNELS,6593536,16,1501,1499,1004,1501,1000,1001,1500,1500,0,0,0,0,0,0,0,0,0,0,0,MISSION_CURRENT,0,SYS_STATUS,52485167,52461615,53510447,58,0,-1,-1,0,0,0,0,0,0,GLOBAL_POSITION_INT,6593536,0,0,-2090,-2093,0,0,-2,5602,RAW_IMU,2298569571,19,11,-992,-7,-1,2,295,-445,239,0,4308,BATTERY_STATUS,0,0,0,32767,[65535, 65535, 65535, 65535, 65535, 65535, 65535, 65535, 65535, 65535],-1,-1,-1,100,0,0,[0, 0, 0, 0],0,0,HEARTBEAT,6,8,0,0,0,3
0.6378791332244873,VFR_HUD,0.0,0.008886955678462982,56,0,-2.0899999141693115,0.02552911825478077,,,,,,,,,,,,,,,,AHRS,0.006859326269477606,0.0006240974180400372,-0.0020276776049286127,0.0,0.0,0.0005394802428781986,0.004255061969161034,GPS_RAW_INT,0,1,0,0,-17000,9999,9999,0,0,0,0,4294967295,4294967295,1000000,0,0,RC_CHANNELS,6593536,16,1501,1499,1004,1501,1000,1001,1500,1500,0,0,0,0,0,0,0,0,0,0,0,MISSION_CURRENT,0,SYS_STATUS,52485167,52461615,53510447,58,0,-1,-1,0,0,0,0,0,0,GLOBAL_POSITION_INT,6593536,0,0,-2090,-2093,0,0,-2,5602,RAW_IMU,2298569571,19,11,-992,-7,-1,2,295,-445,239,0,4308,BATTERY_STATUS,0,0,0,32767,[65535, 65535, 65535, 65535, 65535, 65535, 65535, 65535, 65535, 65535],-1,-1,-1,100,0,0,[0, 0, 0, 0],0,0,HEARTBEAT,6,8,0,0,0,3
0.6881582736968994,VFR_HUD,0.0,0.008886955678462982,56,0,-2.0899999141693115,0.02552911825478077,,,,,,,,,,,,,,,,AHRS,0.006859326269477606,0.0006240974180400372,-0.0020276776049286127,0.0,0.0,0.0005394802428781986,0.004255061969161034,GPS_RAW_INT,0,1,0,0,-17000,9999,9999,0,0,0,0,4294967295,4294967295,1000000,0,0,RC_CHANNELS,6593536,16,1501,1499,1004,1501,1000,1001,1500,1500,0,0,0,0,0,0,0,0,0,0,0,MISSION_CURRENT,0,SYS_STATUS,52485167,52461615,53510447,58,0,-1,-1,0,0,0,0,0,0,GLOBAL_POSITION_INT,6593536,0,0,-2090,-2093,0,0,-2,5602,RAW_IMU,2298569571,19,11,-992,-7,-1,2,295,-445,239,0,4308,BATTERY_STATUS,0,0,0,32767,[65535, 65535, 65535, 65535, 65535, 65535, 65535, 65535, 65535, 65535],-1,-1,-1,100,0,0,[0, 0, 0, 0],0,0,HEARTBEAT,6,8,0,0,0,3
0.7386131286621094,VFR_HUD,0.0,0.008886955678462982,56,0,-2.0899999141693115,0.02552911825478077,,,,,,,,,,,,,,,,AHRS,0.006859326269477606,0.0006240974180400372,-0.0020276776049286127,0.0,0.0,0.0005394802428781986,0.004255061969161034,GPS_RAW_INT,0,1,0,0,-17000,9999,9999,0,0,0,0,4294967295,4294967295,1000000,0,0,RC_CHANNELS,6593536,16,1501,1499,1004,1501,1000,1001,1500,1500,0,0,0,0,0,0,0,0,0,0,0,MISSION_CURRENT,0,SYS_STATUS,52485167,52461615,53510447,58,0,-1,-1,0,0,0,0,0,0,GLOBAL_POSITION_INT,6593536,0,0,-2090,-2093,0,0,-2,5602,RAW_IMU,2298569571,19,11,-992,-7,-1,2,295,-445,239,0,4308,BATTERY_STATUS,0,0,0,32767,[65535, 65535, 65535, 65535, 65535, 65535, 65535, 65535, 65535, 65535],-1,-1,-1,100,0,0,[0, 0, 0, 0],0,0,HEARTBEAT,6,8,0,0,0,3
0.788881778717041,VFR_HUD,0.0,0.008886955678462982,56,0,-2.0899999141693115,0.02552911825478077,,,,,,,,,,,,,,,,AHRS,0.006859326269477606,0.0006240974180400372,-0.0020276776049286127,0.0,0.0,0.0005394802428781986,0.004255061969161034,GPS_RAW_INT,0,1,0,0,-17000,9999,9999,0,0,0,0,4294967295,4294967295,1000000,0,0,RC_CHANNELS,6593536,16,1501,1499,1004,1501,1000,1001,1500,1500,0,0,0,0,0,0,0,0,0,0,0,MISSION_CURRENT,0,SYS_STATUS,52485167,52461615,53510447,58,0,-1,-1,0,0,0,0,0,0,GLOBAL_POSITION_INT,6593536,0,0,-2090,-2093,0,0,-2,5602,RAW_IMU,2298569571,19,11,-992,-7,-1,2,295,-445,239,0,4308,BATTERY_STATUS,0,0,0,32767,[65535, 65535, 65535, 65535, 65535, 65535, 65535, 65535, 65535, 65535],-1,-1,-1,100,0,0,[0, 0, 0, 0],0,0,HEARTBEAT,6,8,0,0,0,3
0.8390774726867676,VFR_HUD,0.0,0.008886955678462982,56,0,-2.0899999141693115,0.02552911825478077,,,,,,,,,,,,,,,,AHRS,0.006859326269477606,0.0006240974180400372,-0.0020276776049286127,0.0,0.0,0.0005394802428781986,0.004255061969161034,GPS_RAW_INT,0,1,0,0,-17000,9999,9999,0,0,0,0,4294967295,4294967295,1000000,0,0,RC_CHANNELS,6593536,16,1501,1499,1004,1501,1000,1001,1500,1500,0,0,0,0,0,0,0,0,0,0,0,MISSION_CURRENT,0,SYS_STATUS,52485167,52461615,53510447,58,0,-1,-1,0,0,0,0,0,0,GLOBAL_POSITION_INT,6593536,0,0,-2090,-2093,0,0,-2,5602,RAW_IMU,2298569571,19,11,-992,-7,-1,2,295,-445,239,0,4308,BATTERY_STATUS,0,0,0,32767,[65535, 65535, 65535, 65535, 65535, 65535, 65535, 65535, 65535, 65535],-1,-1,-1,100,0,0,[0, 0, 0, 0],0,0,HEARTBEAT,6,8,0,0,0,3
0.889338493347168,VFR_HUD,0.0,0.008886955678462982,56,0,-2.0899999141693115,0.02552911825478077,,,,,,,,,,,,,,,,AHRS,0.006859326269477606,0.0006240974180400372,-0.0020276776049286127,0.0,0.0,0.0005394802428781986,0.004255061969161034,GPS_RAW_INT,0,1,0,0,-17000,9999,9999,0,0,0,0,4294967295,4294967295,1000000,0,0,RC_CHANNELS,6593536,16,1501,1499,1004,1501,1000,1001,1500,1500,0,0,0,0,0,0,0,0,0,0,0,MISSION_CURRENT,0,SYS_STATUS,52485167,52461615,53510447,58,0,-1,-1,0,0,0,0,0,0,GLOBAL_POSITION_INT,6593536,0,0,-2090,-2093,0,0,-2,5602,RAW_IMU,2298569571,19,11,-992,-7,-1,2,295,-445,239,0,4308,BATTERY_STATUS,0,0,0,32767,[65535, 65535, 65535, 65535, 65535, 65535, 65535, 65535, 65535, 65535],-1,-1,-1,100,0,0,[0, 0, 0, 0],0,0,HEARTBEAT,6,8,0,0,0,3
0.9405851364135742,VFR_HUD,0.0,0.008886955678462982,56,0,-2.0899999141693115,0.02552911825478077,,,,,,,,,,,,,,,,AHRS,0.006859326269477606,0.0006240974180400372,-0.0020276776049286127,0.0,0.0,0.0005394802428781986,0.004255061969161034,GPS_RAW_INT,0,1,0,0,-17000,9999,9999,0,0,0,0,4294967295,4294967295,1000000,0,0,RC_CHANNELS,6593536,16,1501,1499,1004,1501,1000,1001,1500,1500,0,0,0,0,0,0,0,0,0,0,0,MISSION_CURRENT,0,SYS_STATUS,52485167,52461615,53510447,58,0,-1,-1,0,0,0,0,0,0,GLOBAL_POSITION_INT,6593536,0,0,-2090,-2093,0,0,-2,5602,RAW_IMU,2298569571,19,11,-992,-7,-1,2,295,-445,239,0,4308,BATTERY_STATUS,0,0,0,32767,[65535, 65535, 65535, 65535, 65535, 65535, 65535, 65535, 65535, 65535],-1,-1,-1,100,0,0,[0, 0, 0, 0],0,0,HEARTBEAT,6,8,0,0,0,3
0.9921379089355469,VFR_HUD,0.0,0.008886955678462982,56,0,-2.0899999141693115,0.02552911825478077,,,,,,,,,,,,,,,,AHRS,0.006859326269477606,0.0006240974180400372,-0.0020276776049286127,0.0,0.0,0.0005394802428781986,0.004255061969161034,GPS_RAW_INT,0,1,0,0,-17000,9999,9999,0,0,0,0,4294967295,4294967295,1000000,0,0,RC_CHANNELS,6593536,16,1501,1499,1004,1501,1000,1001,1500,1500,0,0,0,0,0,0,0,0,0,0,0,MISSION_CURRENT,0,SYS_STATUS,52485167,52461615,53510447,58,0,-1,-1,0,0,0,0,0,0,GLOBAL_POSITION_INT,6593536,0,0,-2090,-2093,0,0,-2,5602,RAW_IMU,2298569571,19,11,-992,-7,-1,2,295,-445,239,0,4308,BATTERY_STATUS,0,0,0,32767,[65535, 65535, 65535, 65535, 65535, 65535, 65535, 65535, 65535, 65535],-1,-1,-1,100,0,0,[0, 0, 0, 0],0,0,HEARTBEAT,6,8,0,0,0,3
1.043630838394165,VFR_HUD,0.0,0.008886955678462982,56,0,-2.0899999141693115,0.02552911825478077,,,,,,,,,,,,,,,,AHRS,0.006859326269477606,0.0006240974180400372,-0.0020276776049286127,0.0,0.0,0.0005394802428781986,0.004255061969161034,GPS_RAW_INT,0,1,0,0,-17000,9999,9999,0,0,0,0,4294967295,4294967295,1000000,0,0,RC_CHANNELS,6593536,16,1501,1499,1004,1501,1000,1001,1500,1500,0,0,0,0,0,0,0,0,0,0,0,MISSION_CURRENT,0,SYS_STATUS,52485167,52461615,53510447,58,0,-1,-1,0,0,0,0,0,0,GLOBAL_POSITION_INT,6593536,0,0,-2090,-2093,0,0,-2,5602,RAW_IMU,2298569571,19,11,-992,-7,-1,2,295,-445,239,0,4308,BATTERY_STATUS,0,0,0,32767,[65535, 65535, 65535, 65535, 65535, 65535, 65535, 65535, 65535, 65535],-1,-1,-1,100,0,0,[0, 0, 0, 0],0,0,HEARTBEAT,6,8,0,0,0,3
1.1442925930023193,VFR_HUD,0.0,0.008886955678462982,56,0,-2.0899999141693115,0.02552911825478077,,,,,,,,,,,,,,,,AHRS,0.006859326269477606,0.0006240974180400372,-0.0020276776049286127,0.0,0.0,0.0005394802428781986,0.004255061969161034,GPS_RAW_INT,0,1,0,0,-17000,9999,9999,0,0,0,0,4294967295,4294967295,1000000,0,0,RC_CHANNELS,6593536,16,1501,1499,1004,1501,1000,1001,1500,1500,0,0,0,0,0,0,0,0,0,0,0,MISSION_CURRENT,0,SYS_STATUS,52485167,52461615,53510447,58,0,-1,-1,0,0,0,0,0,0,GLOBAL_POSITION_INT,6593536,0,0,-2090,-2093,0,0,-2,5602,RAW_IMU,2298569571,19,11,-992,-7,-1,2,295,-445,239,0,4308,BATTERY_STATUS,0,0,0,32767,[65535, 65535, 65535, 65535, 65535, 65535, 65535, 65535, 65535, 65535],-1,-1,-1,100,0,0,[0, 0, 0, 0],0,0,HEARTBEAT,6,8,0,0,0,3
1.1953201293945312,VFR_HUD,0.0,0.008886955678462982,56,0,-2.0899999141693115,0.02552911825478077,,,,,,,,,,,,,,,,AHRS,0.006859326269477606,0.0006240974180400372,-0.0020276776049286127,0.0,0.0,0.0005394802428781986,0.004255061969161034,GPS_RAW_INT,0,1,0,0,-17000,9999,9999,0,0,0,0,4294967295,4294967295,1000000,0,0,RC_CHANNELS,6593536,16,1501,1499,1004,1501,1000,1001,1500,1500,0,0,0,0,0,0,0,0,0,0,0,MISSION_CURRENT,0,SYS_STATUS,52485167,52461615,53510447,37,0,-1,-1,0,0,0,0,0,0,GLOBAL_POSITION_INT,6594536,0,0,-2280,-2280,0,0,-2,5601,RAW_IMU,2298569571,19,11,-992,-7,-1,2,295,-445,239,0,4308,BATTERY_STATUS,0,0,0,32767,[65535, 65535, 65535, 65535, 65535, 65535, 65535, 65535, 65535, 65535],-1,-1,-1,100,0,0,[0, 0, 0, 0],0,0,HEARTBEAT,10,3,193,0,4,3
1.245542049407959,VFR_HUD,0.0,0.00745619460940361,56,0,-2.2799999713897705,0.02425624430179596,,,,,,,,,,,,,,,,AHRS,0.006859326269477606,0.0006240974180400372,-0.0020276776049286127,0.0,0.0,0.0005394802428781986,0.004255061969161034,GPS_RAW_INT,0,1,0,0,-17000,9999,9999,0,0,0,0,4294967295,4294967295,1000000,0,0,RC_CHANNELS,6594536,16,1501,1500,1004,1501,1000,1000,1500,1501,0,0,0,0,0,0,0,0,0,0,0,MISSION_CURRENT,0,SYS_STATUS,52485167,52461615,53510447,37,0,-1,-1,0,0,0,0,0,0,GLOBAL_POSITION_INT,6594536,0,0,-2280,-2280,0,0,-2,5601,RAW_IMU,2299569430,19,11,-991,-6,0,1,293,-438,239,0,4308,BATTERY_STATUS,0,0,0,32767,[65535, 65535, 65535, 65535, 65535, 65535, 65535, 65535, 65535, 65535],-1,-1,-1,100,0,0,[0, 0, 0, 0],0,0,HEARTBEAT,10,3,193,0,4,3
1.295896053314209,VFR_HUD,0.0,0.00745619460940361,56,0,-2.2799999713897705,0.02425624430179596,,,,,,,,,,,,,,,,AHRS,0.006862584967166185,0.0006243991083465517,-0.0020290042739361525,0.0,0.0,0.00046780749107711017,0.004052323289215565,GPS_RAW_INT,0,1,0,0,-17000,9999,9999,0,0,0,0,4294967295,4294967295,1000000,0,0,RC_CHANNELS,6594536,16,1501,1500,1004,1501,1000,1000,1500,1501,0,0,0,0,0,0,0,0,0,0,0,MISSION_CURRENT,0,SYS_STATUS,52485167,52461615,53510447,37,0,-1,-1,0,0,0,0,0,0,GLOBAL_POSITION_INT,6594536,0,0,-2280,-2280,0,0,-2,5601,RAW_IMU,2299569430,19,11,-991,-6,0,1,293,-438,239,0,4308,BATTERY_STATUS,0,0,0,32767,[65535, 65535, 65535, 65535, 65535, 65535, 65535, 65535, 65535, 65535],-1,-1,-1,100,0,0,[0, 0, 0, 0],0,0,HEARTBEAT,10,3,193,0,4,3
1.3461804389953613,VFR_HUD,0.0,0.00745619460940361,56,0,-2.2799999713897705,0.02425624430179596,,,,,,,,,,,,,,,,AHRS,0.006862584967166185,0.0006243991083465517,-0.0020290042739361525,0.0,0.0,0.00046780749107711017,0.004052323289215565,GPS_RAW_INT,0,1,0,0,-17000,9999,9999,0,0,0,0,4294967295,4294967295,1000000,0,0,RC_CHANNELS,6594536,16,1501,1500,1004,1501,1000,1000,1500,1501,0,0,0,0,0,0,0,0,0,0,0,MISSION_CURRENT,0,SYS_STATUS,52485167,52461615,53510447,37,0,-1,-1,0,0,0,0,0,0,GLOBAL_POSITION_INT,6594536,0,0,-2280,-2280,0,0,-2,5601,RAW_IMU,2299569430,19,11,-991,-6,0,1,293,-438,239,0,4308,BATTERY_STATUS,0,0,0,32767,[65535, 65535, 65535, 65535, 65535, 65535, 65535, 65535, 65535, 65535],-1,-1,-1,100,0,0,[0, 0, 0, 0],0,0,HEARTBEAT,10,3,193,0,4,3
1.3964612483978271,VFR_HUD,0.0,0.00745619460940361,56,0,-2.2799999713897705,0.02425624430179596,,,,,,,,,,,,,,,,AHRS,0.006862584967166185,0.0006243991083465517,-0.0020290042739361525,0.0,0.0,0.00046780749107711017,0.004052323289215565,GPS_RAW_INT,0,1,0,0,-17000,9999,9999,0,0,0,0,4294967295,4294967295,1000000,0,0,RC_CHANNELS,6594536,16,1501,1500,1004,1501,1000,1000,1500,1501,0,0,0,0,0,0,0,0,0,0,0,MISSION_CURRENT,0,SYS_STATUS,52485167,52461615,53510447,37,0,-1,-1,0,0,0,0,0,0,GLOBAL_POSITION_INT,6594536,0,0,-2280,-2280,0,0,-2,5601,RAW_IMU,2299569430,19,11,-991,-6,0,1,293,-438,239,0,4308,BATTERY_STATUS,0,0,0,32767,[65535, 65535, 65535, 65535, 65535, 65535, 65535, 65535, 65535, 65535],-1,-1,-1,100,0,0,[0, 0, 0, 0],0,0,HEARTBEAT,10,3,193,0,4,3
1.4466984272003174,VFR_HUD,0.0,0.00745619460940361,56,0,-2.2799999713897705,0.02425624430179596,,,,,,,,,,,,,,,,AHRS,0.006862584967166185,0.0006243991083465517,-0.0020290042739361525,0.0,0.0,0.00046780749107711017,0.004052323289215565,GPS_RAW_INT,0,1,0,0,-17000,9999,9999,0,0,0,0,4294967295,4294967295,1000000,0,0,RC_CHANNELS,6594536,16,1501,1500,1004,1501,1000,1000,1500,1501,0,0,0,0,0,0,0,0,0,0,0,MISSION_CURRENT,0,SYS_STATUS,52485167,52461615,53510447,37,0,-1,-1,0,0,0,0,0,0,GLOBAL_POSITION_INT,6594536,0,0,-2280,-2280,0,0,-2,5601,RAW_IMU,2299569430,19,11,-991,-6,0,1,293,-438,239,0,4308,BATTERY_STATUS,0,0,0,32767,[65535, 65535, 65535, 65535, 65535, 65535, 65535, 65535, 65535, 65535],-1,-1,-1,100,0,0,[0, 0, 0, 0],0,0,HEARTBEAT,10,3,193,0,4,3
1.4969069957733154,VFR_HUD,0.0,0.00745619460940361,56,0,-2.2799999713897705,0.02425624430179596,,,,,,,,,,,,,,,,AHRS,0.006862584967166185,0.0006243991083465517,-0.0020290042739361525,0.0,0.0,0.00046780749107711017,0.004052323289215565,GPS_RAW_INT,0,1,0,0,-17000,9999,9999,0,0,0,0,4294967295,4294967295,1000000,0,0,RC_CHANNELS,6594536,16,1501,1500,1004,1501,1000,1000,1500,1501,0,0,0,0,0,0,0,0,0,0,0,MISSION_CURRENT,0,SYS_STATUS,52485167,52461615,53510447,37,0,-1,-1,0,0,0,0,0,0,GLOBAL_POSITION_INT,6594536,0,0,-2280,-2280,0,0,-2,5601,RAW_IMU,2299569430,19,11,-991,-6,0,1,293,-438,239,0,4308,BATTERY_STATUS,0,0,0,32767,[65535, 65535, 65535, 65535, 65535, 65535, 65535, 65535, 65535, 65535],-1,-1,-1,100,0,0,[0, 0, 0, 0],0,0,HEARTBEAT,10,3,193,0,4,3
1.5471606254577637,VFR_HUD,0.0,0.00745619460940361,56,0,-2.2799999713897705,0.02425624430179596,,,,,,,,,,,,,,,,AHRS,0.006862584967166185,0.0006243991083465517,-0.0020290042739361525,0.0,0.0,0.00046780749107711017,0.004052323289215565,GPS_RAW_INT,0,1,0,0,-17000,9999,9999,0,0,0,0,4294967295,4294967295,1000000,0,0,RC_CHANNELS,6594536,16,1501,1500,1004,1501,1000,1000,1500,1501,0,0,0,0,0,0,0,0,0,0,0,MISSION_CURRENT,0,SYS_STATUS,52485167,52461615,53510447,37,0,-1,-1,0,0,0,0,0,0,GLOBAL_POSITION_INT,6594536,0,0,-2280,-2280,0,0,-2,5601,RAW_IMU,2299569430,19,11,-991,-6,0,1,293,-438,239,0,4308,BATTERY_STATUS,0,0,0,32767,[65535, 65535, 65535, 65535, 65535, 65535, 65535, 65535, 65535, 65535],-1,-1,-1,100,0,0,[0, 0, 0, 0],0,0,HEARTBEAT,10,3,193,0,4,3
1.5973923206329346,VFR_HUD,0.0,0.00745619460940361,56,0,-2.2799999713897705,0.02425624430179596,,,,,,,,,,,,,,,,AHRS,0.006862584967166185,0.0006243991083465517,-0.0020290042739361525,0.0,0.0,0.00046780749107711017,0.004052323289215565,GPS_RAW_INT,0,1,0,0,-17000,9999,9999,0,0,0,0,4294967295,4294967295,1000000,0,0,RC_CHANNELS,6594536,16,1501,1500,1004,1501,1000,1000,1500,1501,0,0,0,0,0,0,0,0,0,0,0,MISSION_CURRENT,0,SYS_STATUS,52485167,52461615,53510447,37,0,-1,-1,0,0,0,0,0,0,GLOBAL_POSITION_INT,6594536,0,0,-2280,-2280,0,0,-2,5601,RAW_IMU,2299569430,19,11,-991,-6,0,1,293,-438,239,0,4308,BATTERY_STATUS,0,0,0,32767,[65535, 65535, 65535, 65535, 65535, 65535, 65535, 65535, 65535, 65535],-1,-1,-1,100,0,0,[0, 0, 0, 0],0,0,HEARTBEAT,10,3,193,0,4,3
1.6477124691009521,VFR_HUD,0.0,0.00745619460940361,56,0,-2.2799999713897705,0.02425624430179596,,,,,,,,,,,,,,,,AHRS,0.006862584967166185,0.0006243991083465517,-0.0020290042739361525,0.0,0.0,0.00046780749107711017,0.004052323289215565,GPS_RAW_INT,0,1,0,0,-17000,9999,9999,0,0,0,0,4294967295,4294967295,1000000,0,0,RC_CHANNELS,6594536,16,1501,1500,1004,1501,1000,1000,1500,1501,0,0,0,0,0,0,0,0,0,0,0,MISSION_CURRENT,0,SYS_STATUS,52485167,52461615,53510447,37,0,-1,-1,0,0,0,0,0,0,GLOBAL_POSITION_INT,6594536,0,0,-2280,-2280,0,0,-2,5601,RAW_IMU,2299569430,19,11,-991,-6,0,1,293,-438,239,0,4308,BATTERY_STATUS,0,0,0,32767,[65535, 65535, 65535, 65535, 65535, 65535, 65535, 65535, 65535, 65535],-1,-1,-1,100,0,0,[0, 0, 0, 0],0,0,HEARTBEAT,6,8,0,0,0,3
1.6979777812957764,VFR_HUD,0.0,0.00745619460940361,56,0,-2.2799999713897705,0.02425624430179596,,,,,,,,,,,,,,,,AHRS,0.006862584967166185,0.0006243991083465517,-0.0020290042739361525,0.0,0.0,0.00046780749107711017,0.004052323289215565,GPS_RAW_INT,0,1,0,0,-17000,9999,9999,0,0,0,0,4294967295,4294967295,1000000,0,0,RC_CHANNELS,6594536,16,1501,1500,1004,1501,1000,1000,1500,1501,0,0,0,0,0,0,0,0,0,0,0,MISSION_CURRENT,0,SYS_STATUS,52485167,52461615,53510447,37,0,-1,-1,0,0,0,0,0,0,GLOBAL_POSITION_INT,6594536,0,0,-2280,-2280,0,0,-2,5601,RAW_IMU,2299569430,19,11,-991,-6,0,1,293,-438,239,0,4308,BATTERY_STATUS,0,0,0,32767,[65535, 65535, 65535, 65535, 65535, 65535, 65535, 65535, 65535, 65535],-1,-1,-1,100,0,0,[0, 0, 0, 0],0,0,HEARTBEAT,6,8,0,0,0,3
1.7482423782348633,VFR_HUD,0.0,0.00745619460940361,56,0,-2.2799999713897705,0.02425624430179596,,,,,,,,,,,,,,,,AHRS,0.006862584967166185,0.0006243991083465517,-0.0020290042739361525,0.0,0.0,0.00046780749107711017,0.004052323289215565,GPS_RAW_INT,0,1,0,0,-17000,9999,9999,0,0,0,0,4294967295,4294967295,1000000,0,0,RC_CHANNELS,6594536,16,1501,1500,1004,1501,1000,1000,1500,1501,0,0,0,0,0,0,0,0,0,0,0,MISSION_CURRENT,0,SYS_STATUS,52485167,52461615,53510447,37,0,-1,-1,0,0,0,0,0,0,GLOBAL_POSITION_INT,6594536,0,0,-2280,-2280,0,0,-2,5601,RAW_IMU,2299569430,19,11,-991,-6,0,1,293,-438,239,0,4308,BATTERY_STATUS,0,0,0,32767,[65535, 65535, 65535, 65535, 65535, 65535, 65535, 65535, 65535, 65535],-1,-1,-1,100,0,0,[0, 0, 0, 0],0,0,HEARTBEAT,6,8,0,0,0,3
1.7984623908996582,VFR_HUD,0.0,0.00745619460940361,56,0,-2.2799999713897705,0.02425624430179596,,,,,,,,,,,,,,,,AHRS,0.006862584967166185,0.0006243991083465517,-0.0020290042739361525,0.0,0.0,0.00046780749107711017,0.004052323289215565,GPS_RAW_INT,0,1,0,0,-17000,9999,9999,0,0,0,0,4294967295,4294967295,1000000,0,0,RC_CHANNELS,6594536,16,1501,1500,1004,1501,1000,1000,1500,1501,0,0,0,0,0,0,0,0,0,0,0,MISSION_CURRENT,0,SYS_STATUS,52485167,52461615,53510447,37,0,-1,-1,0,0,0,0,0,0,GLOBAL_POSITION_INT,6594536,0,0,-2280,-2280,0,0,-2,5601,RAW_IMU,2299569430,19,11,-991,-6,0,1,293,-438,239,0,4308,BATTERY_STATUS,0,0,0,32767,[65535, 65535, 65535, 65535, 65535, 65535, 65535, 65535, 65535, 65535],-1,-1,-1,100,0,0,[0, 0, 0, 0],0,0,HEARTBEAT,6,8,0,0,0,3
1.8486545085906982,VFR_HUD,0.0,0.00745619460940361,56,0,-2.2799999713897705,0.02425624430179596,,,,,,,,,,,,,,,,AHRS,0.006862584967166185,0.0006243991083465517,-0.0020290042739361525,0.0,0.0,0.00046780749107711017,0.004052323289215565,GPS_RAW_INT,0,1,0,0,-17000,9999,9999,0,0,0,0,4294967295,4294967295,1000000,0,0,RC_CHANNELS,6594536,16,1501,1500,1004,1501,1000,1000,1500,1501,0,0,0,0,0,0,0,0,0,0,0,MISSION_CURRENT,0,SYS_STATUS,52485167,52461615,53510447,37,0,-1,-1,0,0,0,0,0,0,GLOBAL_POSITION_INT,6594536,0,0,-2280,-2280,0,0,-2,5601,RAW_IMU,2299569430,19,11,-991,-6,0,1,293,-438,239,0,4308,BATTERY_STATUS,0,0,0,32767,[65535, 65535, 65535, 65535, 65535, 65535, 65535, 65535, 65535, 65535],-1,-1,-1,100,0,0,[0, 0, 0, 0],0,0,HEARTBEAT,6,8,0,0,0,3
1.8988878726959229,VFR_HUD,0.0,0.00745619460940361,56,0,-2.2799999713897705,0.02425624430179596,,,,,,,,,,,,,,,,AHRS,0.006862584967166185,0.0006243991083465517,-0.0020290042739361525,0.0,0.0,0.00046780749107711017,0.004052323289215565,GPS_RAW_INT,0,1,0,0,-17000,9999,9999,0,0,0,0,4294967295,4294967295,1000000,0,0,RC_CHANNELS,6594536,16,1501,1500,1004,1501,1000,1000,1500,1501,0,0,0,0,0,0,0,0,0,0,0,MISSION_CURRENT,0,SYS_STATUS,52485167,52461615,53510447,37,0,-1,-1,0,0,0,0,0,0,GLOBAL_POSITION_INT,6594536,0,0,-2280,-2280,0,0,-2,5601,RAW_IMU,2299569430,19,11,-991,-6,0,1,293,-438,239,0,4308,BATTERY_STATUS,0,0,0,32767,[65535, 65535, 65535, 65535, 65535, 65535, 65535, 65535, 65535, 65535],-1,-1,-1,100,0,0,[0, 0, 0, 0],0,0,HEARTBEAT,6,8,0,0,0,3
1.9491684436798096,VFR_HUD,0.0,0.00745619460940361,56,0,-2.2799999713897705,0.02425624430179596,,,,,,,,,,,,,,,,AHRS,0.006862584967166185,0.0006243991083465517,-0.0020290042739361525,0.0,0.0,0.00046780749107711017,0.004052323289215565,GPS_RAW_INT,0,1,0,0,-17000,9999,9999,0,0,0,0,4294967295,4294967295,1000000,0,0,RC_CHANNELS,6594536,16,1501,1500,1004,1501,1000,1000,1500,1501,0,0,0,0,0,0,0,0,0,0,0,MISSION_CURRENT,0,SYS_STATUS,52485167,52461615,53510447,37,0,-1,-1,0,0,0,0,0,0,GLOBAL_POSITION_INT,6594536,0,0,-2280,-2280,0,0,-2,5601,RAW_IMU,2299569430,19,11,-991,-6,0,1,293,-438,239,0,4308,BATTERY_STATUS,0,0,0,32767,[65535, 65535, 65535, 65535, 65535, 65535, 65535, 65535, 65535, 65535],-1,-1,-1,100,0,0,[0, 0, 0, 0],0,0,HEARTBEAT,6,8,0,0,0,3
1.999375581741333,VFR_HUD,0.0,0.00745619460940361,56,0,-2.2799999713897705,0.02425624430179596,,,,,,,,,,,,,,,,AHRS,0.006862584967166185,0.0006243991083465517,-0.0020290042739361525,0.0,0.0,0.00046780749107711017,0.004052323289215565,GPS_RAW_INT,0,1,0,0,-17000,9999,9999,0,0,0,0,4294967295,4294967295,1000000,0,0,RC_CHANNELS,6594536,16,1501,1500,1004,1501,1000,1000,1500,1501,0,0,0,0,0,0,0,0,0,0,0,MISSION_CURRENT,0,SYS_STATUS,52485167,52461615,53510447,37,0,-1,-1,0,0,0,0,0,0,GLOBAL_POSITION_INT,6594536,0,0,-2280,-2280,0,0,-2,5601,RAW_IMU,2299569430,19,11,-991,-6,0,1,293,-438,239,0,4308,BATTERY_STATUS,0,0,0,32767,[65535, 65535, 65535, 65535, 65535, 65535, 65535, 65535, 65535, 65535],-1,-1,-1,100,0,0,[0, 0, 0, 0],0,0,HEARTBEAT,6,8,0,0,0,3
2.0495681762695312,VFR_HUD,0.0,0.00745619460940361,56,0,-2.2799999713897705,0.02425624430179596,,,,,,,,,,,,,,,,AHRS,0.006862584967166185,0.0006243991083465517,-0.0020290042739361525,0.0,0.0,0.00046780749107711017,0.004052323289215565,GPS_RAW_INT,0,1,0,0,-17000,9999,9999,0,0,0,0,4294967295,4294967295,1000000,0,0,RC_CHANNELS,6594536,16,1501,1500,1004,1501,1000,1000,1500,1501,0,0,0,0,0,0,0,0,0,0,0,MISSION_CURRENT,0,SYS_STATUS,52485167,52461615,53510447,37,0,-1,-1,0,0,0,0,0,0,GLOBAL_POSITION_INT,6594536,0,0,-2280,-2280,0,0,-2,5601,RAW_IMU,2299569430,19,11,-991,-6,0,1,293,-438,239,0,4308,BATTERY_STATUS,0,0,0,32767,[65535, 65535, 65535, 65535, 65535, 65535, 65535, 65535, 65535, 65535],-1,-1,-1,100,0,0,[0, 0, 0, 0],0,0,HEARTBEAT,6,8,0,0,0,3
2.0997514724731445,VFR_HUD,0.0,0.00745619460940361,56,0,-2.2799999713897705,0.02425624430179596,,,,,,,,,,,,,,,,AHRS,0.006862584967166185,0.0006243991083465517,-0.0020290042739361525,0.0,0.0,0.00046780749107711017,0.004052323289215565,GPS_RAW_INT,0,1,0,0,-17000,9999,9999,0,0,0,0,4294967295,4294967295,1000000,0,0,RC_CHANNELS,6594536,16,1501,1500,1004,1501,1000,1000,1500,1501,0,0,0,0,0,0,0,0,0,0,0,MISSION_CURRENT,0,SYS_STATUS,52485167,52461615,53510447,37,0,-1,-1,0,0,0,0,0,0,GLOBAL_POSITION_INT,6594536,0,0,-2280,-2280,0,0,-2,5601,RAW_IMU,2299569430,19,11,-991,-6,0,1,293,-438,239,0,4308,BATTERY_STATUS,0,0,0,32767,[65535, 65535, 65535, 65535, 65535, 65535, 65535, 65535, 65535, 65535],-1,-1,-1,100,0,0,[0, 0, 0, 0],0,0,HEARTBEAT,6,8,0,0,0,3
2.1500470638275146,VFR_HUD,0.0,0.00745619460940361,56,0,-2.2799999713897705,0.02425624430179596,,,,,,,,,,,,,,,,AHRS,0.006862584967166185,0.0006243991083465517,-0.0020290042739361525,0.0,0.0,0.00046780749107711017,0.004052323289215565,GPS_RAW_INT,0,1,0,0,-17000,9999,9999,0,0,0,0,4294967295,4294967295,1000000,0,0,RC_CHANNELS,6594536,16,1501,1500,1004,1501,1000,1000,1500,1501,0,0,0,0,0,0,0,0,0,0,0,MISSION_CURRENT,0,SYS_STATUS,52485167,52461615,53510447,37,0,-1,-1,0,0,0,0,0,0,GLOBAL_POSITION_INT,6594536,0,0,-2280,-2280,0,0,-2,5601,RAW_IMU,2299569430,19,11,-991,-6,0,1,293,-438,239,0,4308,BATTERY_STATUS,0,0,0,32767,[65535, 65535, 65535, 65535, 65535, 65535, 65535, 65535, 65535, 65535],-1,-1,-1,100,0,0,[0, 0, 0, 0],0,0,HEARTBEAT,6,8,0,0,0,3
2.200287103652954,VFR_HUD,0.0,0.00745619460940361,56,0,-2.2799999713897705,0.02425624430179596,,,,,,,,,,,,,,,,AHRS,0.006862584967166185,0.0006243991083465517,-0.0020290042739361525,0.0,0.0,0.00046780749107711017,0.004052323289215565,GPS_RAW_INT,0,1,0,0,-17000,9999,9999,0,0,0,0,4294967295,4294967295,1000000,0,0,RC_CHANNELS,6594536,16,1501,1500,1004,1501,1000,1000,1500,1501,0,0,0,0,0,0,0,0,0,0,0,MISSION_CURRENT,0,SYS_STATUS,52485167,52461615,53510447,37,0,-1,-1,0,0,0,0,0,0,GLOBAL_POSITION_INT,6594536,0,0,-2280,-2280,0,0,-2,5601,RAW_IMU,2299569430,19,11,-991,-6,0,1,293,-438,239,0,4308,BATTERY_STATUS,0,0,0,32767,[65535, 65535, 65535, 65535, 65535, 65535, 65535, 65535, 65535, 65535],-1,-1,-1,100,0,0,[0, 0, 0, 0],0,0,HEARTBEAT,6,8,0,0,0,3
2.2504849433898926,VFR_HUD,0.0,0.00745619460940361,56,0,-2.2799999713897705,0.02425624430179596,,,,,,,,,,,,,,,,AHRS,0.006862584967166185,0.0006243991083465517,-0.0020290042739361525,0.0,0.0,0.00046780749107711017,0.004052323289215565,GPS_RAW_INT,0,1,0,0,-17000,9999,9999,0,0,0,0,4294967295,4294967295,1000000,0,0,RC_CHANNELS,6594536,16,1501,1500,1004,1501,1000,1000,1500,1501,0,0,0,0,0,0,0,0,0,0,0,MISSION_CURRENT,0,SYS_STATUS,52485167,52461615,53510447,37,0,-1,-1,0,0,0,0,0,0,GLOBAL_POSITION_INT,6594536,0,0,-2280,-2280,0,0,-2,5601,RAW_IMU,2299569430,19,11,-991,-6,0,1,293,-438,239,0,4308,BATTERY_STATUS,0,0,0,32767,[65535, 65535, 65535, 65535, 65535, 65535, 65535, 65535, 65535, 65535],-1,-1,-1,100,0,0,[0, 0, 0, 0],0,0,HEARTBEAT,6,8,0,0,0,3
2.300737142562866,VFR_HUD,0.0,0.00745619460940361,56,0,-2.2799999713897705,0.02425624430179596,,,,,,,,,,,,,,,,AHRS,0.006862584967166185,0.0006243991083465517,-0.0020290042739361525,0.0,0.0,0.00046780749107711017,0.004052323289215565,GPS_RAW_INT,0,1,0,0,-17000,9999,9999,0,0,0,0,4294967295,4294967295,1000000,0,0,RC_CHANNELS,6594536,16,1501,1500,1004,1501,1000,1000,1500,1501,0,0,0,0,0,0,0,0,0,0,0,MISSION_CURRENT,0,SYS_STATUS,52485167,52461615,53510447,37,0,-1,-1,0,0,0,0,0,0,GLOBAL_POSITION_INT,6594536,0,0,-2280,-2280,0,0,-2,5601,RAW_IMU,2299569430,19,11,-991,-6,0,1,293,-438,239,0,4308,BATTERY_STATUS,0,0,0,32767,[65535, 65535, 65535, 65535, 65535, 65535, 65535, 65535, 65535, 65535],-1,-1,-1,100,0,0,[0, 0, 0, 0],0,0,HEARTBEAT,6,8,0,0,0,3
2.3509812355041504,VFR_HUD,0.0,0.00745619460940361,56,0,-2.2799999713897705,0.02425624430179596,,,,,,,,,,,,,,,,AHRS,0.006862584967166185,0.0006243991083465517,-0.0020290042739361525,0.0,0.0,0.00046780749107711017,0.004052323289215565,GPS_RAW_INT,0,1,0,0,-17000,9999,9999,0,0,0,0,4294967295,4294967295,1000000,0,0,RC_CHANNELS,6594536,16,1501,1500,1004,1501,1000,1000,1500,1501,0,0,0,0,0,0,0,0,0,0,0,MISSION_CURRENT,0,SYS_STATUS,52485167,52461615,53510447,37,0,-1,-1,0,0,0,0,0,0,GLOBAL_POSITION_INT,6594536,0,0,-2280,-2280,0,0,-2,5601,RAW_IMU,2299569430,19,11,-991,-6,0,1,293,-438,239,0,4308,BATTERY_STATUS,0,0,0,32767,[65535, 65535, 65535, 65535, 65535, 65535, 65535, 65535, 65535, 65535],-1,-1,-1,100,0,0,[0, 0, 0, 0],0,0,HEARTBEAT,10,3,193,0,4,3
2.4012043476104736,VFR_HUD,0.0,0.00745619460940361,56,0,-2.2799999713897705,0.02425624430179596,,,,,,,,,,,,,,,,AHRS,0.006862584967166185,0.0006243991083465517,-0.0020290042739361525,0.0,0.0,0.00046780749107711017,0.004052323289215565,GPS_RAW_INT,0,1,0,0,-17000,9999,9999,0,0,0,0,4294967295,4294967295,1000000,0,0,RC_CHANNELS,6594536,16,1501,1500,1004,1501,1000,1000,1500,1501,0,0,0,0,0,0,0,0,0,0,0,MISSION_CURRENT,0,SYS_STATUS,52485167,52461615,53510447,37,0,-1,-1,0,0,0,0,0,0,GLOBAL_POSITION_INT,6594536,0,0,-2280,-2280,0,0,-2,5601,RAW_IMU,2299569430,19,11,-991,-6,0,1,293,-438,239,0,4308,BATTERY_STATUS,0,0,0,32767,[65535, 65535, 65535, 65535, 65535, 65535, 65535, 65535, 65535, 65535],-1,-1,-1,100,0,0,[0, 0, 0, 0],0,0,HEARTBEAT,10,3,193,0,4,3
2.4514474868774414,VFR_HUD,0.0,0.00745619460940361,56,0,-2.2799999713897705,0.02425624430179596,,,,,,,,,,,,,,,,AHRS,0.006862584967166185,0.0006243991083465517,-0.0020290042739361525,0.0,0.0,0.00046780749107711017,0.004052323289215565,GPS_RAW_INT,0,1,0,0,-17000,9999,9999,0,0,0,0,4294967295,4294967295,1000000,0,0,RC_CHANNELS,6594536,16,1501,1500,1004,1501,1000,1000,1500,1501,0,0,0,0,0,0,0,0,0,0,0,MISSION_CURRENT,0,SYS_STATUS,52485167,52461615,53510447,37,0,-1,-1,0,0,0,0,0,0,GLOBAL_POSITION_INT,6594536,0,0,-2280,-2280,0,0,-2,5601,RAW_IMU,2299569430,19,11,-991,-6,0,1,293,-438,239,0,4308,BATTERY_STATUS,0,0,0,32767,[65535, 65535, 65535, 65535, 65535, 65535, 65535, 65535, 65535, 65535],-1,-1,-1,100,0,0,[0, 0, 0, 0],0,0,HEARTBEAT,10,3,193,0,4,3
2.501650810241699,VFR_HUD,0.0,0.00745619460940361,56,0,-2.2799999713897705,0.02425624430179596,,,,,,,,,,,,,,,,AHRS,0.006862584967166185,0.0006243991083465517,-0.0020290042739361525,0.0,0.0,0.00046780749107711017,0.004052323289215565,GPS_RAW_INT,0,1,0,0,-17000,9999,9999,0,0,0,0,4294967295,4294967295,1000000,0,0,RC_CHANNELS,6594536,16,1501,1500,1004,1501,1000,1000,1500,1501,0,0,0,0,0,0,0,0,0,0,0,MISSION_CURRENT,0,SYS_STATUS,52485167,52461615,53510447,37,0,-1,-1,0,0,0,0,0,0,GLOBAL_POSITION_INT,6595537,0,0,-2340,-2345,0,0,-1,5601,RAW_IMU,2299569430,19,11,-991,-6,0,1,293,-438,239,0,4308,BATTERY_STATUS,0,0,0,32767,[65535, 65535, 65535, 65535, 65535, 65535, 65535, 65535, 65535, 65535],-1,-1,-1,100,0,0,[0, 0, 0, 0],0,0,HEARTBEAT,10,3,193,0,4,3
2.5518972873687744,VFR_HUD,0.0,0.00937435682862997,56,0,-2.3399999141693115,0.014613782986998558,,,,,,,,,,,,,,,,AHRS,0.006862584967166185,0.0006243991083465517,-0.0020290042739361525,0.0,0.0,0.00046780749107711017,0.004052323289215565,GPS_RAW_INT,0,1,0,0,-17000,9999,9999,0,0,0,0,4294967295,4294967295,1000000,0,0,RC_CHANNELS,6595537,16,1501,1499,1004,1502,1000,1000,1500,1500,0,0,0,0,0,0,0,0,0,0,0,MISSION_CURRENT,0,SYS_STATUS,52485167,52461615,53510447,34,0,-1,-1,0,0,0,0,0,0,GLOBAL_POSITION_INT,6595537,0,0,-2340,-2345,0,0,-1,5601,RAW_IMU,2299569430,19,11,-991,-6,0,1,293,-438,239,0,4308,BATTERY_STATUS,0,0,0,32767,[65535, 65535, 65535, 65535, 65535, 65535, 65535, 65535, 65535, 65535],-1,-1,-1,100,0,0,[0, 0, 0, 0],0,0,HEARTBEAT,10,3,193,0,4,3
2.602130651473999,VFR_HUD,0.0,0.00937435682862997,56,0,-2.3399999141693115,0.014613782986998558,,,,,,,,,,,,,,,,AHRS,0.006860898807644844,0.0006242582458071411,-0.002028899732977152,0.0,0.0,0.00049171521095559,0.0033227906096726656,GPS_RAW_INT,0,1,0,0,-17000,9999,9999,0,0,0,0,4294967295,4294967295,1000000,0,0,RC_CHANNELS,6595537,16,1501,1499,1004,1502,1000,1000,1500,1500,0,0,0,0,0,0,0,0,0,0,0,MISSION_CURRENT,0,SYS_STATUS,52485167,52461615,53510447,34,0,-1,-1,0,0,0,0,0,0,GLOBAL_POSITION_INT,6595537,0,0,-2340,-2345,0,0,-1,5601,RAW_IMU,2300569895,18,10,-991,-7,0,2,294,-441,235,0,4308,BATTERY_STATUS,0,0,0,32767,[65535, 65535, 65535, 65535, 65535, 65535, 65535, 65535, 65535, 65535],-1,-1,-1,100,0,0,[0, 0, 0, 0],0,0,HEARTBEAT,10,3,193,0,4,3
2.652336359024048,VFR_HUD,0.0,0.00937435682862997,56,0,-2.3399999141693115,0.014613782986998558,,,,,,,,,,,,,,,,AHRS,0.006860898807644844,0.0006242582458071411,-0.002028899732977152,0.0,0.0,0.00049171521095559,0.0033227906096726656,GPS_RAW_INT,0,1,0,0,-17000,9999,9999,0,0,0,0,4294967295,4294967295,1000000,0,0,RC_CHANNELS,6595537,16,1501,1499,1004,1502,1000,1000,1500,1500,0,0,0,0,0,0,0,0,0,0,0,MISSION_CURRENT,0,SYS_STATUS,52485167,52461615,53510447,34,0,-1,-1,0,0,0,0,0,0,GLOBAL_POSITION_INT,6595537,0,0,-2340,-2345,0,0,-1,5601,RAW_IMU,2300569895,18,10,-991,-7,0,2,294,-441,235,0,4308,BATTERY_STATUS,0,0,0,32767,[65535, 65535, 65535, 65535, 65535, 65535, 65535, 65535, 65535, 65535],-1,-1,-1,100,0,0,[0, 0, 0, 0],0,0,HEARTBEAT,10,3,193,0,4,3
2.702542781829834,VFR_HUD,0.0,0.00937435682862997,56,0,-2.3399999141693115,0.014613782986998558,,,,,,,,,,,,,,,,AHRS,0.006860898807644844,0.0006242582458071411,-0.002028899732977152,0.0,0.0,0.00049171521095559,0.0033227906096726656,GPS_RAW_INT,0,1,0,0,-17000,9999,9999,0,0,0,0,4294967295,4294967295,1000000,0,0,RC_CHANNELS,6595537,16,1501,1499,1004,1502,1000,1000,1500,1500,0,0,0,0,0,0,0,0,0,0,0,MISSION_CURRENT,0,SYS_STATUS,52485167,52461615,53510447,34,0,-1,-1,0,0,0,0,0,0,GLOBAL_POSITION_INT,6595537,0,0,-2340,-2345,0,0,-1,5601,RAW_IMU,2300569895,18,10,-991,-7,0,2,294,-441,235,0,4308,BATTERY_STATUS,0,0,0,32767,[65535, 65535, 65535, 65535, 65535, 65535, 65535, 65535, 65535, 65535],-1,-1,-1,100,0,0,[0, 0, 0, 0],0,0,HEARTBEAT,10,3,193,0,4,3
2.8029704093933105,VFR_HUD,0.0,0.00937435682862997,56,0,-2.3399999141693115,0.014613782986998558,,,,,,,,,,,,,,,,AHRS,0.006860898807644844,0.0006242582458071411,-0.002028899732977152,0.0,0.0,0.00049171521095559,0.0033227906096726656,GPS_RAW_INT,0,1,0,0,-17000,9999,9999,0,0,0,0,4294967295,4294967295,1000000,0,0,RC_CHANNELS,6595537,16,1501,1499,1004,1502,1000,1000,1500,1500,0,0,0,0,0,0,0,0,0,0,0,MISSION_CURRENT,0,SYS_STATUS,52485167,52461615,53510447,34,0,-1,-1,0,0,0,0,0,0,GLOBAL_POSITION_INT,6595537,0,0,-2340,-2345,0,0,-1,5601,RAW_IMU,2300569895,18,10,-991,-7,0,2,294,-441,235,0,4308,BATTERY_STATUS,0,0,0,32767,[65535, 65535, 65535, 65535, 65535, 65535, 65535, 65535, 65535, 65535],-1,-1,-1,100,0,0,[0, 0, 0, 0],0,0,HEARTBEAT,10,3,193,0,4,3
2.853177070617676,VFR_HUD,0.0,0.00937435682862997,56,0,-2.3399999141693115,0.014613782986998558,,,,,,,,,,,,,,,,AHRS,0.006860898807644844,0.0006242582458071411,-0.002028899732977152,0.0,0.0,0.00049171521095559,0.0033227906096726656,GPS_RAW_INT,0,1,0,0,-17000,9999,9999,0,0,0,0,4294967295,4294967295,1000000,0,0,RC_CHANNELS,6595537,16,1501,1499,1004,1502,1000,1000,1500,1500,0,0,0,0,0,0,0,0,0,0,0,MISSION_CURRENT,0,SYS_STATUS,52485167,52461615,53510447,34,0,-1,-1,0,0,0,0,0,0,GLOBAL_POSITION_INT,6595537,0,0,-2340,-2345,0,0,-1,5601,RAW_IMU,2300569895,18,10,-991,-7,0,2,294,-441,235,0,4308,BATTERY_STATUS,0,0,0,32767,[65535, 65535, 65535, 65535, 65535, 65535, 65535, 65535, 65535, 65535],-1,-1,-1,100,0,0,[0, 0, 0, 0],0,0,HEARTBEAT,6,8,0,0,0,3
2.9033899307250977,VFR_HUD,0.0,0.00937435682862997,56,0,-2.3399999141693115,0.014613782986998558,,,,,,,,,,,,,,,,AHRS,0.006860898807644844,0.0006242582458071411,-0.002028899732977152,0.0,0.0,0.00049171521095559,0.0033227906096726656,GPS_RAW_INT,0,1,0,0,-17000,9999,9999,0,0,0,0,4294967295,4294967295,1000000,0,0,RC_CHANNELS,6595537,16,1501,1499,1004,1502,1000,1000,1500,1500,0,0,0,0,0,0,0,0,0,0,0,MISSION_CURRENT,0,SYS_STATUS,52485167,52461615,53510447,34,0,-1,-1,0,0,0,0,0,0,GLOBAL_POSITION_INT,6595537,0,0,-2340,-2345,0,0,-1,5601,RAW_IMU,2300569895,18,10,-991,-7,0,2,294,-441,235,0,4308,BATTERY_STATUS,0,0,0,32767,[65535, 65535, 65535, 65535, 65535, 65535, 65535, 65535, 65535, 65535],-1,-1,-1,100,0,0,[0, 0, 0, 0],0,0,HEARTBEAT,6,8,0,0,0,3
2.953965902328491,VFR_HUD,0.0,0.00937435682862997,56,0,-2.3399999141693115,0.014613782986998558,,,,,,,,,,,,,,,,AHRS,0.006860898807644844,0.0006242582458071411,-0.002028899732977152,0.0,0.0,0.00049171521095559,0.0033227906096726656,GPS_RAW_INT,0,1,0,0,-17000,9999,9999,0,0,0,0,4294967295,4294967295,1000000,0,0,RC_CHANNELS,6595537,16,1501,1499,1004,1502,1000,1000,1500,1500,0,0,0,0,0,0,0,0,0,0,0,MISSION_CURRENT,0,SYS_STATUS,52485167,52461615,53510447,34,0,-1,-1,0,0,0,0,0,0,GLOBAL_POSITION_INT,6595537,0,0,-2340,-2345,0,0,-1,5601,RAW_IMU,2300569895,18,10,-991,-7,0,2,294,-441,235,0,4308,BATTERY_STATUS,0,0,0,32767,[65535, 65535, 65535, 65535, 65535, 65535, 65535, 65535, 65535, 65535],-1,-1,-1,100,0,0,[0, 0, 0, 0],0,0,HEARTBEAT,6,8,0,0,0,3
3.004150152206421,VFR_HUD,0.0,0.00937435682862997,56,0,-2.3399999141693115,0.014613782986998558,,,,,,,,,,,,,,,,AHRS,0.006860898807644844,0.0006242582458071411,-0.002028899732977152,0.0,0.0,0.00049171521095559,0.0033227906096726656,GPS_RAW_INT,0,1,0,0,-17000,9999,9999,0,0,0,0,4294967295,4294967295,1000000,0,0,RC_CHANNELS,6595537,16,1501,1499,1004,1502,1000,1000,1500,1500,0,0,0,0,0,0,0,0,0,0,0,MISSION_CURRENT,0,SYS_STATUS,52485167,52461615,53510447,34,0,-1,-1,0,0,0,0,0,0,GLOBAL_POSITION_INT,6595537,0,0,-2340,-2345,0,0,-1,5601,RAW_IMU,2300569895,18,10,-991,-7,0,2,294,-441,235,0,4308,BATTERY_STATUS,0,0,0,32767,[65535, 65535, 65535, 65535, 65535, 65535, 65535, 65535, 65535, 65535],-1,-1,-1,100,0,0,[0, 0, 0, 0],0,0,HEARTBEAT,6,8,0,0,0,3
3.0543863773345947,VFR_HUD,0.0,0.00937435682862997,56,0,-2.3399999141693115,0.014613782986998558,,,,,,,,,,,,,,,,AHRS,0.006860898807644844,0.0006242582458071411,-0.002028899732977152,0.0,0.0,0.00049171521095559,0.0033227906096726656,GPS_RAW_INT,0,1,0,0,-17000,9999,9999,0,0,0,0,4294967295,4294967295,1000000,0,0,RC_CHANNELS,6595537,16,1501,1499,1004,1502,1000,1000,1500,1500,0,0,0,0,0,0,0,0,0,0,0,MISSION_CURRENT,0,SYS_STATUS,52485167,52461615,53510447,34,0,-1,-1,0,0,0,0,0,0,GLOBAL_POSITION_INT,6595537,0,0,-2340,-2345,0,0,-1,5601,RAW_IMU,2300569895,18,10,-991,-7,0,2,294,-441,235,0,4308,BATTERY_STATUS,0,0,0,32767,[65535, 65535, 65535, 65535, 65535, 65535, 65535, 65535, 65535, 65535],-1,-1,-1,100,0,0,[0, 0, 0, 0],0,0,HEARTBEAT,6,8,0,0,0,3
3.104630708694458,VFR_HUD,0.0,0.00937435682862997,56,0,-2.3399999141693115,0.014613782986998558,,,,,,,,,,,,,,,,AHRS,0.006860898807644844,0.0006242582458071411,-0.002028899732977152,0.0,0.0,0.00049171521095559,0.0033227906096726656,GPS_RAW_INT,0,1,0,0,-17000,9999,9999,0,0,0,0,4294967295,4294967295,1000000,0,0,RC_CHANNELS,6595537,16,1501,1499,1004,1502,1000,1000,1500,1500,0,0,0,0,0,0,0,0,0,0,0,MISSION_CURRENT,0,SYS_STATUS,52485167,52461615,53510447,34,0,-1,-1,0,0,0,0,0,0,GLOBAL_POSITION_INT,6595537,0,0,-2340,-2345,0,0,-1,5601,RAW_IMU,2300569895,18,10,-991,-7,0,2,294,-441,235,0,4308,BATTERY_STATUS,0,0,0,32767,[65535, 65535, 65535, 65535, 65535, 65535, 65535, 65535, 65535, 65535],-1,-1,-1,100,0,0,[0, 0, 0, 0],0,0,HEARTBEAT,6,8,0,0,0,3
3.154905319213867,VFR_HUD,0.0,0.00937435682862997,56,0,-2.3399999141693115,0.014613782986998558,,,,,,,,,,,,,,,,AHRS,0.006860898807644844,0.0006242582458071411,-0.002028899732977152,0.0,0.0,0.00049171521095559,0.0033227906096726656,GPS_RAW_INT,0,1,0,0,-17000,9999,9999,0,0,0,0,4294967295,4294967295,1000000,0,0,RC_CHANNELS,6595537,16,1501,1499,1004,1502,1000,1000,1500,1500,0,0,0,0,0,0,0,0,0,0,0,MISSION_CURRENT,0,SYS_STATUS,52485167,52461615,53510447,34,0,-1,-1,0,0,0,0,0,0,GLOBAL_POSITION_INT,6595537,0,0,-2340,-2345,0,0,-1,5601,RAW_IMU,2300569895,18,10,-991,-7,0,2,294,-441,235,0,4308,BATTERY_STATUS,0,0,0,32767,[65535, 65535, 65535, 65535, 65535, 65535, 65535, 65535, 65535, 65535],-1,-1,-1,100,0,0,[0, 0, 0, 0],0,0,HEARTBEAT,6,8,0,0,0,3
3.205127477645874,VFR_HUD,0.0,0.00937435682862997,56,0,-2.3399999141693115,0.014613782986998558,,,,,,,,,,,,,,,,AHRS,0.006860898807644844,0.0006242582458071411,-0.002028899732977152,0.0,0.0,0.00049171521095559,0.0033227906096726656,GPS_RAW_INT,0,1,0,0,-17000,9999,9999,0,0,0,0,4294967295,4294967295,1000000,0,0,RC_CHANNELS,6595537,16,1501,1499,1004,1502,1000,1000,1500,1500,0,0,0,0,0,0,0,0,0,0,0,MISSION_CURRENT,0,SYS_STATUS,52485167,52461615,53510447,34,0,-1,-1,0,0,0,0,0,0,GLOBAL_POSITION_INT,6595537,0,0,-2340,-2345,0,0,-1,5601,RAW_IMU,2300569895,18,10,-991,-7,0,2,294,-441,235,0,4308,BATTERY_STATUS,0,0,0,32767,[65535, 65535, 65535, 65535, 65535, 65535, 65535, 65535, 65535, 65535],-1,-1,-1,100,0,0,[0, 0, 0, 0],0,0,HEARTBEAT,6,8,0,0,0,3
3.2553558349609375,VFR_HUD,0.0,0.00937435682862997,56,0,-2.3399999141693115,0.014613782986998558,,,,,,,,,,,,,,,,AHRS,0.006860898807644844,0.0006242582458071411,-0.002028899732977152,0.0,0.0,0.00049171521095559,0.0033227906096726656,GPS_RAW_INT,0,1,0,0,-17000,9999,9999,0,0,0,0,4294967295,4294967295,1000000,0,0,RC_CHANNELS,6595537,16,1501,1499,1004,1502,1000,1000,1500,1500,0,0,0,0,0,0,0,0,0,0,0,MISSION_CURRENT,0,SYS_STATUS,52485167,52461615,53510447,34,0,-1,-1,0,0,0,0,0,0,GLOBAL_POSITION_INT,6595537,0,0,-2340,-2345,0,0,-1,5601,RAW_IMU,2300569895,18,10,-991,-7,0,2,294,-441,235,0,4308,BATTERY_STATUS,0,0,0,32767,[65535, 65535, 65535, 65535, 65535, 65535, 65535, 65535, 65535, 65535],-1,-1,-1,100,0,0,[0, 0, 0, 0],0,0,HEARTBEAT,6,8,0,0,0,3
3.3055992126464844,VFR_HUD,0.0,0.00937435682862997,56,0,-2.3399999141693115,0.014613782986998558,,,,,,,,,,,,,,,,AHRS,0.006860898807644844,0.0006242582458071411,-0.002028899732977152,0.0,0.0,0.00049171521095559,0.0033227906096726656,GPS_RAW_INT,0,1,0,0,-17000,9999,9999,0,0,0,0,4294967295,4294967295,1000000,0,0,RC_CHANNELS,6595537,16,1501,1499,1004,1502,1000,1000,1500,1500,0,0,0,0,0,0,0,0,0,0,0,MISSION_CURRENT,0,SYS_STATUS,52485167,52461615,53510447,34,0,-1,-1,0,0,0,0,0,0,GLOBAL_POSITION_INT,6595537,0,0,-2340,-2345,0,0,-1,5601,RAW_IMU,2300569895,18,10,-991,-7,0,2,294,-441,235,0,4308,BATTERY_STATUS,0,0,0,32767,[65535, 65535, 65535, 65535, 65535, 65535, 65535, 65535, 65535, 65535],-1,-1,-1,100,0,0,[0, 0, 0, 0],0,0,HEARTBEAT,6,8,0,0,0,3
3.3558220863342285,VFR_HUD,0.0,0.00937435682862997,56,0,-2.3399999141693115,0.014613782986998558,,,,,,,,,,,,,,,,AHRS,0.006860898807644844,0.0006242582458071411,-0.002028899732977152,0.0,0.0,0.00049171521095559,0.0033227906096726656,GPS_RAW_INT,0,1,0,0,-17000,9999,9999,0,0,0,0,4294967295,4294967295,1000000,0,0,RC_CHANNELS,6595537,16,1501,1499,1004,1502,1000,1000,1500,1500,0,0,0,0,0,0,0,0,0,0,0,MISSION_CURRENT,0,SYS_STATUS,52485167,52461615,53510447,34,0,-1,-1,0,0,0,0,0,0,GLOBAL_POSITION_INT,6595537,0,0,-2340,-2345,0,0,-1,5601,RAW_IMU,2300569895,18,10,-991,-7,0,2,294,-441,235,0,4308,BATTERY_STATUS,0,0,0,32767,[65535, 65535, 65535, 65535, 65535, 65535, 65535, 65535, 65535, 65535],-1,-1,-1,100,0,0,[0, 0, 0, 0],0,0,HEARTBEAT,6,8,0,0,0,3
3.406468152999878,VFR_HUD,0.0,0.00937435682862997,56,0,-2.3399999141693115,0.014613782986998558,,,,,,,,,,,,,,,,AHRS,0.006860898807644844,0.0006242582458071411,-0.002028899732977152,0.0,0.0,0.00049171521095559,0.0033227906096726656,GPS_RAW_INT,0,1,0,0,-17000,9999,9999,0,0,0,0,4294967295,4294967295,1000000,0,0,RC_CHANNELS,6595537,16,1501,1499,1004,1502,1000,1000,1500,1500,0,0,0,0,0,0,0,0,0,0,0,MISSION_CURRENT,0,SYS_STATUS,52485167,52461615,53510447,34,0,-1,-1,0,0,0,0,0,0,GLOBAL_POSITION_INT,6595537,0,0,-2340,-2345,0,0,-1,5601,RAW_IMU,2300569895,18,10,-991,-7,0,2,294,-441,235,0,4308,BATTERY_STATUS,0,0,0,32767,[65535, 65535, 65535, 65535, 65535, 65535, 65535, 65535, 65535, 65535],-1,-1,-1,100,0,0,[0, 0, 0, 0],0,0,HEARTBEAT,6,8,0,0,0,3
3.456766366958618,VFR_HUD,0.0,0.00937435682862997,56,0,-2.3399999141693115,0.014613782986998558,,,,,,,,,,,,,,,,AHRS,0.006860898807644844,0.0006242582458071411,-0.002028899732977152,0.0,0.0,0.00049171521095559,0.0033227906096726656,GPS_RAW_INT,0,1,0,0,-17000,9999,9999,0,0,0,0,4294967295,4294967295,1000000,0,0,RC_CHANNELS,6595537,16,1501,1499,1004,1502,1000,1000,1500,1500,0,0,0,0,0,0,0,0,0,0,0,MISSION_CURRENT,0,SYS_STATUS,52485167,52461615,53510447,34,0,-1,-1,0,0,0,0,0,0,GLOBAL_POSITION_INT,6595537,0,0,-2340,-2345,0,0,-1,5601,RAW_IMU,2300569895,18,10,-991,-7,0,2,294,-441,235,0,4308,BATTERY_STATUS,0,0,0,32767,[65535, 65535, 65535, 65535, 65535, 65535, 65535, 65535, 65535, 65535],-1,-1,-1,100,0,0,[0, 0, 0, 0],0,0,HEARTBEAT,6,8,0,0,0,3
3.5070130825042725,VFR_HUD,0.0,0.00937435682862997,56,0,-2.3399999141693115,0.014613782986998558,,,,,,,,,,,,,,,,AHRS,0.006860898807644844,0.0006242582458071411,-0.002028899732977152,0.0,0.0,0.00049171521095559,0.0033227906096726656,GPS_RAW_INT,0,1,0,0,-17000,9999,9999,0,0,0,0,4294967295,4294967295,1000000,0,0,RC_CHANNELS,6595537,16,1501,1499,1004,1502,1000,1000,1500,1500,0,0,0,0,0,0,0,0,0,0,0,MISSION_CURRENT,0,SYS_STATUS,52485167,52461615,53510447,34,0,-1,-1,0,0,0,0,0,0,GLOBAL_POSITION_INT,6595537,0,0,-2340,-2345,0,0,-1,5601,RAW_IMU,2300569895,18,10,-991,-7,0,2,294,-441,235,0,4308,BATTERY_STATUS,0,0,0,32767,[65535, 65535, 65535, 65535, 65535, 65535, 65535, 65535, 65535, 65535],-1,-1,-1,100,0,0,[0, 0, 0, 0],0,0,HEARTBEAT,6,8,0,0,0,3
3.5572502613067627,VFR_HUD,0.0,0.00937435682862997,56,0,-2.3399999141693115,0.014613782986998558,,,,,,,,,,,,,,,,AHRS,0.006860898807644844,0.0006242582458071411,-0.002028899732977152,0.0,0.0,0.00049171521095559,0.0033227906096726656,GPS_RAW_INT,0,1,0,0,-17000,9999,9999,0,0,0,0,4294967295,4294967295,1000000,0,0,RC_CHANNELS,6595537,16,1501,1499,1004,1502,1000,1000,1500,1500,0,0,0,0,0,0,0,0,0,0,0,MISSION_CURRENT,0,SYS_STATUS,52485167,52461615,53510447,34,0,-1,-1,0,0,0,0,0,0,GLOBAL_POSITION_INT,6595537,0,0,-2340,-2345,0,0,-1,5601,RAW_IMU,2300569895,18,10,-991,-7,0,2,294,-441,235,0,4308,BATTERY_STATUS,0,0,0,32767,[65535, 65535, 65535, 65535, 65535, 65535, 65535, 65535, 65535, 65535],-1,-1,-1,100,0,0,[0, 0, 0, 0],0,0,HEARTBEAT,10,3,193,0,4,3
3.6075279712677,VFR_HUD,0.0,0.00937435682862997,56,0,-2.3399999141693115,0.014613782986998558,,,,,,,,,,,,,,,,AHRS,0.006860898807644844,0.0006242582458071411,-0.002028899732977152,0.0,0.0,0.00049171521095559,0.0033227906096726656,GPS_RAW_INT,0,1,0,0,-17000,9999,9999,0,0,0,0,4294967295,4294967295,1000000,0,0,RC_CHANNELS,6595537,16,1501,1499,1004,1502,1000,1000,1500,1500,0,0,0,0,0,0,0,0,0,0,0,MISSION_CURRENT,0,SYS_STATUS,52485167,52461615,53510447,34,0,-1,-1,0,0,0,0,0,0,GLOBAL_POSITION_INT,6595537,0,0,-2340,-2345,0,0,-1,5601,RAW_IMU,2300569895,18,10,-991,-7,0,2,294,-441,235,0,4308,BATTERY_STATUS,0,0,0,32767,[65535, 65535, 65535, 65535, 65535, 65535, 65535, 65535, 65535, 65535],-1,-1,-1,100,0,0,[0, 0, 0, 0],0,0,HEARTBEAT,10,3,193,0,4,3
3.6583118438720703,VFR_HUD,0.0,0.00937435682862997,56,0,-2.3399999141693115,0.014613782986998558,,,,,,,,,,,,,,,,AHRS,0.006860898807644844,0.0006242582458071411,-0.002028899732977152,0.0,0.0,0.00049171521095559,0.0033227906096726656,GPS_RAW_INT,0,1,0,0,-17000,9999,9999,0,0,0,0,4294967295,4294967295,1000000,0,0,RC_CHANNELS,6595537,16,1501,1499,1004,1502,1000,1000,1500,1500,0,0,0,0,0,0,0,0,0,0,0,MISSION_CURRENT,0,SYS_STATUS,52485167,52461615,53510447,34,0,-1,-1,0,0,0,0,0,0,GLOBAL_POSITION_INT,6595537,0,0,-2340,-2345,0,0,-1,5601,RAW_IMU,2300569895,18,10,-991,-7,0,2,294,-441,235,0,4308,BATTERY_STATUS,0,0,0,32767,[65535, 65535, 65535, 65535, 65535, 65535, 65535, 65535, 65535, 65535],-1,-1,-1,100,0,0,[0, 0, 0, 0],0,0,HEARTBEAT,10,3,193,0,4,3
3.7085180282592773,VFR_HUD,0.0,0.00937435682862997,56,0,-2.3399999141693115,0.014613782986998558,,,,,,,,,,,,,,,,AHRS,0.006860898807644844,0.0006242582458071411,-0.002028899732977152,0.0,0.0,0.00049171521095559,0.0033227906096726656,GPS_RAW_INT,0,1,0,0,-17000,9999,9999,0,0,0,0,4294967295,4294967295,1000000,0,0,RC_CHANNELS,6595537,16,1501,1499,1004,1502,1000,1000,1500,1500,0,0,0,0,0,0,0,0,0,0,0,MISSION_CURRENT,0,SYS_STATUS,52485167,52461615,53510447,34,0,-1,-1,0,0,0,0,0,0,GLOBAL_POSITION_INT,6595537,0,0,-2340,-2345,0,0,-1,5601,RAW_IMU,2300569895,18,10,-991,-7,0,2,294,-441,235,0,4308,BATTERY_STATUS,0,0,0,32767,[65535, 65535, 65535, 65535, 65535, 65535, 65535, 65535, 65535, 65535],-1,-1,-1,100,0,0,[0, 0, 0, 0],0,0,HEARTBEAT,10,3,193,0,4,3
3.7587480545043945,VFR_HUD,0.0,0.009218915365636349,55,0,-2.440000057220459,0.00692472979426384,,,,,,,,,,,,,,,,AHRS,0.006860898807644844,0.0006242582458071411,-0.002028899732977152,0.0,0.0,0.00049171521095559,0.0033227906096726656,GPS_RAW_INT,0,1,0,0,-17000,9999,9999,0,0,0,0,4294967295,4294967295,1000000,0,0,RC_CHANNELS,6596537,16,1501,1499,1004,1501,1000,1001,1500,1500,0,0,0,0,0,0,0,0,0,0,0,MISSION_CURRENT,0,SYS_STATUS,52485167,52461615,53510447,33,0,-1,-1,0,0,0,0,0,0,GLOBAL_POSITION_INT,6596537,0,0,-2440,-2441,0,0,0,5599,RAW_IMU,2300569895,18,10,-991,-7,0,2,294,-441,235,0,4308,BATTERY_STATUS,0,0,0,32767,[65535, 65535, 65535, 65535, 65535, 65535, 65535, 65535, 65535, 65535],-1,-1,-1,100,0,0,[0, 0, 0, 0],0,0,HEARTBEAT,10,3,193,0,4,3
3.809035301208496,VFR_HUD,0.0,0.009218915365636349,55,0,-2.440000057220459,0.00692472979426384,,,,,,,,,,,,,,,,AHRS,0.006857641506940126,0.0006239872891455889,-0.0020283020567148924,0.0,0.0,0.0004127690626773983,0.0026801913045346737,GPS_RAW_INT,0,1,0,0,-17000,9999,9999,0,0,0,0,4294967295,4294967295,1000000,0,0,RC_CHANNELS,6596537,16,1501,1499,1004,1501,1000,1001,1500,1500,0,0,0,0,0,0,0,0,0,0,0,MISSION_CURRENT,0,SYS_STATUS,52485167,52461615,53510447,33,0,-1,-1,0,0,0,0,0,0,GLOBAL_POSITION_INT,6596537,0,0,-2440,-2441,0,0,0,5599,RAW_IMU,2301569832,20,10,-992,-6,-1,2,298,-446,237,0,4308,BATTERY_STATUS,0,0,0,32767,[65535, 65535, 65535, 65535, 65535, 65535, 65535, 65535, 65535, 65535],-1,-1,-1,100,0,0,[0, 0, 0, 0],0,0,HEARTBEAT,10,3,193,0,4,3
3.8592946529388428,VFR_HUD,0.0,0.009218915365636349,55,0,-2.440000057220459,0.00692472979426384,,,,,,,,,,,,,,,,AHRS,0.006857641506940126,0.0006239872891455889,-0.0020283020567148924,0.0,0.0,0.0004127690626773983,0.0026801913045346737,GPS_RAW_INT,0,1,0,0,-17000,9999,9999,0,0,0,0,4294967295,4294967295,1000000,0,0,RC_CHANNELS,6596537,16,1501,1499,1004,1501,1000,1001,1500,1500,0,0,0,0,0,0,0,0,0,0,0,MISSION_CURRENT,0,SYS_STATUS,52485167,52461615,53510447,33,0,-1,-1,0,0,0,0,0,0,GLOBAL_POSITION_INT,6596537,0,0,-2440,-2441,0,0,0,5599,RAW_IMU,2301569832,20,10,-992,-6,-1,2,298,-446,237,0,4308,BATTERY_STATUS,0,0,0,32767,[65535, 65535, 65535, 65535, 65535, 65535, 65535, 65535, 65535, 65535],-1,-1,-1,100,0,0,[0, 0, 0, 0],0,0,HEARTBEAT,6,8,0,0,0,3
3.909590721130371,VFR_HUD,0.0,0.009218915365636349,55,0,-2.440000057220459,0.00692472979426384,,,,,,,,,,,,,,,,AHRS,0.006857641506940126,0.0006239872891455889,-0.0020283020567148924,0.0,0.0,0.0004127690626773983,0.0026801913045346737,GPS_RAW_INT,0,1,0,0,-17000,9999,9999,0,0,0,0,4294967295,4294967295,1000000,0,0,RC_CHANNELS,6596537,16,1501,1499,1004,1501,1000,1001,1500,1500,0,0,0,0,0,0,0,0,0,0,0,MISSION_CURRENT,0,SYS_STATUS,52485167,52461615,53510447,33,0,-1,-1,0,0,0,0,0,0,GLOBAL_POSITION_INT,6596537,0,0,-2440,-2441,0,0,0,5599,RAW_IMU,2301569832,20,10,-992,-6,-1,2,298,-446,237,0,4308,BATTERY_STATUS,0,0,0,32767,[65535, 65535, 65535, 65535, 65535, 65535, 65535, 65535, 65535, 65535],-1,-1,-1,100,0,0,[0, 0, 0, 0],0,0,HEARTBEAT,6,8,0,0,0,3
3.9599387645721436,VFR_HUD,0.0,0.009218915365636349,55,0,-2.440000057220459,0.00692472979426384,,,,,,,,,,,,,,,,AHRS,0.006857641506940126,0.0006239872891455889,-0.0020283020567148924,0.0,0.0,0.0004127690626773983,0.0026801913045346737,GPS_RAW_INT,0,1,0,0,-17000,9999,9999,0,0,0,0,4294967295,4294967295,1000000,0,0,RC_CHANNELS,6596537,16,1501,1499,1004,1501,1000,1001,1500,1500,0,0,0,0,0,0,0,0,0,0,0,MISSION_CURRENT,0,SYS_STATUS,52485167,52461615,53510447,33,0,-1,-1,0,0,0,0,0,0,GLOBAL_POSITION_INT,6596537,0,0,-2440,-2441,0,0,0,5599,RAW_IMU,2301569832,20,10,-992,-6,-1,2,298,-446,237,0,4308,BATTERY_STATUS,0,0,0,32767,[65535, 65535, 65535, 65535, 65535, 65535, 65535, 65535, 65535, 65535],-1,-1,-1,100,0,0,[0, 0, 0, 0],0,0,HEARTBEAT,6,8,0,0,0,3
4.010157823562622,VFR_HUD,0.0,0.009218915365636349,55,0,-2.440000057220459,0.00692472979426384,,,,,,,,,,,,,,,,AHRS,0.006857641506940126,0.0006239872891455889,-0.0020283020567148924,0.0,0.0,0.0004127690626773983,0.0026801913045346737,GPS_RAW_INT,0,1,0,0,-17000,9999,9999,0,0,0,0,4294967295,4294967295,1000000,0,0,RC_CHANNELS,6596537,16,1501,1499,1004,1501,1000,1001,1500,1500,0,0,0,0,0,0,0,0,0,0,0,MISSION_CURRENT,0,SYS_STATUS,52485167,52461615,53510447,33,0,-1,-1,0,0,0,0,0,0,GLOBAL_POSITION_INT,6596537,0,0,-2440,-2441,0,0,0,5599,RAW_IMU,2301569832,20,10,-992,-6,-1,2,298,-446,237,0,4308,BATTERY_STATUS,0,0,0,32767,[65535, 65535, 65535, 65535, 65535, 65535, 65535, 65535, 65535, 65535],-1,-1,-1,100,0,0,[0, 0, 0, 0],0,0,HEARTBEAT,6,8,0,0,0,3
4.060362815856934,VFR_HUD,0.0,0.009218915365636349,55,0,-2.440000057220459,0.00692472979426384,,,,,,,,,,,,,,,,AHRS,0.006857641506940126,0.0006239872891455889,-0.0020283020567148924,0.0,0.0,0.0004127690626773983,0.0026801913045346737,GPS_RAW_INT,0,1,0,0,-17000,9999,9999,0,0,0,0,4294967295,4294967295,1000000,0,0,RC_CHANNELS,6596537,16,1501,1499,1004,1501,1000,1001,1500,1500,0,0,0,0,0,0,0,0,0,0,0,MISSION_CURRENT,0,SYS_STATUS,52485167,52461615,53510447,33,0,-1,-1,0,0,0,0,0,0,GLOBAL_POSITION_INT,6596537,0,0,-2440,-2441,0,0,0,5599,RAW_IMU,2301569832,20,10,-992,-6,-1,2,298,-446,237,0,4308,BATTERY_STATUS,0,0,0,32767,[65535, 65535, 65535, 65535, 65535, 65535, 65535, 65535, 65535, 65535],-1,-1,-1,100,0,0,[0, 0, 0, 0],0,0,HEARTBEAT,6,8,0,0,0,3
