225.70738649368286,23.6953125,VFR_HUD,0.0,0.008943126536905766,58,0,-2.5199999809265137,-0.0022397898137569427,,,,,,,,,,,,,,,,AHRS,0.006829343736171722,0.0007342630415223539,-0.002127074170857668,0.0,0.0,0.00037316541420295835,0.0030427388846874237,GPS_RAW_INT,0,1,0,0,-17000,9999,9999,0,0,0,0,4294967295,4294967295,1000000,0,0,RC_CHANNELS,6898536,16,1501,1500,1004,1501,1000,1000,1500,1501,0,0,0,0,0,0,0,0,0,0,0,MISSION_CURRENT,0,SYS_STATUS,52485167,52461615,53510447,46,0,-1,-1,0,0,0,0,0,0,GLOBAL_POSITION_INT,6899536,0,0,-2520,-2527,0,0,0,5859,RAW_IMU,2603569350,20,11,-991,-7,0,2,265,-452,246,0,4332,BATTERY_STATUS,0,0,0,32767,[65535, 65535, 65535, 65535, 65535, 65535, 65535, 65535, 65535, 65535],-1,-1,-1,100,0,0,[0, 0, 0, 0],0,0,HEARTBEAT,10,3,193,0,4,3
0.0026531219482421875,23.6953125,VFR_HUD,0.0,0.008943126536905766,58,0,-2.5199999809265137,-0.0022397898137569427,,,,,,,,,,,,,,,,AHRS,0.006872371304780245,0.0006641274085268378,-0.0022365711629390717,0.0,0.0,0.0003849831409752369,0.002189450431615114,GPS_RAW_INT,0,1,0,0,-17000,9999,9999,0,0,0,0,4294967295,4294967295,1000000,0,0,RC_CHANNELS,6899536,16,1501,1499,1005,1501,1000,1000,1500,1500,0,0,0,0,0,0,0,0,0,0,0,MISSION_CURRENT,0,SYS_STATUS,52485167,52461615,53510447,46,0,-1,-1,0,0,0,0,0,0,GLOBAL_POSITION_INT,6899536,0,0,-2520,-2527,0,0,0,5859,RAW_IMU,2604569459,20,11,-991,-6,-1,2,266,-452,247,0,4332,BATTERY_STATUS,0,0,0,32767,[65535, 65535, 65535, 65535, 65535, 65535, 65535, 65535, 65535, 65535],-1,-1,-1,100,0,0,[0, 0, 0, 0],0,0,HEARTBEAT,10,3,193,0,4,3
0.10486459732055664,23.6953125,VFR_HUD,0.0,0.008943126536905766,58,0,-2.5199999809265137,-0.0022397898137569427,,,,,,,,,,,,,,,,AHRS,0.006872371304780245,0.0006641274085268378,-0.0022365711629390717,0.0,0.0,0.0003849831409752369,0.002189450431615114,GPS_RAW_INT,0,1,0,0,-17000,9999,9999,0,0,0,0,4294967295,4294967295,1000000,0,0,RC_CHANNELS,6899536,16,1501,1499,1005,1501,1000,1000,1500,1500,0,0,0,0,0,0,0,0,0,0,0,MISSION_CURRENT,0,SYS_STATUS,52485167,52461615,53510447,46,0,-1,-1,0,0,0,0,0,0,GLOBAL_POSITION_INT,6899536,0,0,-2520,-2527,0,0,0,5859,RAW_IMU,2604569459,20,11,-991,-6,-1,2,266,-452,247,0,4332,BATTERY_STATUS,0,0,0,32767,[65535, 65535, 65535, 65535, 65535, 65535, 65535, 65535, 65535, 65535],-1,-1,-1,100,0,0,[0, 0, 0, 0],0,0,HEARTBEAT,10,3,193,0,4,3
0.15536952018737793,23.6875,VFR_HUD,0.0,0.008943126536905766,58,0,-2.5199999809265137,-0.0022397898137569427,,,,,,,,,,,,,,,,AHRS,0.006872371304780245,0.0006641274085268378,-0.0022365711629390717,0.0,0.0,0.0003849831409752369,0.002189450431615114,GPS_RAW_INT,0,1,0,0,-17000,9999,9999,0,0,0,0,4294967295,4294967295,1000000,0,0,RC_CHANNELS,6899536,16,1501,1499,1005,1501,1000,1000,1500,1500,0,0,0,0,0,0,0,0,0,0,0,MISSION_CURRENT,0,SYS_STATUS,52485167,52461615,53510447,46,0,-1,-1,0,0,0,0,0,0,GLOBAL_POSITION_INT,6899536,0,0,-2520,-2527,0,0,0,5859,RAW_IMU,2604569459,20,11,-991,-6,-1,2,266,-452,247,0,4332,BATTERY_STATUS,0,0,0,32767,[65535, 65535, 65535, 65535, 65535, 65535, 65535, 65535, 65535, 65535],-1,-1,-1,100,0,0,[0, 0, 0, 0],0,0,HEARTBEAT,10,3,193,0,4,3
0.20614957809448242,23.6875,VFR_HUD,0.0,0.008943126536905766,58,0,-2.5199999809265137,-0.0022397898137569427,,,,,,,,,,,,,,,,AHRS,0.006872371304780245,0.0006641274085268378,-0.0022365711629390717,0.0,0.0,0.0003849831409752369,0.002189450431615114,GPS_RAW_INT,0,1,0,0,-17000,9999,9999,0,0,0,0,4294967295,4294967295,1000000,0,0,RC_CHANNELS,6899536,16,1501,1499,1005,1501,1000,1000,1500,1500,0,0,0,0,0,0,0,0,0,0,0,MISSION_CURRENT,0,SYS_STATUS,52485167,52461615,53510447,46,0,-1,-1,0,0,0,0,0,0,GLOBAL_POSITION_INT,6899536,0,0,-2520,-2527,0,0,0,5859,RAW_IMU,2604569459,20,11,-991,-6,-1,2,266,-452,247,0,4332,BATTERY_STATUS,0,0,0,32767,[65535, 65535, 65535, 65535, 65535, 65535, 65535, 65535, 65535, 65535],-1,-1,-1,100,0,0,[0, 0, 0, 0],0,0,HEARTBEAT,10,3,193,0,4,3
0.2567572593688965,23.6875,VFR_HUD,0.0,0.008943126536905766,58,0,-2.5199999809265137,-0.0022397898137569427,,,,,,,,,,,,,,,,AHRS,0.006872371304780245,0.0006641274085268378,-0.0022365711629390717,0.0,0.0,0.0003849831409752369,0.002189450431615114,GPS_RAW_INT,0,1,0,0,-17000,9999,9999,0,0,0,0,4294967295,4294967295,1000000,0,0,RC_CHANNELS,6899536,16,1501,1499,1005,1501,1000,1000,1500,1500,0,0,0,0,0,0,0,0,0,0,0,MISSION_CURRENT,0,SYS_STATUS,52485167,52461615,53510447,46,0,-1,-1,0,0,0,0,0,0,GLOBAL_POSITION_INT,6899536,0,0,-2520,-2527,0,0,0,5859,RAW_IMU,2604569459,20,11,-991,-6,-1,2,266,-452,247,0,4332,BATTERY_STATUS,0,0,0,32767,[65535, 65535, 65535, 65535, 65535, 65535, 65535, 65535, 65535, 65535],-1,-1,-1,100,0,0,[0, 0, 0, 0],0,0,HEARTBEAT,6,8,0,0,0,3
0.3081352710723877,23.6875,VFR_HUD,0.0,0.008943126536905766,58,0,-2.5199999809265137,-0.0022397898137569427,,,,,,,,,,,,,,,,AHRS,0.006872371304780245,0.0006641274085268378,-0.0022365711629390717,0.0,0.0,0.0003849831409752369,0.002189450431615114,GPS_RAW_INT,0,1,0,0,-17000,9999,9999,0,0,0,0,4294967295,4294967295,1000000,0,0,RC_CHANNELS,6899536,16,1501,1499,1005,1501,1000,1000,1500,1500,0,0,0,0,0,0,0,0,0,0,0,MISSION_CURRENT,0,SYS_STATUS,52485167,52461615,53510447,46,0,-1,-1,0,0,0,0,0,0,GLOBAL_POSITION_INT,6899536,0,0,-2520,-2527,0,0,0,5859,RAW_IMU,2604569459,20,11,-991,-6,-1,2,266,-452,247,0,4332,BATTERY_STATUS,0,0,0,32767,[65535, 65535, 65535, 65535, 65535, 65535, 65535, 65535, 65535, 65535],-1,-1,-1,100,0,0,[0, 0, 0, 0],0,0,HEARTBEAT,6,8,0,0,0,3
0.3589305877685547,23.6875,VFR_HUD,0.0,0.008943126536905766,58,0,-2.5199999809265137,-0.0022397898137569427,,,,,,,,,,,,,,,,AHRS,0.006872371304780245,0.0006641274085268378,-0.0022365711629390717,0.0,0.0,0.0003849831409752369,0.002189450431615114,GPS_RAW_INT,0,1,0,0,-17000,9999,9999,0,0,0,0,4294967295,4294967295,1000000,0,0,RC_CHANNELS,6899536,16,1501,1499,1005,1501,1000,1000,1500,1500,0,0,0,0,0,0,0,0,0,0,0,MISSION_CURRENT,0,SYS_STATUS,52485167,52461615,53510447,46,0,-1,-1,0,0,0,0,0,0,GLOBAL_POSITION_INT,6899536,0,0,-2520,-2527,0,0,0,5859,RAW_IMU,2604569459,20,11,-991,-6,-1,2,266,-452,247,0,4332,BATTERY_STATUS,0,0,0,32767,[65535, 65535, 65535, 65535, 65535, 65535, 65535, 65535, 65535, 65535],-1,-1,-1,100,0,0,[0, 0, 0, 0],0,0,HEARTBEAT,6,8,0,0,0,3
0.40967273712158203,23.6875,VFR_HUD,0.0,0.008943126536905766,58,0,-2.5199999809265137,-0.0022397898137569427,,,,,,,,,,,,,,,,AHRS,0.006872371304780245,0.0006641274085268378,-0.0022365711629390717,0.0,0.0,0.0003849831409752369,0.002189450431615114,GPS_RAW_INT,0,1,0,0,-17000,9999,9999,0,0,0,0,4294967295,4294967295,1000000,0,0,RC_CHANNELS,6899536,16,1501,1499,1005,1501,1000,1000,1500,1500,0,0,0,0,0,0,0,0,0,0,0,MISSION_CURRENT,0,SYS_STATUS,52485167,52461615,53510447,46,0,-1,-1,0,0,0,0,0,0,GLOBAL_POSITION_INT,6899536,0,0,-2520,-2527,0,0,0,5859,RAW_IMU,2604569459,20,11,-991,-6,-1,2,266,-452,247,0,4332,BATTERY_STATUS,0,0,0,32767,[65535, 65535, 65535, 65535, 65535, 65535, 65535, 65535, 65535, 65535],-1,-1,-1,100,0,0,[0, 0, 0, 0],0,0,HEARTBEAT,6,8,0,0,0,3
0.46047115325927734,23.6875,VFR_HUD,0.0,0.008943126536905766,58,0,-2.5199999809265137,-0.0022397898137569427,,,,,,,,,,,,,,,,AHRS,0.006872371304780245,0.0006641274085268378,-0.0022365711629390717,0.0,0.0,0.0003849831409752369,0.002189450431615114,GPS_RAW_INT,0,1,0,0,-17000,9999,9999,0,0,0,0,4294967295,4294967295,1000000,0,0,RC_CHANNELS,6899536,16,1501,1499,1005,1501,1000,1000,1500,1500,0,0,0,0,0,0,0,0,0,0,0,MISSION_CURRENT,0,SYS_STATUS,52485167,52461615,53510447,46,0,-1,-1,0,0,0,0,0,0,GLOBAL_POSITION_INT,6899536,0,0,-2520,-2527,0,0,0,5859,RAW_IMU,2604569459,20,11,-991,-6,-1,2,266,-452,247,0,4332,BATTERY_STATUS,0,0,0,32767,[65535, 65535, 65535, 65535, 65535, 65535, 65535, 65535, 65535, 65535],-1,-1,-1,100,0,0,[0, 0, 0, 0],0,0,HEARTBEAT,6,8,0,0,0,3
0.5109968185424805,23.6875,VFR_HUD,0.0,0.008943126536905766,58,0,-2.5199999809265137,-0.0022397898137569427,,,,,,,,,,,,,,,,AHRS,0.006872371304780245,0.0006641274085268378,-0.0022365711629390717,0.0,0.0,0.0003849831409752369,0.002189450431615114,GPS_RAW_INT,0,1,0,0,-17000,9999,9999,0,0,0,0,4294967295,4294967295,1000000,0,0,RC_CHANNELS,6899536,16,1501,1499,1005,1501,1000,1000,1500,1500,0,0,0,0,0,0,0,0,0,0,0,MISSION_CURRENT,0,SYS_STATUS,52485167,52461615,53510447,46,0,-1,-1,0,0,0,0,0,0,GLOBAL_POSITION_INT,6899536,0,0,-2520,-2527,0,0,0,5859,RAW_IMU,2604569459,20,11,-991,-6,-1,2,266,-452,247,0,4332,BATTERY_STATUS,0,0,0,32767,[65535, 65535, 65535, 65535, 65535, 65535, 65535, 65535, 65535, 65535],-1,-1,-1,100,0,0,[0, 0, 0, 0],0,0,HEARTBEAT,6,8,0,0,0,3
0.5615127086639404,23.6953125,VFR_HUD,0.0,0.008943126536905766,58,0,-2.5199999809265137,-0.0022397898137569427,,,,,,,,,,,,,,,,AHRS,0.006872371304780245,0.0006641274085268378,-0.0022365711629390717,0.0,0.0,0.0003849831409752369,0.002189450431615114,GPS_RAW_INT,0,1,0,0,-17000,9999,9999,0,0,0,0,4294967295,4294967295,1000000,0,0,RC_CHANNELS,6899536,16,1501,1499,1005,1501,1000,1000,1500,1500,0,0,0,0,0,0,0,0,0,0,0,MISSION_CURRENT,0,SYS_STATUS,52485167,52461615,53510447,46,0,-1,-1,0,0,0,0,0,0,GLOBAL_POSITION_INT,6899536,0,0,-2520,-2527,0,0,0,5859,RAW_IMU,2604569459,20,11,-991,-6,-1,2,266,-452,247,0,4332,BATTERY_STATUS,0,0,0,32767,[65535, 65535, 65535, 65535, 65535, 65535, 65535, 65535, 65535, 65535],-1,-1,-1,100,0,0,[0, 0, 0, 0],0,0,HEARTBEAT,6,8,0,0,0,3
0.6123464107513428,23.6953125,VFR_HUD,0.0,0.008943126536905766,58,0,-2.5199999809265137,-0.0022397898137569427,,,,,,,,,,,,,,,,AHRS,0.006872371304780245,0.0006641274085268378,-0.0022365711629390717,0.0,0.0,0.0003849831409752369,0.002189450431615114,GPS_RAW_INT,0,1,0,0,-17000,9999,9999,0,0,0,0,4294967295,4294967295,1000000,0,0,RC_CHANNELS,6899536,16,1501,1499,1005,1501,1000,1000,1500,1500,0,0,0,0,0,0,0,0,0,0,0,MISSION_CURRENT,0,SYS_STATUS,52485167,52461615,53510447,46,0,-1,-1,0,0,0,0,0,0,GLOBAL_POSITION_INT,6899536,0,0,-2520,-2527,0,0,0,5859,RAW_IMU,2604569459,20,11,-991,-6,-1,2,266,-452,247,0,4332,BATTERY_STATUS,0,0,0,32767,[65535, 65535, 65535, 65535, 65535, 65535, 65535, 65535, 65535, 65535],-1,-1,-1,100,0,0,[0, 0, 0, 0],0,0,HEARTBEAT,6,8,0,0,0,3
0.6629157066345215,23.6953125,VFR_HUD,0.0,0.008943126536905766,58,0,-2.5199999809265137,-0.0022397898137569427,,,,,,,,,,,,,,,,AHRS,0.006872371304780245,0.0006641274085268378,-0.0022365711629390717,0.0,0.0,0.0003849831409752369,0.002189450431615114,GPS_RAW_INT,0,1,0,0,-17000,9999,9999,0,0,0,0,4294967295,4294967295,1000000,0,0,RC_CHANNELS,6899536,16,1501,1499,1005,1501,1000,1000,1500,1500,0,0,0,0,0,0,0,0,0,0,0,MISSION_CURRENT,0,SYS_STATUS,52485167,52461615,53510447,46,0,-1,-1,0,0,0,0,0,0,GLOBAL_POSITION_INT,6899536,0,0,-2520,-2527,0,0,0,5859,RAW_IMU,2604569459,20,11,-991,-6,-1,2,266,-452,247,0,4332,BATTERY_STATUS,0,0,0,32767,[65535, 65535, 65535, 65535, 65535, 65535, 65535, 65535, 65535, 65535],-1,-1,-1,100,0,0,[0, 0, 0, 0],0,0,HEARTBEAT,6,8,0,0,0,3
0.7140750885009766,23.6953125,VFR_HUD,0.0,0.008943126536905766,58,0,-2.5199999809265137,-0.0022397898137569427,,,,,,,,,,,,,,,,AHRS,0.006872371304780245,0.0006641274085268378,-0.0022365711629390717,0.0,0.0,0.0003849831409752369,0.002189450431615114,GPS_RAW_INT,0,1,0,0,-17000,9999,9999,0,0,0,0,4294967295,4294967295,1000000,0,0,RC_CHANNELS,6899536,16,1501,1499,1005,1501,1000,1000,1500,1500,0,0,0,0,0,0,0,0,0,0,0,MISSION_CURRENT,0,SYS_STATUS,52485167,52461615,53510447,46,0,-1,-1,0,0,0,0,0,0,GLOBAL_POSITION_INT,6899536,0,0,-2520,-2527,0,0,0,5859,RAW_IMU,2604569459,20,11,-991,-6,-1,2,266,-452,247,0,4332,BATTERY_STATUS,0,0,0,32767,[65535, 65535, 65535, 65535, 65535, 65535, 65535, 65535, 65535, 65535],-1,-1,-1,100,0,0,[0, 0, 0, 0],0,0,HEARTBEAT,6,8,0,0,0,3
0.7646934986114502,23.6875,VFR_HUD,0.0,0.008943126536905766,58,0,-2.5199999809265137,-0.0022397898137569427,,,,,,,,,,,,,,,,AHRS,0.006872371304780245,0.0006641274085268378,-0.0022365711629390717,0.0,0.0,0.0003849831409752369,0.002189450431615114,GPS_RAW_INT,0,1,0,0,-17000,9999,9999,0,0,0,0,4294967295,4294967295,1000000,0,0,RC_CHANNELS,6899536,16,1501,1499,1005,1501,1000,1000,1500,1500,0,0,0,0,0,0,0,0,0,0,0,MISSION_CURRENT,0,SYS_STATUS,52485167,52461615,53510447,46,0,-1,-1,0,0,0,0,0,0,GLOBAL_POSITION_INT,6899536,0,0,-2520,-2527,0,0,0,5859,RAW_IMU,2604569459,20,11,-991,-6,-1,2,266,-452,247,0,4332,BATTERY_STATUS,0,0,0,32767,[65535, 65535, 65535, 65535, 65535, 65535, 65535, 65535, 65535, 65535],-1,-1,-1,100,0,0,[0, 0, 0, 0],0,0,HEARTBEAT,6,8,0,0,0,3
0.8154911994934082,23.6875,VFR_HUD,0.0,0.008943126536905766,58,0,-2.5199999809265137,-0.0022397898137569427,,,,,,,,,,,,,,,,AHRS,0.006872371304780245,0.0006641274085268378,-0.0022365711629390717,0.0,0.0,0.0003849831409752369,0.002189450431615114,GPS_RAW_INT,0,1,0,0,-17000,9999,9999,0,0,0,0,4294967295,4294967295,1000000,0,0,RC_CHANNELS,6899536,16,1501,1499,1005,1501,1000,1000,1500,1500,0,0,0,0,0,0,0,0,0,0,0,MISSION_CURRENT,0,SYS_STATUS,52485167,52461615,53510447,46,0,-1,-1,0,0,0,0,0,0,GLOBAL_POSITION_INT,6899536,0,0,-2520,-2527,0,0,0,5859,RAW_IMU,2604569459,20,11,-991,-6,-1,2,266,-452,247,0,4332,BATTERY_STATUS,0,0,0,32767,[65535, 65535, 65535, 65535, 65535, 65535, 65535, 65535, 65535, 65535],-1,-1,-1,100,0,0,[0, 0, 0, 0],0,0,HEARTBEAT,6,8,0,0,0,3
0.8661036491394043,23.6875,VFR_HUD,0.0,0.008943126536905766,58,0,-2.5199999809265137,-0.0022397898137569427,,,,,,,,,,,,,,,,AHRS,0.006872371304780245,0.0006641274085268378,-0.0022365711629390717,0.0,0.0,0.0003849831409752369,0.002189450431615114,GPS_RAW_INT,0,1,0,0,-17000,9999,9999,0,0,0,0,4294967295,4294967295,1000000,0,0,RC_CHANNELS,6899536,16,1501,1499,1005,1501,1000,1000,1500,1500,0,0,0,0,0,0,0,0,0,0,0,MISSION_CURRENT,0,SYS_STATUS,52485167,52461615,53510447,46,0,-1,-1,0,0,0,0,0,0,GLOBAL_POSITION_INT,6899536,0,0,-2520,-2527,0,0,0,5859,RAW_IMU,2604569459,20,11,-991,-6,-1,2,266,-452,247,0,4332,BATTERY_STATUS,0,0,0,32767,[65535, 65535, 65535, 65535, 65535, 65535, 65535, 65535, 65535, 65535],-1,-1,-1,100,0,0,[0, 0, 0, 0],0,0,HEARTBEAT,6,8,0,0,0,3
0.9169657230377197,23.6875,VFR_HUD,0.0,0.008943126536905766,58,0,-2.5199999809265137,-0.0022397898137569427,,,,,,,,,,,,,,,,AHRS,0.006872371304780245,0.0006641274085268378,-0.0022365711629390717,0.0,0.0,0.0003849831409752369,0.002189450431615114,GPS_RAW_INT,0,1,0,0,-17000,9999,9999,0,0,0,0,4294967295,4294967295,1000000,0,0,RC_CHANNELS,6899536,16,1501,1499,1005,1501,1000,1000,1500,1500,0,0,0,0,0,0,0,0,0,0,0,MISSION_CURRENT,0,SYS_STATUS,52485167,52461615,53510447,46,0,-1,-1,0,0,0,0,0,0,GLOBAL_POSITION_INT,6899536,0,0,-2520,-2527,0,0,0,5859,RAW_IMU,2604569459,20,11,-991,-6,-1,2,266,-452,247,0,4332,BATTERY_STATUS,0,0,0,32767,[65535, 65535, 65535, 65535, 65535, 65535, 65535, 65535, 65535, 65535],-1,-1,-1,100,0,0,[0, 0, 0, 0],0,0,HEARTBEAT,6,8,0,0,0,3
0.96907639503479,23.6875,VFR_HUD,0.0,0.008943126536905766,58,0,-2.5199999809265137,-0.0022397898137569427,,,,,,,,,,,,,,,,AHRS,0.006872371304780245,0.0006641274085268378,-0.0022365711629390717,0.0,0.0,0.0003849831409752369,0.002189450431615114,GPS_RAW_INT,0,1,0,0,-17000,9999,9999,0,0,0,0,4294967295,4294967295,1000000,0,0,RC_CHANNELS,6899536,16,1501,1499,1005,1501,1000,1000,1500,1500,0,0,0,0,0,0,0,0,0,0,0,MISSION_CURRENT,0,SYS_STATUS,52485167,52461615,53510447,46,0,-1,-1,0,0,0,0,0,0,GLOBAL_POSITION_INT,6899536,0,0,-2520,-2527,0,0,0,5859,RAW_IMU,2604569459,20,11,-991,-6,-1,2,266,-452,247,0,4332,BATTERY_STATUS,0,0,0,32767,[65535, 65535, 65535, 65535, 65535, 65535, 65535, 65535, 65535, 65535],-1,-1,-1,100,0,0,[0, 0, 0, 0],0,0,HEARTBEAT,6,8,0,0,0,3
1.0197076797485352,23.6875,VFR_HUD,0.0,0.008943126536905766,58,0,-2.5199999809265137,-0.0022397898137569427,,,,,,,,,,,,,,,,AHRS,0.006872371304780245,0.0006641274085268378,-0.0022365711629390717,0.0,0.0,0.0003849831409752369,0.002189450431615114,GPS_RAW_INT,0,1,0,0,-17000,9999,9999,0,0,0,0,4294967295,4294967295,1000000,0,0,RC_CHANNELS,6899536,16,1501,1499,1005,1501,1000,1000,1500,1500,0,0,0,0,0,0,0,0,0,0,0,MISSION_CURRENT,0,SYS_STATUS,52485167,52461615,53510447,46,0,-1,-1,0,0,0,0,0,0,GLOBAL_POSITION_INT,6899536,0,0,-2520,-2527,0,0,0,5859,RAW_IMU,2604569459,20,11,-991,-6,-1,2,266,-452,247,0,4332,BATTERY_STATUS,0,0,0,32767,[65535, 65535, 65535, 65535, 65535, 65535, 65535, 65535, 65535, 65535],-1,-1,-1,100,0,0,[0, 0, 0, 0],0,0,HEARTBEAT,6,8,0,0,0,3
1.0706374645233154,23.6875,VFR_HUD,0.0,0.008943126536905766,58,0,-2.5199999809265137,-0.0022397898137569427,,,,,,,,,,,,,,,,AHRS,0.006872371304780245,0.0006641274085268378,-0.0022365711629390717,0.0,0.0,0.0003849831409752369,0.002189450431615114,GPS_RAW_INT,0,1,0,0,-17000,9999,9999,0,0,0,0,4294967295,4294967295,1000000,0,0,RC_CHANNELS,6899536,16,1501,1499,1005,1501,1000,1000,1500,1500,0,0,0,0,0,0,0,0,0,0,0,MISSION_CURRENT,0,SYS_STATUS,52485167,52461615,53510447,46,0,-1,-1,0,0,0,0,0,0,GLOBAL_POSITION_INT,6899536,0,0,-2520,-2527,0,0,0,5859,RAW_IMU,2604569459,20,11,-991,-6,-1,2,266,-452,247,0,4332,BATTERY_STATUS,0,0,0,32767,[65535, 65535, 65535, 65535, 65535, 65535, 65535, 65535, 65535, 65535],-1,-1,-1,100,0,0,[0, 0, 0, 0],0,0,HEARTBEAT,6,8,0,0,0,3
1.121272325515747,23.6875,VFR_HUD,0.0,0.013537688180804253,58,0,-2.5799999237060547,-0.0048158192075788975,,,,,,,,,,,,,,,,AHRS,0.006872371304780245,0.0006641274085268378,-0.0022365711629390717,0.0,0.0,0.0003849831409752369,0.002189450431615114,GPS_RAW_INT,0,1,0,0,-17000,9999,9999,0,0,0,0,4294967295,4294967295,1000000,0,0,RC_CHANNELS,6899536,16,1501,1499,1005,1501,1000,1000,1500,1500,0,0,0,0,0,0,0,0,0,0,0,MISSION_CURRENT,0,SYS_STATUS,52485167,52461615,53510447,35,0,-1,-1,0,0,0,0,0,0,GLOBAL_POSITION_INT,6900536,0,0,-2580,-2581,0,1,0,5860,RAW_IMU,2604569459,20,11,-991,-6,-1,2,266,-452,247,0,4332,BATTERY_STATUS,0,0,0,32767,[65535, 65535, 65535, 65535, 65535, 65535, 65535, 65535, 65535, 65535],-1,-1,-1,100,0,0,[0, 0, 0, 0],0,0,HEARTBEAT,10,3,193,0,4,3
1.172163486480713,23.6875,VFR_HUD,0.0,0.013537688180804253,58,0,-2.5799999237060547,-0.0048158192075788975,,,,,,,,,,,,,,,,AHRS,0.006870912853628397,0.0006639907951466739,-0.0022357890848070383,0.0,0.0,0.00039693588041700423,0.0026049406733363867,GPS_RAW_INT,0,1,0,0,-17000,9999,9999,0,0,0,0,4294967295,4294967295,1000000,0,0,RC_CHANNELS,6900536,16,1501,1500,1004,1501,1000,1000,1500,1501,0,0,0,0,0,0,0,0,0,0,0,MISSION_CURRENT,0,SYS_STATUS,52485167,52461615,53510447,35,0,-1,-1,0,0,0,0,0,0,GLOBAL_POSITION_INT,6900536,0,0,-2580,-2581,0,1,0,5860,RAW_IMU,2605569427,20,11,-990,-6,-1,2,266,-452,242,0,4332,BATTERY_STATUS,0,0,0,32767,[65535, 65535, 65535, 65535, 65535, 65535, 65535, 65535, 65535, 65535],-1,-1,-1,100,0,0,[0, 0, 0, 0],0,0,HEARTBEAT,10,3,193,0,4,3
1.2232928276062012,23.6875,VFR_HUD,0.0,0.013537688180804253,58,0,-2.5799999237060547,-0.0048158192075788975,,,,,,,,,,,,,,,,AHRS,0.006870912853628397,0.0006639907951466739,-0.0022357890848070383,0.0,0.0,0.00039693588041700423,0.0026049406733363867,GPS_RAW_INT,0,1,0,0,-17000,9999,9999,0,0,0,0,4294967295,4294967295,1000000,0,0,RC_CHANNELS,6900536,16,1501,1500,1004,1501,1000,1000,1500,1501,0,0,0,0,0,0,0,0,0,0,0,MISSION_CURRENT,0,SYS_STATUS,52485167,52461615,53510447,35,0,-1,-1,0,0,0,0,0,0,GLOBAL_POSITION_INT,6900536,0,0,-2580,-2581,0,1,0,5860,RAW_IMU,2605569427,20,11,-990,-6,-1,2,266,-452,242,0,4332,BATTERY_STATUS,0,0,0,32767,[65535, 65535, 65535, 65535, 65535, 65535, 65535, 65535, 65535, 65535],-1,-1,-1,100,0,0,[0, 0, 0, 0],0,0,HEARTBEAT,10,3,193,0,4,3
1.274048089981079,23.6875,VFR_HUD,0.0,0.013537688180804253,58,0,-2.5799999237060547,-0.0048158192075788975,,,,,,,,,,,,,,,,AHRS,0.006870912853628397,0.0006639907951466739,-0.0022357890848070383,0.0,0.0,0.00039693588041700423,0.0026049406733363867,GPS_RAW_INT,0,1,0,0,-17000,9999,9999,0,0,0,0,4294967295,4294967295,1000000,0,0,RC_CHANNELS,6900536,16,1501,1500,1004,1501,1000,1000,1500,1501,0,0,0,0,0,0,0,0,0,0,0,MISSION_CURRENT,0,SYS_STATUS,52485167,52461615,53510447,35,0,-1,-1,0,0,0,0,0,0,GLOBAL_POSITION_INT,6900536,0,0,-2580,-2581,0,1,0,5860,RAW_IMU,2605569427,20,11,-990,-6,-1,2,266,-452,242,0,4332,BATTERY_STATUS,0,0,0,32767,[65535, 65535, 65535, 65535, 65535, 65535, 65535, 65535, 65535, 65535],-1,-1,-1,100,0,0,[0, 0, 0, 0],0,0,HEARTBEAT,10,3,193,0,4,3
1.324974536895752,23.6875,VFR_HUD,0.0,0.013537688180804253,58,0,-2.5799999237060547,-0.0048158192075788975,,,,,,,,,,,,,,,,AHRS,0.006870912853628397,0.0006639907951466739,-0.0022357890848070383,0.0,0.0,0.00039693588041700423,0.0026049406733363867,GPS_RAW_INT,0,1,0,0,-17000,9999,9999,0,0,0,0,4294967295,4294967295,1000000,0,0,RC_CHANNELS,6900536,16,1501,1500,1004,1501,1000,1000,1500,1501,0,0,0,0,0,0,0,0,0,0,0,MISSION_CURRENT,0,SYS_STATUS,52485167,52461615,53510447,35,0,-1,-1,0,0,0,0,0,0,GLOBAL_POSITION_INT,6900536,0,0,-2580,-2581,0,1,0,5860,RAW_IMU,2605569427,20,11,-990,-6,-1,2,266,-452,242,0,4332,BATTERY_STATUS,0,0,0,32767,[65535, 65535, 65535, 65535, 65535, 65535, 65535, 65535, 65535, 65535],-1,-1,-1,100,0,0,[0, 0, 0, 0],0,0,HEARTBEAT,10,3,193,0,4,3
1.375671148300171,23.6875,VFR_HUD,0.0,0.013537688180804253,58,0,-2.5799999237060547,-0.0048158192075788975,,,,,,,,,,,,,,,,AHRS,0.006870912853628397,0.0006639907951466739,-0.0022357890848070383,0.0,0.0,0.00039693588041700423,0.0026049406733363867,GPS_RAW_INT,0,1,0,0,-17000,9999,9999,0,0,0,0,4294967295,4294967295,1000000,0,0,RC_CHANNELS,6900536,16,1501,1500,1004,1501,1000,1000,1500,1501,0,0,0,0,0,0,0,0,0,0,0,MISSION_CURRENT,0,SYS_STATUS,52485167,52461615,53510447,35,0,-1,-1,0,0,0,0,0,0,GLOBAL_POSITION_INT,6900536,0,0,-2580,-2581,0,1,0,5860,RAW_IMU,2605569427,20,11,-990,-6,-1,2,266,-452,242,0,4332,BATTERY_STATUS,0,0,0,32767,[65535, 65535, 65535, 65535, 65535, 65535, 65535, 65535, 65535, 65535],-1,-1,-1,100,0,0,[0, 0, 0, 0],0,0,HEARTBEAT,6,8,0,0,0,3
1.4285173416137695,23.6875,VFR_HUD,0.0,0.013537688180804253,58,0,-2.5799999237060547,-0.0048158192075788975,,,,,,,,,,,,,,,,AHRS,0.006870912853628397,0.0006639907951466739,-0.0022357890848070383,0.0,0.0,0.00039693588041700423,0.0026049406733363867,GPS_RAW_INT,0,1,0,0,-17000,9999,9999,0,0,0,0,4294967295,4294967295,1000000,0,0,RC_CHANNELS,6900536,16,1501,1500,1004,1501,1000,1000,1500,1501,0,0,0,0,0,0,0,0,0,0,0,MISSION_CURRENT,0,SYS_STATUS,52485167,52461615,53510447,35,0,-1,-1,0,0,0,0,0,0,GLOBAL_POSITION_INT,6900536,0,0,-2580,-2581,0,1,0,5860,RAW_IMU,2605569427,20,11,-990,-6,-1,2,266,-452,242,0,4332,BATTERY_STATUS,0,0,0,32767,[65535, 65535, 65535, 65535, 65535, 65535, 65535, 65535, 65535, 65535],-1,-1,-1,100,0,0,[0, 0, 0, 0],0,0,HEARTBEAT,6,8,0,0,0,3
1.4792203903198242,23.6875,VFR_HUD,0.0,0.013537688180804253,58,0,-2.5799999237060547,-0.0048158192075788975,,,,,,,,,,,,,,,,AHRS,0.006870912853628397,0.0006639907951466739,-0.0022357890848070383,0.0,0.0,0.00039693588041700423,0.0026049406733363867,GPS_RAW_INT,0,1,0,0,-17000,9999,9999,0,0,0,0,4294967295,4294967295,1000000,0,0,RC_CHANNELS,6900536,16,1501,1500,1004,1501,1000,1000,1500,1501,0,0,0,0,0,0,0,0,0,0,0,MISSION_CURRENT,0,SYS_STATUS,52485167,52461615,53510447,35,0,-1,-1,0,0,0,0,0,0,GLOBAL_POSITION_INT,6900536,0,0,-2580,-2581,0,1,0,5860,RAW_IMU,2605569427,20,11,-990,-6,-1,2,266,-452,242,0,4332,BATTERY_STATUS,0,0,0,32767,[65535, 65535, 65535, 65535, 65535, 65535, 65535, 65535, 65535, 65535],-1,-1,-1,100,0,0,[0, 0, 0, 0],0,0,HEARTBEAT,6,8,0,0,0,3
1.5298988819122314,23.6875,VFR_HUD,0.0,0.013537688180804253,58,0,-2.5799999237060547,-0.0048158192075788975,,,,,,,,,,,,,,,,AHRS,0.006870912853628397,0.0006639907951466739,-0.0022357890848070383,0.0,0.0,0.00039693588041700423,0.0026049406733363867,GPS_RAW_INT,0,1,0,0,-17000,9999,9999,0,0,0,0,4294967295,4294967295,1000000,0,0,RC_CHANNELS,6900536,16,1501,1500,1004,1501,1000,1000,1500,1501,0,0,0,0,0,0,0,0,0,0,0,MISSION_CURRENT,0,SYS_STATUS,52485167,52461615,53510447,35,0,-1,-1,0,0,0,0,0,0,GLOBAL_POSITION_INT,6900536,0,0,-2580,-2581,0,1,0,5860,RAW_IMU,2605569427,20,11,-990,-6,-1,2,266,-452,242,0,4332,BATTERY_STATUS,0,0,0,32767,[65535, 65535, 65535, 65535, 65535, 65535, 65535, 65535, 65535, 65535],-1,-1,-1,100,0,0,[0, 0, 0, 0],0,0,HEARTBEAT,6,8,0,0,0,3
1.5808117389678955,23.6875,VFR_HUD,0.0,0.013537688180804253,58,0,-2.5799999237060547,-0.0048158192075788975,,,,,,,,,,,,,,,,AHRS,0.006870912853628397,0.0006639907951466739,-0.0022357890848070383,0.0,0.0,0.00039693588041700423,0.0026049406733363867,GPS_RAW_INT,0,1,0,0,-17000,9999,9999,0,0,0,0,4294967295,4294967295,1000000,0,0,RC_CHANNELS,6900536,16,1501,1500,1004,1501,1000,1000,1500,1501,0,0,0,0,0,0,0,0,0,0,0,MISSION_CURRENT,0,SYS_STATUS,52485167,52461615,53510447,35,0,-1,-1,0,0,0,0,0,0,GLOBAL_POSITION_INT,6900536,0,0,-2580,-2581,0,1,0,5860,RAW_IMU,2605569427,20,11,-990,-6,-1,2,266,-452,242,0,4332,BATTERY_STATUS,0,0,0,32767,[65535, 65535, 65535, 65535, 65535, 65535, 65535, 65535, 65535, 65535],-1,-1,-1,100,0,0,[0, 0, 0, 0],0,0,HEARTBEAT,6,8,0,0,0,3
1.6314074993133545,23.6875,VFR_HUD,0.0,0.013537688180804253,58,0,-2.5799999237060547,-0.0048158192075788975,,,,,,,,,,,,,,,,AHRS,0.006870912853628397,0.0006639907951466739,-0.0022357890848070383,0.0,0.0,0.00039693588041700423,0.0026049406733363867,GPS_RAW_INT,0,1,0,0,-17000,9999,9999,0,0,0,0,4294967295,4294967295,1000000,0,0,RC_CHANNELS,6900536,16,1501,1500,1004,1501,1000,1000,1500,1501,0,0,0,0,0,0,0,0,0,0,0,MISSION_CURRENT,0,SYS_STATUS,52485167,52461615,53510447,35,0,-1,-1,0,0,0,0,0,0,GLOBAL_POSITION_INT,6900536,0,0,-2580,-2581,0,1,0,5860,RAW_IMU,2605569427,20,11,-990,-6,-1,2,266,-452,242,0,4332,BATTERY_STATUS,0,0,0,32767,[65535, 65535, 65535, 65535, 65535, 65535, 65535, 65535, 65535, 65535],-1,-1,-1,100,0,0,[0, 0, 0, 0],0,0,HEARTBEAT,6,8,0,0,0,3
1.6850759983062744,23.6875,VFR_HUD,0.0,0.013537688180804253,58,0,-2.5799999237060547,-0.0048158192075788975,,,,,,,,,,,,,,,,AHRS,0.006870912853628397,0.0006639907951466739,-0.0022357890848070383,0.0,0.0,0.00039693588041700423,0.0026049406733363867,GPS_RAW_INT,0,1,0,0,-17000,9999,9999,0,0,0,0,4294967295,4294967295,1000000,0,0,RC_CHANNELS,6900536,16,1501,1500,1004,1501,1000,1000,1500,1501,0,0,0,0,0,0,0,0,0,0,0,MISSION_CURRENT,0,SYS_STATUS,52485167,52461615,53510447,35,0,-1,-1,0,0,0,0,0,0,GLOBAL_POSITION_INT,6900536,0,0,-2580,-2581,0,1,0,5860,RAW_IMU,2605569427,20,11,-990,-6,-1,2,266,-452,242,0,4332,BATTERY_STATUS,0,0,0,32767,[65535, 65535, 65535, 65535, 65535, 65535, 65535, 65535, 65535, 65535],-1,-1,-1,100,0,0,[0, 0, 0, 0],0,0,HEARTBEAT,6,8,0,0,0,3
1.736039638519287,23.6875,VFR_HUD,0.0,0.013537688180804253,58,0,-2.5799999237060547,-0.0048158192075788975,,,,,,,,,,,,,,,,AHRS,0.006870912853628397,0.0006639907951466739,-0.0022357890848070383,0.0,0.0,0.00039693588041700423,0.0026049406733363867,GPS_RAW_INT,0,1,0,0,-17000,9999,9999,0,0,0,0,4294967295,4294967295,1000000,0,0,RC_CHANNELS,6900536,16,1501,1500,1004,1501,1000,1000,1500,1501,0,0,0,0,0,0,0,0,0,0,0,MISSION_CURRENT,0,SYS_STATUS,52485167,52461615,53510447,35,0,-1,-1,0,0,0,0,0,0,GLOBAL_POSITION_INT,6900536,0,0,-2580,-2581,0,1,0,5860,RAW_IMU,2605569427,20,11,-990,-6,-1,2,266,-452,242,0,4332,BATTERY_STATUS,0,0,0,32767,[65535, 65535, 65535, 65535, 65535, 65535, 65535, 65535, 65535, 65535],-1,-1,-1,100,0,0,[0, 0, 0, 0],0,0,HEARTBEAT,6,8,0,0,0,3
1.7869997024536133,23.6875,VFR_HUD,0.0,0.013537688180804253,58,0,-2.5799999237060547,-0.0048158192075788975,,,,,,,,,,,,,,,,AHRS,0.006870912853628397,0.0006639907951466739,-0.0022357890848070383,0.0,0.0,0.00039693588041700423,0.0026049406733363867,GPS_RAW_INT,0,1,0,0,-17000,9999,9999,0,0,0,0,4294967295,4294967295,1000000,0,0,RC_CHANNELS,6900536,16,1501,1500,1004,1501,1000,1000,1500,1501,0,0,0,0,0,0,0,0,0,0,0,MISSION_CURRENT,0,SYS_STATUS,52485167,52461615,53510447,35,0,-1,-1,0,0,0,0,0,0,GLOBAL_POSITION_INT,6900536,0,0,-2580,-2581,0,1,0,5860,RAW_IMU,2605569427,20,11,-990,-6,-1,2,266,-452,242,0,4332,BATTERY_STATUS,0,0,0,32767,[65535, 65535, 65535, 65535, 65535, 65535, 65535, 65535, 65535, 65535],-1,-1,-1,100,0,0,[0, 0, 0, 0],0,0,HEARTBEAT,6,8,0,0,0,3
1.8380587100982666,23.6875,VFR_HUD,0.0,0.013537688180804253,58,0,-2.5799999237060547,-0.0048158192075788975,,,,,,,,,,,,,,,,AHRS,0.006870912853628397,0.0006639907951466739,-0.0022357890848070383,0.0,0.0,0.00039693588041700423,0.0026049406733363867,GPS_RAW_INT,0,1,0,0,-17000,9999,9999,0,0,0,0,4294967295,4294967295,1000000,0,0,RC_CHANNELS,6900536,16,1501,1500,1004,1501,1000,1000,1500,1501,0,0,0,0,0,0,0,0,0,0,0,MISSION_CURRENT,0,SYS_STATUS,52485167,52461615,53510447,35,0,-1,-1,0,0,0,0,0,0,GLOBAL_POSITION_INT,6900536,0,0,-2580,-2581,0,1,0,5860,RAW_IMU,2605569427,20,11,-990,-6,-1,2,266,-452,242,0,4332,BATTERY_STATUS,0,0,0,32767,[65535, 65535, 65535, 65535, 65535, 65535, 65535, 65535, 65535, 65535],-1,-1,-1,100,0,0,[0, 0, 0, 0],0,0,HEARTBEAT,6,8,0,0,0,3
1.8887391090393066,23.6796875,VFR_HUD,0.0,0.013537688180804253,58,0,-2.5799999237060547,-0.0048158192075788975,,,,,,,,,,,,,,,,AHRS,0.006870912853628397,0.0006639907951466739,-0.0022357890848070383,0.0,0.0,0.00039693588041700423,0.0026049406733363867,GPS_RAW_INT,0,1,0,0,-17000,9999,9999,0,0,0,0,4294967295,4294967295,1000000,0,0,RC_CHANNELS,6900536,16,1501,1500,1004,1501,1000,1000,1500,1501,0,0,0,0,0,0,0,0,0,0,0,MISSION_CURRENT,0,SYS_STATUS,52485167,52461615,53510447,35,0,-1,-1,0,0,0,0,0,0,GLOBAL_POSITION_INT,6900536,0,0,-2580,-2581,0,1,0,5860,RAW_IMU,2605569427,20,11,-990,-6,-1,2,266,-452,242,0,4332,BATTERY_STATUS,0,0,0,32767,[65535, 65535, 65535, 65535, 65535, 65535, 65535, 65535, 65535, 65535],-1,-1,-1,100,0,0,[0, 0, 0, 0],0,0,HEARTBEAT,6,8,0,0,0,3
1.9398088455200195,23.6796875,VFR_HUD,0.0,0.013537688180804253,58,0,-2.5799999237060547,-0.0048158192075788975,,,,,,,,,,,,,,,,AHRS,0.006870912853628397,0.0006639907951466739,-0.0022357890848070383,0.0,0.0,0.00039693588041700423,0.0026049406733363867,GPS_RAW_INT,0,1,0,0,-17000,9999,9999,0,0,0,0,4294967295,4294967295,1000000,0,0,RC_CHANNELS,6900536,16,1501,1500,1004,1501,1000,1000,1500,1501,0,0,0,0,0,0,0,0,0,0,0,MISSION_CURRENT,0,SYS_STATUS,52485167,52461615,53510447,35,0,-1,-1,0,0,0,0,0,0,GLOBAL_POSITION_INT,6900536,0,0,-2580,-2581,0,1,0,5860,RAW_IMU,2605569427,20,11,-990,-6,-1,2,266,-452,242,0,4332,BATTERY_STATUS,0,0,0,32767,[65535, 65535, 65535, 65535, 65535, 65535, 65535, 65535, 65535, 65535],-1,-1,-1,100,0,0,[0, 0, 0, 0],0,0,HEARTBEAT,6,8,0,0,0,3
1.9904749393463135,23.6640625,VFR_HUD,0.0,0.013537688180804253,58,0,-2.5799999237060547,-0.0048158192075788975,,,,,,,,,,,,,,,,AHRS,0.006870912853628397,0.0006639907951466739,-0.0022357890848070383,0.0,0.0,0.00039693588041700423,0.0026049406733363867,GPS_RAW_INT,0,1,0,0,-17000,9999,9999,0,0,0,0,4294967295,4294967295,1000000,0,0,RC_CHANNELS,6900536,16,1501,1500,1004,1501,1000,1000,1500,1501,0,0,0,0,0,0,0,0,0,0,0,MISSION_CURRENT,0,SYS_STATUS,52485167,52461615,53510447,35,0,-1,-1,0,0,0,0,0,0,GLOBAL_POSITION_INT,6900536,0,0,-2580,-2581,0,1,0,5860,RAW_IMU,2605569427,20,11,-990,-6,-1,2,266,-452,242,0,4332,BATTERY_STATUS,0,0,0,32767,[65535, 65535, 65535, 65535, 65535, 65535, 65535, 65535, 65535, 65535],-1,-1,-1,100,0,0,[0, 0, 0, 0],0,0,HEARTBEAT,6,8,0,0,0,3
2.0415656566619873,23.6640625,VFR_HUD,0.0,0.013537688180804253,58,0,-2.5799999237060547,-0.0048158192075788975,,,,,,,,,,,,,,,,AHRS,0.006870912853628397,0.0006639907951466739,-0.0022357890848070383,0.0,0.0,0.00039693588041700423,0.0026049406733363867,GPS_RAW_INT,0,1,0,0,-17000,9999,9999,0,0,0,0,4294967295,4294967295,1000000,0,0,RC_CHANNELS,6900536,16,1501,1500,1004,1501,1000,1000,1500,1501,0,0,0,0,0,0,0,0,0,0,0,MISSION_CURRENT,0,SYS_STATUS,52485167,52461615,53510447,35,0,-1,-1,0,0,0,0,0,0,GLOBAL_POSITION_INT,6900536,0,0,-2580,-2581,0,1,0,5860,RAW_IMU,2605569427,20,11,-990,-6,-1,2,266,-452,242,0,4332,BATTERY_STATUS,0,0,0,32767,[65535, 65535, 65535, 65535, 65535, 65535, 65535, 65535, 65535, 65535],-1,-1,-1,100,0,0,[0, 0, 0, 0],0,0,HEARTBEAT,6,8,0,0,0,3
2.0937254428863525,23.6640625,VFR_HUD,0.0,0.013537688180804253,58,0,-2.5799999237060547,-0.0048158192075788975,,,,,,,,,,,,,,,,AHRS,0.006870912853628397,0.0006639907951466739,-0.0022357890848070383,0.0,0.0,0.00039693588041700423,0.0026049406733363867,GPS_RAW_INT,0,1,0,0,-17000,9999,9999,0,0,0,0,4294967295,4294967295,1000000,0,0,RC_CHANNELS,6900536,16,1501,1500,1004,1501,1000,1000,1500,1501,0,0,0,0,0,0,0,0,0,0,0,MISSION_CURRENT,0,SYS_STATUS,52485167,52461615,53510447,35,0,-1,-1,0,0,0,0,0,0,GLOBAL_POSITION_INT,6900536,0,0,-2580,-2581,0,1,0,5860,RAW_IMU,2605569427,20,11,-990,-6,-1,2,266,-452,242,0,4332,BATTERY_STATUS,0,0,0,32767,[65535, 65535, 65535, 65535, 65535, 65535, 65535, 65535, 65535, 65535],-1,-1,-1,100,0,0,[0, 0, 0, 0],0,0,HEARTBEAT,6,8,0,0,0,3
2.144416332244873,23.625,VFR_HUD,0.0,0.013537688180804253,58,0,-2.5799999237060547,-0.0048158192075788975,,,,,,,,,,,,,,,,AHRS,0.006870912853628397,0.0006639907951466739,-0.0022357890848070383,0.0,0.0,0.00039693588041700423,0.0026049406733363867,GPS_RAW_INT,0,1,0,0,-17000,9999,9999,0,0,0,0,4294967295,4294967295,1000000,0,0,RC_CHANNELS,6900536,16,1501,1500,1004,1501,1000,1000,1500,1501,0,0,0,0,0,0,0,0,0,0,0,MISSION_CURRENT,0,SYS_STATUS,52485167,52461615,53510447,35,0,-1,-1,0,0,0,0,0,0,GLOBAL_POSITION_INT,6900536,0,0,-2580,-2581,0,1,0,5860,RAW_IMU,2605569427,20,11,-990,-6,-1,2,266,-452,242,0,4332,BATTERY_STATUS,0,0,0,32767,[65535, 65535, 65535, 65535, 65535, 65535, 65535, 65535, 65535, 65535],-1,-1,-1,100,0,0,[0, 0, 0, 0],0,0,HEARTBEAT,6,8,0,0,0,3
2.1954944133758545,23.625,VFR_HUD,0.0,0.013537688180804253,58,0,-2.5799999237060547,-0.0048158192075788975,,,,,,,,,,,,,,,,AHRS,0.006870912853628397,0.0006639907951466739,-0.0022357890848070383,0.0,0.0,0.00039693588041700423,0.0026049406733363867,GPS_RAW_INT,0,1,0,0,-17000,9999,9999,0,0,0,0,4294967295,4294967295,1000000,0,0,RC_CHANNELS,6900536,16,1501,1500,1004,1501,1000,1000,1500,1501,0,0,0,0,0,0,0,0,0,0,0,MISSION_CURRENT,0,SYS_STATUS,52485167,52461615,53510447,35,0,-1,-1,0,0,0,0,0,0,GLOBAL_POSITION_INT,6900536,0,0,-2580,-2581,0,1,0,5860,RAW_IMU,2605569427,20,11,-990,-6,-1,2,266,-452,242,0,4332,BATTERY_STATUS,0,0,0,32767,[65535, 65535, 65535, 65535, 65535, 65535, 65535, 65535, 65535, 65535],-1,-1,-1,100,0,0,[0, 0, 0, 0],0,0,HEARTBEAT,6,8,0,0,0,3
2.246181011199951,23.5859375,VFR_HUD,0.0,0.013537688180804253,58,0,-2.5799999237060547,-0.0048158192075788975,,,,,,,,,,,,,,,,AHRS,0.006870912853628397,0.0006639907951466739,-0.0022357890848070383,0.0,0.0,0.00039693588041700423,0.0026049406733363867,GPS_RAW_INT,0,1,0,0,-17000,9999,9999,0,0,0,0,4294967295,4294967295,1000000,0,0,RC_CHANNELS,6900536,16,1501,1500,1004,1501,1000,1000,1500,1501,0,0,0,0,0,0,0,0,0,0,0,MISSION_CURRENT,0,SYS_STATUS,52485167,52461615,53510447,35,0,-1,-1,0,0,0,0,0,0,GLOBAL_POSITION_INT,6900536,0,0,-2580,-2581,0,1,0,5860,RAW_IMU,2605569427,20,11,-990,-6,-1,2,266,-452,242,0,4332,BATTERY_STATUS,0,0,0,32767,[65535, 65535, 65535, 65535, 65535, 65535, 65535, 65535, 65535, 65535],-1,-1,-1,100,0,0,[0, 0, 0, 0],0,0,HEARTBEAT,10,3,193,0,4,3
2.2972633838653564,23.5859375,VFR_HUD,0.0,0.019515620544552803,58,0,-2.5399999618530273,-0.006303208880126476,,,,,,,,,,,,,,,,AHRS,0.006870912853628397,0.0006639907951466739,-0.0022357890848070383,0.0,0.0,0.00039693588041700423,0.0026049406733363867,GPS_RAW_INT,0,1,0,0,-17000,9999,9999,0,0,0,0,4294967295,4294967295,1000000,0,0,RC_CHANNELS,6901536,16,1501,1500,1004,1501,1000,1000,1500,1501,0,0,0,0,0,0,0,0,0,0,0,MISSION_CURRENT,0,SYS_STATUS,52485167,52461615,53510447,34,0,-1,-1,0,0,0,0,0,0,GLOBAL_POSITION_INT,6901536,0,0,-2540,-2549,1,1,0,5861,RAW_IMU,2605569427,20,11,-990,-6,-1,2,266,-452,242,0,4332,BATTERY_STATUS,0,0,0,32767,[65535, 65535, 65535, 65535, 65535, 65535, 65535, 65535, 65535, 65535],-1,-1,-1,100,0,0,[0, 0, 0, 0],0,0,HEARTBEAT,10,3,193,0,4,3
2.3481032848358154,23.5859375,VFR_HUD,0.0,0.019515620544552803,58,0,-2.5399999618530273,-0.006303208880126476,,,,,,,,,,,,,,,,AHRS,0.006867857184261084,0.0006637254846282303,-0.0022347562480717897,0.0,0.0,0.00044695346150547266,0.0030996904242783785,GPS_RAW_INT,0,1,0,0,-17000,9999,9999,0,0,0,0,4294967295,4294967295,1000000,0,0,RC_CHANNELS,6901536,16,1501,1500,1004,1501,1000,1000,1500,1501,0,0,0,0,0,0,0,0,0,0,0,MISSION_CURRENT,0,SYS_STATUS,52485167,52461615,53510447,34,0,-1,-1,0,0,0,0,0,0,GLOBAL_POSITION_INT,6901536,0,0,-2540,-2549,1,1,0,5861,RAW_IMU,2606569467,19,11,-991,-7,0,1,268,-453,245,0,4332,BATTERY_STATUS,0,0,0,32767,[65535, 65535, 65535, 65535, 65535, 65535, 65535, 65535, 65535, 65535],-1,-1,-1,100,0,0,[0, 0, 0, 0],0,0,HEARTBEAT,10,3,193,0,4,3
2.3989415168762207,23.5625,VFR_HUD,0.0,0.019515620544552803,58,0,-2.5399999618530273,-0.006303208880126476,,,,,,,,,,,,,,,,AHRS,0.006867857184261084,0.0006637254846282303,-0.0022347562480717897,0.0,0.0,0.00044695346150547266,0.0030996904242783785,GPS_RAW_INT,0,1,0,0,-17000,9999,9999,0,0,0,0,4294967295,4294967295,1000000,0,0,RC_CHANNELS,6901536,16,1501,1500,1004,1501,1000,1000,1500,1501,0,0,0,0,0,0,0,0,0,0,0,MISSION_CURRENT,0,SYS_STATUS,52485167,52461615,53510447,34,0,-1,-1,0,0,0,0,0,0,GLOBAL_POSITION_INT,6901536,0,0,-2540,-2549,1,1,0,5861,RAW_IMU,2606569467,19,11,-991,-7,0,1,268,-453,245,0,4332,BATTERY_STATUS,0,0,0,32767,[65535, 65535, 65535, 65535, 65535, 65535, 65535, 65535, 65535, 65535],-1,-1,-1,100,0,0,[0, 0, 0, 0],0,0,HEARTBEAT,6,8,0,0,0,3
2.4499974250793457,23.5625,VFR_HUD,0.0,0.019515620544552803,58,0,-2.5399999618530273,-0.006303208880126476,,,,,,,,,,,,,,,,AHRS,0.006867857184261084,0.0006637254846282303,-0.0022347562480717897,0.0,0.0,0.00044695346150547266,0.0030996904242783785,GPS_RAW_INT,0,1,0,0,-17000,9999,9999,0,0,0,0,4294967295,4294967295,1000000,0,0,RC_CHANNELS,6901536,16,1501,1500,1004,1501,1000,1000,1500,1501,0,0,0,0,0,0,0,0,0,0,0,MISSION_CURRENT,0,SYS_STATUS,52485167,52461615,53510447,34,0,-1,-1,0,0,0,0,0,0,GLOBAL_POSITION_INT,6901536,0,0,-2540,-2549,1,1,0,5861,RAW_IMU,2606569467,19,11,-991,-7,0,1,268,-453,245,0,4332,BATTERY_STATUS,0,0,0,32767,[65535, 65535, 65535, 65535, 65535, 65535, 65535, 65535, 65535, 65535],-1,-1,-1,100,0,0,[0, 0, 0, 0],0,0,HEARTBEAT,6,8,0,0,0,3
2.5006463527679443,23.53125,VFR_HUD,0.0,0.019515620544552803,58,0,-2.5399999618530273,-0.006303208880126476,,,,,,,,,,,,,,,,AHRS,0.006867857184261084,0.0006637254846282303,-0.0022347562480717897,0.0,0.0,0.00044695346150547266,0.0030996904242783785,GPS_RAW_INT,0,1,0,0,-17000,9999,9999,0,0,0,0,4294967295,4294967295,1000000,0,0,RC_CHANNELS,6901536,16,1501,1500,1004,1501,1000,1000,1500,1501,0,0,0,0,0,0,0,0,0,0,0,MISSION_CURRENT,0,SYS_STATUS,52485167,52461615,53510447,34,0,-1,-1,0,0,0,0,0,0,GLOBAL_POSITION_INT,6901536,0,0,-2540,-2549,1,1,0,5861,RAW_IMU,2606569467,19,11,-991,-7,0,1,268,-453,245,0,4332,BATTERY_STATUS,0,0,0,32767,[65535, 65535, 65535, 65535, 65535, 65535, 65535, 65535, 65535, 65535],-1,-1,-1,100,0,0,[0, 0, 0, 0],0,0,HEARTBEAT,6,8,0,0,0,3
2.5520217418670654,23.53125,VFR_HUD,0.0,0.019515620544552803,58,0,-2.5399999618530273,-0.006303208880126476,,,,,,,,,,,,,,,,AHRS,0.006867857184261084,0.0006637254846282303,-0.0022347562480717897,0.0,0.0,0.00044695346150547266,0.0030996904242783785,GPS_RAW_INT,0,1,0,0,-17000,9999,9999,0,0,0,0,4294967295,4294967295,1000000,0,0,RC_CHANNELS,6901536,16,1501,1500,1004,1501,1000,1000,1500,1501,0,0,0,0,0,0,0,0,0,0,0,MISSION_CURRENT,0,SYS_STATUS,52485167,52461615,53510447,34,0,-1,-1,0,0,0,0,0,0,GLOBAL_POSITION_INT,6901536,0,0,-2540,-2549,1,1,0,5861,RAW_IMU,2606569467,19,11,-991,-7,0,1,268,-453,245,0,4332,BATTERY_STATUS,0,0,0,32767,[65535, 65535, 65535, 65535, 65535, 65535, 65535, 65535, 65535, 65535],-1,-1,-1,100,0,0,[0, 0, 0, 0],0,0,HEARTBEAT,6,8,0,0,0,3
2.60255765914917,23.515625,VFR_HUD,0.0,0.019515620544552803,58,0,-2.5399999618530273,-0.006303208880126476,,,,,,,,,,,,,,,,AHRS,0.006867857184261084,0.0006637254846282303,-0.0022347562480717897,0.0,0.0,0.00044695346150547266,0.0030996904242783785,GPS_RAW_INT,0,1,0,0,-17000,9999,9999,0,0,0,0,4294967295,4294967295,1000000,0,0,RC_CHANNELS,6901536,16,1501,1500,1004,1501,1000,1000,1500,1501,0,0,0,0,0,0,0,0,0,0,0,MISSION_CURRENT,0,SYS_STATUS,52485167,52461615,53510447,34,0,-1,-1,0,0,0,0,0,0,GLOBAL_POSITION_INT,6901536,0,0,-2540,-2549,1,1,0,5861,RAW_IMU,2606569467,19,11,-991,-7,0,1,268,-453,245,0,4332,BATTERY_STATUS,0,0,0,32767,[65535, 65535, 65535, 65535, 65535, 65535, 65535, 65535, 65535, 65535],-1,-1,-1,100,0,0,[0, 0, 0, 0],0,0,HEARTBEAT,6,8,0,0,0,3
2.653383731842041,23.515625,VFR_HUD,0.0,0.019515620544552803,58,0,-2.5399999618530273,-0.006303208880126476,,,,,,,,,,,,,,,,AHRS,0.006867857184261084,0.0006637254846282303,-0.0022347562480717897,0.0,0.0,0.00044695346150547266,0.0030996904242783785,GPS_RAW_INT,0,1,0,0,-17000,9999,9999,0,0,0,0,4294967295,4294967295,1000000,0,0,RC_CHANNELS,6901536,16,1501,1500,1004,1501,1000,1000,1500,1501,0,0,0,0,0,0,0,0,0,0,0,MISSION_CURRENT,0,SYS_STATUS,52485167,52461615,53510447,34,0,-1,-1,0,0,0,0,0,0,GLOBAL_POSITION_INT,6901536,0,0,-2540,-2549,1,1,0,5861,RAW_IMU,2606569467,19,11,-991,-7,0,1,268,-453,245,0,4332,BATTERY_STATUS,0,0,0,32767,[65535, 65535, 65535, 65535, 65535, 65535, 65535, 65535, 65535, 65535],-1,-1,-1,100,0,0,[0, 0, 0, 0],0,0,HEARTBEAT,6,8,0,0,0,3
2.7044031620025635,23.515625,VFR_HUD,0.0,0.019515620544552803,58,0,-2.5399999618530273,-0.006303208880126476,,,,,,,,,,,,,,,,AHRS,0.006867857184261084,0.0006637254846282303,-0.0022347562480717897,0.0,0.0,0.00044695346150547266,0.0030996904242783785,GPS_RAW_INT,0,1,0,0,-17000,9999,9999,0,0,0,0,4294967295,4294967295,1000000,0,0,RC_CHANNELS,6901536,16,1501,1500,1004,1501,1000,1000,1500,1501,0,0,0,0,0,0,0,0,0,0,0,MISSION_CURRENT,0,SYS_STATUS,52485167,52461615,53510447,34,0,-1,-1,0,0,0,0,0,0,GLOBAL_POSITION_INT,6901536,0,0,-2540,-2549,1,1,0,5861,RAW_IMU,2606569467,19,11,-991,-7,0,1,268,-453,245,0,4332,BATTERY_STATUS,0,0,0,32767,[65535, 65535, 65535, 65535, 65535, 65535, 65535, 65535, 65535, 65535],-1,-1,-1,100,0,0,[0, 0, 0, 0],0,0,HEARTBEAT,6,8,0,0,0,3
2.754945755004883,23.4921875,VFR_HUD,0.0,0.019515620544552803,58,0,-2.5399999618530273,-0.006303208880126476,,,,,,,,,,,,,,,,AHRS,0.006867857184261084,0.0006637254846282303,-0.0022347562480717897,0.0,0.0,0.00044695346150547266,0.0030996904242783785,GPS_RAW_INT,0,1,0,0,-17000,9999,9999,0,0,0,0,4294967295,4294967295,1000000,0,0,RC_CHANNELS,6901536,16,1501,1500,1004,1501,1000,1000,1500,1501,0,0,0,0,0,0,0,0,0,0,0,MISSION_CURRENT,0,SYS_STATUS,52485167,52461615,53510447,34,0,-1,-1,0,0,0,0,0,0,GLOBAL_POSITION_INT,6901536,0,0,-2540,-2549,1,1,0,5861,RAW_IMU,2606569467,19,11,-991,-7,0,1,268,-453,245,0,4332,BATTERY_STATUS,0,0,0,32767,[65535, 65535, 65535, 65535, 65535, 65535, 65535, 65535, 65535, 65535],-1,-1,-1,100,0,0,[0, 0, 0, 0],0,0,HEARTBEAT,6,8,0,0,0,3
2.805755376815796,23.4921875,VFR_HUD,0.0,0.019515620544552803,58,0,-2.5399999618530273,-0.006303208880126476,,,,,,,,,,,,,,,,AHRS,0.006867857184261084,0.0006637254846282303,-0.0022347562480717897,0.0,0.0,0.00044695346150547266,0.0030996904242783785,GPS_RAW_INT,0,1,0,0,-17000,9999,9999,0,0,0,0,4294967295,4294967295,1000000,0,0,RC_CHANNELS,6901536,16,1501,1500,1004,1501,1000,1000,1500,1501,0,0,0,0,0,0,0,0,0,0,0,MISSION_CURRENT,0,SYS_STATUS,52485167,52461615,53510447,34,0,-1,-1,0,0,0,0,0,0,GLOBAL_POSITION_INT,6901536,0,0,-2540,-2549,1,1,0,5861,RAW_IMU,2606569467,19,11,-991,-7,0,1,268,-453,245,0,4332,BATTERY_STATUS,0,0,0,32767,[65535, 65535, 65535, 65535, 65535, 65535, 65535, 65535, 65535, 65535],-1,-1,-1,100,0,0,[0, 0, 0, 0],0,0,HEARTBEAT,6,8,0,0,0,3
2.8562464714050293,23.4765625,VFR_HUD,0.0,0.019515620544552803,58,0,-2.5399999618530273,-0.006303208880126476,,,,,,,,,,,,,,,,AHRS,0.006867857184261084,0.0006637254846282303,-0.0022347562480717897,0.0,0.0,0.00044695346150547266,0.0030996904242783785,GPS_RAW_INT,0,1,0,0,-17000,9999,9999,0,0,0,0,4294967295,4294967295,1000000,0,0,RC_CHANNELS,6901536,16,1501,1500,1004,1501,1000,1000,1500,1501,0,0,0,0,0,0,0,0,0,0,0,MISSION_CURRENT,0,SYS_STATUS,52485167,52461615,53510447,34,0,-1,-1,0,0,0,0,0,0,GLOBAL_POSITION_INT,6901536,0,0,-2540,-2549,1,1,0,5861,RAW_IMU,2606569467,19,11,-991,-7,0,1,268,-453,245,0,4332,BATTERY_STATUS,0,0,0,32767,[65535, 65535, 65535, 65535, 65535, 65535, 65535, 65535, 65535, 65535],-1,-1,-1,100,0,0,[0, 0, 0, 0],0,0,HEARTBEAT,6,8,0,0,0,3
2.9072091579437256,23.4765625,VFR_HUD,0.0,0.019515620544552803,58,0,-2.5399999618530273,-0.006303208880126476,,,,,,,,,,,,,,,,AHRS,0.006867857184261084,0.0006637254846282303,-0.0022347562480717897,0.0,0.0,0.00044695346150547266,0.0030996904242783785,GPS_RAW_INT,0,1,0,0,-17000,9999,9999,0,0,0,0,4294967295,4294967295,1000000,0,0,RC_CHANNELS,6901536,16,1501,1500,1004,1501,1000,1000,1500,1501,0,0,0,0,0,0,0,0,0,0,0,MISSION_CURRENT,0,SYS_STATUS,52485167,52461615,53510447,34,0,-1,-1,0,0,0,0,0,0,GLOBAL_POSITION_INT,6901536,0,0,-2540,-2549,1,1,0,5861,RAW_IMU,2606569467,19,11,-991,-7,0,1,268,-453,245,0,4332,BATTERY_STATUS,0,0,0,32767,[65535, 65535, 65535, 65535, 65535, 65535, 65535, 65535, 65535, 65535],-1,-1,-1,100,0,0,[0, 0, 0, 0],0,0,HEARTBEAT,6,8,0,0,0,3
2.957730770111084,23.4765625,VFR_HUD,0.0,0.019515620544552803,58,0,-2.5399999618530273,-0.006303208880126476,,,,,,,,,,,,,,,,AHRS,0.006867857184261084,0.0006637254846282303,-0.0022347562480717897,0.0,0.0,0.00044695346150547266,0.0030996904242783785,GPS_RAW_INT,0,1,0,0,-17000,9999,9999,0,0,0,0,4294967295,4294967295,1000000,0,0,RC_CHANNELS,6901536,16,1501,1500,1004,1501,1000,1000,1500,1501,0,0,0,0,0,0,0,0,0,0,0,MISSION_CURRENT,0,SYS_STATUS,52485167,52461615,53510447,34,0,-1,-1,0,0,0,0,0,0,GLOBAL_POSITION_INT,6901536,0,0,-2540,-2549,1,1,0,5861,RAW_IMU,2606569467,19,11,-991,-7,0,1,268,-453,245,0,4332,BATTERY_STATUS,0,0,0,32767,[65535, 65535, 65535, 65535, 65535, 65535, 65535, 65535, 65535, 65535],-1,-1,-1,100,0,0,[0, 0, 0, 0],0,0,HEARTBEAT,6,8,0,0,0,3
3.008815050125122,23.453125,VFR_HUD,0.0,0.019515620544552803,58,0,-2.5399999618530273,-0.006303208880126476,,,,,,,,,,,,,,,,AHRS,0.006867857184261084,0.0006637254846282303,-0.0022347562480717897,0.0,0.0,0.00044695346150547266,0.0030996904242783785,GPS_RAW_INT,0,1,0,0,-17000,9999,9999,0,0,0,0,4294967295,4294967295,1000000,0,0,RC_CHANNELS,6901536,16,1501,1500,1004,1501,1000,1000,1500,1501,0,0,0,0,0,0,0,0,0,0,0,MISSION_CURRENT,0,SYS_STATUS,52485167,52461615,53510447,34,0,-1,-1,0,0,0,0,0,0,GLOBAL_POSITION_INT,6901536,0,0,-2540,-2549,1,1,0,5861,RAW_IMU,2606569467,19,11,-991,-7,0,1,268,-453,245,0,4332,BATTERY_STATUS,0,0,0,32767,[65535, 65535, 65535, 65535, 65535, 65535, 65535, 65535, 65535, 65535],-1,-1,-1,100,0,0,[0, 0, 0, 0],0,0,HEARTBEAT,6,8,0,0,0,3
3.0603113174438477,23.453125,VFR_HUD,0.0,0.019515620544552803,58,0,-2.5399999618530273,-0.006303208880126476,,,,,,,,,,,,,,,,AHRS,0.006867857184261084,0.0006637254846282303,-0.0022347562480717897,0.0,0.0,0.00044695346150547266,0.0030996904242783785,GPS_RAW_INT,0,1,0,0,-17000,9999,9999,0,0,0,0,4294967295,4294967295,1000000,0,0,RC_CHANNELS,6901536,16,1501,1500,1004,1501,1000,1000,1500,1501,0,0,0,0,0,0,0,0,0,0,0,MISSION_CURRENT,0,SYS_STATUS,52485167,52461615,53510447,34,0,-1,-1,0,0,0,0,0,0,GLOBAL_POSITION_INT,6901536,0,0,-2540,-2549,1,1,0,5861,RAW_IMU,2606569467,19,11,-991,-7,0,1,268,-453,245,0,4332,BATTERY_STATUS,0,0,0,32767,[65535, 65535, 65535, 65535, 65535, 65535, 65535, 65535, 65535, 65535],-1,-1,-1,100,0,0,[0, 0, 0, 0],0,0,HEARTBEAT,6,8,0,0,0,3
3.111722230911255,23.4375,VFR_HUD,0.0,0.019515620544552803,58,0,-2.5399999618530273,-0.006303208880126476,,,,,,,,,,,,,,,,AHRS,0.006867857184261084,0.0006637254846282303,-0.0022347562480717897,0.0,0.0,0.00044695346150547266,0.0030996904242783785,GPS_RAW_INT,0,1,0,0,-17000,9999,9999,0,0,0,0,4294967295,4294967295,1000000,0,0,RC_CHANNELS,6901536,16,1501,1500,1004,1501,1000,1000,1500,1501,0,0,0,0,0,0,0,0,0,0,0,MISSION_CURRENT,0,SYS_STATUS,52485167,52461615,53510447,34,0,-1,-1,0,0,0,0,0,0,GLOBAL_POSITION_INT,6901536,0,0,-2540,-2549,1,1,0,5861,RAW_IMU,2606569467,19,11,-991,-7,0,1,268,-453,245,0,4332,BATTERY_STATUS,0,0,0,32767,[65535, 65535, 65535, 65535, 65535, 65535, 65535, 65535, 65535, 65535],-1,-1,-1,100,0,0,[0, 0, 0, 0],0,0,HEARTBEAT,6,8,0,0,0,3
3.1632518768310547,23.4375,VFR_HUD,0.0,0.019515620544552803,58,0,-2.5399999618530273,-0.006303208880126476,,,,,,,,,,,,,,,,AHRS,0.006867857184261084,0.0006637254846282303,-0.0022347562480717897,0.0,0.0,0.00044695346150547266,0.0030996904242783785,GPS_RAW_INT,0,1,0,0,-17000,9999,9999,0,0,0,0,4294967295,4294967295,1000000,0,0,RC_CHANNELS,6901536,16,1501,1500,1004,1501,1000,1000,1500,1501,0,0,0,0,0,0,0,0,0,0,0,MISSION_CURRENT,0,SYS_STATUS,52485167,52461615,53510447,34,0,-1,-1,0,0,0,0,0,0,GLOBAL_POSITION_INT,6901536,0,0,-2540,-2549,1,1,0,5861,RAW_IMU,2606569467,19,11,-991,-7,0,1,268,-453,245,0,4332,BATTERY_STATUS,0,0,0,32767,[65535, 65535, 65535, 65535, 65535, 65535, 65535, 65535, 65535, 65535],-1,-1,-1,100,0,0,[0, 0, 0, 0],0,0,HEARTBEAT,6,8,0,0,0,3
3.2656805515289307,23.4140625,VFR_HUD,0.0,0.019515620544552803,58,0,-2.5399999618530273,-0.006303208880126476,,,,,,,,,,,,,,,,AHRS,0.006867857184261084,0.0006637254846282303,-0.0022347562480717897,0.0,0.0,0.00044695346150547266,0.0030996904242783785,GPS_RAW_INT,0,1,0,0,-17000,9999,9999,0,0,0,0,4294967295,4294967295,1000000,0,0,RC_CHANNELS,6901536,16,1501,1500,1004,1501,1000,1000,1500,1501,0,0,0,0,0,0,0,0,0,0,0,MISSION_CURRENT,0,SYS_STATUS,52485167,52461615,53510447,34,0,-1,-1,0,0,0,0,0,0,GLOBAL_POSITION_INT,6901536,0,0,-2540,-2549,1,1,0,5861,RAW_IMU,2606569467,19,11,-991,-7,0,1,268,-453,245,0,4332,BATTERY_STATUS,0,0,0,32767,[65535, 65535, 65535, 65535, 65535, 65535, 65535, 65535, 65535, 65535],-1,-1,-1,100,0,0,[0, 0, 0, 0],0,0,HEARTBEAT,6,8,0,0,0,3
3.316365957260132,23.4140625,VFR_HUD,0.0,0.019515620544552803,58,0,-2.5399999618530273,-0.006303208880126476,,,,,,,,,,,,,,,,AHRS,0.006867857184261084,0.0006637254846282303,-0.0022347562480717897,0.0,0.0,0.00044695346150547266,0.0030996904242783785,GPS_RAW_INT,0,1,0,0,-17000,9999,9999,0,0,0,0,4294967295,4294967295,1000000,0,0,RC_CHANNELS,6901536,16,1501,1500,1004,1501,1000,1000,1500,1501,0,0,0,0,0,0,0,0,0,0,0,MISSION_CURRENT,0,SYS_STATUS,52485167,52461615,53510447,34,0,-1,-1,0,0,0,0,0,0,GLOBAL_POSITION_INT,6901536,0,0,-2540,-2549,1,1,0,5861,RAW_IMU,2606569467,19,11,-991,-7,0,1,268,-453,245,0,4332,BATTERY_STATUS,0,0,0,32767,[65535, 65535, 65535, 65535, 65535, 65535, 65535, 65535, 65535, 65535],-1,-1,-1,100,0,0,[0, 0, 0, 0],0,0,HEARTBEAT,6,8,0,0,0,3
3.3670639991760254,23.40625,VFR_HUD,0.0,0.019515620544552803,58,0,-2.5399999618530273,-0.006303208880126476,,,,,,,,,,,,,,,,AHRS,0.006867857184261084,0.0006637254846282303,-0.0022347562480717897,0.0,0.0,0.00044695346150547266,0.0030996904242783785,GPS_RAW_INT,0,1,0,0,-17000,9999,9999,0,0,0,0,4294967295,4294967295,1000000,0,0,RC_CHANNELS,6901536,16,1501,1500,1004,1501,1000,1000,1500,1501,0,0,0,0,0,0,0,0,0,0,0,MISSION_CURRENT,0,SYS_STATUS,52485167,52461615,53510447,34,0,-1,-1,0,0,0,0,0,0,GLOBAL_POSITION_INT,6901536,0,0,-2540,-2549,1,1,0,5861,RAW_IMU,2606569467,19,11,-991,-7,0,1,268,-453,245,0,4332,BATTERY_STATUS,0,0,0,32767,[65535, 65535, 65535, 65535, 65535, 65535, 65535, 65535, 65535, 65535],-1,-1,-1,100,0,0,[0, 0, 0, 0],0,0,HEARTBEAT,6,8,0,0,0,3
3.4186410903930664,23.40625,VFR_HUD,0.0,0.019515620544552803,58,0,-2.5399999618530273,-0.006303208880126476,,,,,,,,,,,,,,,,AHRS,0.006867857184261084,0.0006637254846282303,-0.0022347562480717897,0.0,0.0,0.00044695346150547266,0.0030996904242783785,GPS_RAW_INT,0,1,0,0,-17000,9999,9999,0,0,0,0,4294967295,4294967295,1000000,0,0,RC_CHANNELS,6901536,16,1501,1500,1004,1501,1000,1000,1500,1501,0,0,0,0,0,0,0,0,0,0,0,MISSION_CURRENT,0,SYS_STATUS,52485167,52461615,53510447,34,0,-1,-1,0,0,0,0,0,0,GLOBAL_POSITION_INT,6901536,0,0,-2540,-2549,1,1,0,5861,RAW_IMU,2606569467,19,11,-991,-7,0,1,268,-453,245,0,4332,BATTERY_STATUS,0,0,0,32767,[65535, 65535, 65535, 65535, 65535, 65535, 65535, 65535, 65535, 65535],-1,-1,-1,100,0,0,[0, 0, 0, 0],0,0,HEARTBEAT,6,8,0,0,0,3
3.469430923461914,23.390625,VFR_HUD,0.0,0.019515620544552803,58,0,-2.5399999618530273,-0.006303208880126476,,,,,,,,,,,,,,,,AHRS,0.006867857184261084,0.0006637254846282303,-0.0022347562480717897,0.0,0.0,0.00044695346150547266,0.0030996904242783785,GPS_RAW_INT,0,1,0,0,-17000,9999,9999,0,0,0,0,4294967295,4294967295,1000000,0,0,RC_CHANNELS,6901536,16,1501,1500,1004,1501,1000,1000,1500,1501,0,0,0,0,0,0,0,0,0,0,0,MISSION_CURRENT,0,SYS_STATUS,52485167,52461615,53510447,34,0,-1,-1,0,0,0,0,0,0,GLOBAL_POSITION_INT,6902536,0,0,-2400,-2404,1,2,0,5860,RAW_IMU,2606569467,19,11,-991,-7,0,1,268,-453,245,0,4332,BATTERY_STATUS,0,0,0,32767,[65535, 65535, 65535, 65535, 65535, 65535, 65535, 65535, 65535, 65535],-1,-1,-1,100,0,0,[0, 0, 0, 0],0,0,HEARTBEAT,10,3,193,0,4,3
3.521576166152954,23.390625,VFR_HUD,0.0,0.02824532799422741,58,0,-2.3999998569488525,-0.0039045587182044983,,,,,,,,,,,,,,,,AHRS,0.006867857184261084,0.0006637254846282303,-0.0022347562480717897,0.0,0.0,0.00044695346150547266,0.0030996904242783785,GPS_RAW_INT,0,1,0,0,-17000,9999,9999,0,0,0,0,4294967295,4294967295,1000000,0,0,RC_CHANNELS,6902536,16,1502,1499,1004,1501,1000,1000,1501,1500,0,0,0,0,0,0,0,0,0,0,0,MISSION_CURRENT,0,SYS_STATUS,52485167,52461615,53510447,34,0,-1,-1,0,0,0,0,0,0,GLOBAL_POSITION_INT,6902536,0,0,-2400,-2404,1,2,0,5860,RAW_IMU,2607569429,21,11,-991,-6,-1,2,270,-451,248,0,4332,BATTERY_STATUS,0,0,0,32767,[65535, 65535, 65535, 65535, 65535, 65535, 65535, 65535, 65535, 65535],-1,-1,-1,100,0,0,[0, 0, 0, 0],0,0,HEARTBEAT,10,3,193,0,4,3
3.5723752975463867,23.390625,VFR_HUD,0.0,0.02824532799422741,58,0,-2.3999998569488525,-0.0039045587182044983,,,,,,,,,,,,,,,,AHRS,0.0068717882968485355,0.0006641904474236071,-0.0022358736023306847,0.0,0.0,0.0005896600778214633,0.0025119225028902292,GPS_RAW_INT,0,1,0,0,-17000,9999,9999,0,0,0,0,4294967295,4294967295,1000000,0,0,RC_CHANNELS,6902536,16,1502,1499,1004,1501,1000,1000,1501,1500,0,0,0,0,0,0,0,0,0,0,0,MISSION_CURRENT,0,SYS_STATUS,52485167,52461615,53510447,34,0,-1,-1,0,0,0,0,0,0,GLOBAL_POSITION_INT,6902536,0,0,-2400,-2404,1,2,0,5860,RAW_IMU,2607569429,21,11,-991,-6,-1,2,270,-451,248,0,4332,BATTERY_STATUS,0,0,0,32767,[65535, 65535, 65535, 65535, 65535, 65535, 65535, 65535, 65535, 65535],-1,-1,-1,100,0,0,[0, 0, 0, 0],0,0,HEARTBEAT,10,3,193,0,4,3
3.6230947971343994,23.375,VFR_HUD,0.0,0.02824532799422741,58,0,-2.3999998569488525,-0.0039045587182044983,,,,,,,,,,,,,,,,AHRS,0.0068717882968485355,0.0006641904474236071,-0.0022358736023306847,0.0,0.0,0.0005896600778214633,0.0025119225028902292,GPS_RAW_INT,0,1,0,0,-17000,9999,9999,0,0,0,0,4294967295,4294967295,1000000,0,0,RC_CHANNELS,6902536,16,1502,1499,1004,1501,1000,1000,1501,1500,0,0,0,0,0,0,0,0,0,0,0,MISSION_CURRENT,0,SYS_STATUS,52485167,52461615,53510447,34,0,-1,-1,0,0,0,0,0,0,GLOBAL_POSITION_INT,6902536,0,0,-2400,-2404,1,2,0,5860,RAW_IMU,2607569429,21,11,-991,-6,-1,2,270,-451,248,0,4332,BATTERY_STATUS,0,0,0,32767,[65535, 65535, 65535, 65535, 65535, 65535, 65535, 65535, 65535, 65535],-1,-1,-1,100,0,0,[0, 0, 0, 0],0,0,HEARTBEAT,10,3,193,0,4,3
3.674621343612671,23.375,VFR_HUD,0.0,0.02824532799422741,58,0,-2.3999998569488525,-0.0039045587182044983,,,,,,,,,,,,,,,,AHRS,0.0068717882968485355,0.0006641904474236071,-0.0022358736023306847,0.0,0.0,0.0005896600778214633,0.0025119225028902292,GPS_RAW_INT,0,1,0,0,-17000,9999,9999,0,0,0,0,4294967295,4294967295,1000000,0,0,RC_CHANNELS,6902536,16,1502,1499,1004,1501,1000,1000,1501,1500,0,0,0,0,0,0,0,0,0,0,0,MISSION_CURRENT,0,SYS_STATUS,52485167,52461615,53510447,34,0,-1,-1,0,0,0,0,0,0,GLOBAL_POSITION_INT,6902536,0,0,-2400,-2404,1,2,0,5860,RAW_IMU,2607569429,21,11,-991,-6,-1,2,270,-451,248,0,4332,BATTERY_STATUS,0,0,0,32767,[65535, 65535, 65535, 65535, 65535, 65535, 65535, 65535, 65535, 65535],-1,-1,-1,100,0,0,[0, 0, 0, 0],0,0,HEARTBEAT,10,3,193,0,4,3
3.7254106998443604,23.3671875,VFR_HUD,0.0,0.02824532799422741,58,0,-2.3999998569488525,-0.0039045587182044983,,,,,,,,,,,,,,,,AHRS,0.0068717882968485355,0.0006641904474236071,-0.0022358736023306847,0.0,0.0,0.0005896600778214633,0.0025119225028902292,GPS_RAW_INT,0,1,0,0,-17000,9999,9999,0,0,0,0,4294967295,4294967295,1000000,0,0,RC_CHANNELS,6902536,16,1502,1499,1004,1501,1000,1000,1501,1500,0,0,0,0,0,0,0,0,0,0,0,MISSION_CURRENT,0,SYS_STATUS,52485167,52461615,53510447,34,0,-1,-1,0,0,0,0,0,0,GLOBAL_POSITION_INT,6902536,0,0,-2400,-2404,1,2,0,5860,RAW_IMU,2607569429,21,11,-991,-6,-1,2,270,-451,248,0,4332,BATTERY_STATUS,0,0,0,32767,[65535, 65535, 65535, 65535, 65535, 65535, 65535, 65535, 65535, 65535],-1,-1,-1,100,0,0,[0, 0, 0, 0],0,0,HEARTBEAT,10,3,193,0,4,3
3.7765543460845947,23.3671875,VFR_HUD,0.0,0.02824532799422741,58,0,-2.3999998569488525,-0.0039045587182044983,,,,,,,,,,,,,,,,AHRS,0.0068717882968485355,0.0006641904474236071,-0.0022358736023306847,0.0,0.0,0.0005896600778214633,0.0025119225028902292,GPS_RAW_INT,0,1,0,0,-17000,9999,9999,0,0,0,0,4294967295,4294967295,1000000,0,0,RC_CHANNELS,6902536,16,1502,1499,1004,1501,1000,1000,1501,1500,0,0,0,0,0,0,0,0,0,0,0,MISSION_CURRENT,0,SYS_STATUS,52485167,52461615,53510447,34,0,-1,-1,0,0,0,0,0,0,GLOBAL_POSITION_INT,6902536,0,0,-2400,-2404,1,2,0,5860,RAW_IMU,2607569429,21,11,-991,-6,-1,2,270,-451,248,0,4332,BATTERY_STATUS,0,0,0,32767,[65535, 65535, 65535, 65535, 65535, 65535, 65535, 65535, 65535, 65535],-1,-1,-1,100,0,0,[0, 0, 0, 0],0,0,HEARTBEAT,6,8,0,0,0,3
3.8272452354431152,23.359375,VFR_HUD,0.0,0.02824532799422741,58,0,-2.3999998569488525,-0.0039045587182044983,,,,,,,,,,,,,,,,AHRS,0.0068717882968485355,0.0006641904474236071,-0.0022358736023306847,0.0,0.0,0.0005896600778214633,0.0025119225028902292,GPS_RAW_INT,0,1,0,0,-17000,9999,9999,0,0,0,0,4294967295,4294967295,1000000,0,0,RC_CHANNELS,6902536,16,1502,1499,1004,1501,1000,1000,1501,1500,0,0,0,0,0,0,0,0,0,0,0,MISSION_CURRENT,0,SYS_STATUS,52485167,52461615,53510447,34,0,-1,-1,0,0,0,0,0,0,GLOBAL_POSITION_INT,6902536,0,0,-2400,-2404,1,2,0,5860,RAW_IMU,2607569429,21,11,-991,-6,-1,2,270,-451,248,0,4332,BATTERY_STATUS,0,0,0,32767,[65535, 65535, 65535, 65535, 65535, 65535, 65535, 65535, 65535, 65535],-1,-1,-1,100,0,0,[0, 0, 0, 0],0,0,HEARTBEAT,6,8,0,0,0,3
3.878045082092285,23.359375,VFR_HUD,0.0,0.02824532799422741,58,0,-2.3999998569488525,-0.0039045587182044983,,,,,,,,,,,,,,,,AHRS,0.0068717882968485355,0.0006641904474236071,-0.0022358736023306847,0.0,0.0,0.0005896600778214633,0.0025119225028902292,GPS_RAW_INT,0,1,0,0,-17000,9999,9999,0,0,0,0,4294967295,4294967295,1000000,0,0,RC_CHANNELS,6902536,16,1502,1499,1004,1501,1000,1000,1501,1500,0,0,0,0,0,0,0,0,0,0,0,MISSION_CURRENT,0,SYS_STATUS,52485167,52461615,53510447,34,0,-1,-1,0,0,0,0,0,0,GLOBAL_POSITION_INT,6902536,0,0,-2400,-2404,1,2,0,5860,RAW_IMU,2607569429,21,11,-991,-6,-1,2,270,-451,248,0,4332,BATTERY_STATUS,0,0,0,32767,[65535, 65535, 65535, 65535, 65535, 65535, 65535, 65535, 65535, 65535],-1,-1,-1,100,0,0,[0, 0, 0, 0],0,0,HEARTBEAT,6,8,0,0,0,3
3.9285736083984375,23.359375,VFR_HUD,0.0,0.02824532799422741,58,0,-2.3999998569488525,-0.0039045587182044983,,,,,,,,,,,,,,,,AHRS,0.0068717882968485355,0.0006641904474236071,-0.0022358736023306847,0.0,0.0,0.0005896600778214633,0.0025119225028902292,GPS_RAW_INT,0,1,0,0,-17000,9999,9999,0,0,0,0,4294967295,4294967295,1000000,0,0,RC_CHANNELS,6902536,16,1502,1499,1004,1501,1000,1000,1501,1500,0,0,0,0,0,0,0,0,0,0,0,MISSION_CURRENT,0,SYS_STATUS,52485167,52461615,53510447,34,0,-1,-1,0,0,0,0,0,0,GLOBAL_POSITION_INT,6902536,0,0,-2400,-2404,1,2,0,5860,RAW_IMU,2607569429,21,11,-991,-6,-1,2,270,-451,248,0,4332,BATTERY_STATUS,0,0,0,32767,[65535, 65535, 65535, 65535, 65535, 65535, 65535, 65535, 65535, 65535],-1,-1,-1,100,0,0,[0, 0, 0, 0],0,0,HEARTBEAT,6,8,0,0,0,3
3.9790966510772705,23.3515625,VFR_HUD,0.0,0.02824532799422741,58,0,-2.3999998569488525,-0.0039045587182044983,,,,,,,,,,,,,,,,AHRS,0.0068717882968485355,0.0006641904474236071,-0.0022358736023306847,0.0,0.0,0.0005896600778214633,0.0025119225028902292,GPS_RAW_INT,0,1,0,0,-17000,9999,9999,0,0,0,0,4294967295,4294967295,1000000,0,0,RC_CHANNELS,6902536,16,1502,1499,1004,1501,1000,1000,1501,1500,0,0,0,0,0,0,0,0,0,0,0,MISSION_CURRENT,0,SYS_STATUS,52485167,52461615,53510447,34,0,-1,-1,0,0,0,0,0,0,GLOBAL_POSITION_INT,6902536,0,0,-2400,-2404,1,2,0,5860,RAW_IMU,2607569429,21,11,-991,-6,-1,2,270,-451,248,0,4332,BATTERY_STATUS,0,0,0,32767,[65535, 65535, 65535, 65535, 65535, 65535, 65535, 65535, 65535, 65535],-1,-1,-1,100,0,0,[0, 0, 0, 0],0,0,HEARTBEAT,6,8,0,0,0,3
4.029897212982178,23.3515625,VFR_HUD,0.0,0.02824532799422741,58,0,-2.3999998569488525,-0.0039045587182044983,,,,,,,,,,,,,,,,AHRS,0.0068717882968485355,0.0006641904474236071,-0.0022358736023306847,0.0,0.0,0.0005896600778214633,0.0025119225028902292,GPS_RAW_INT,0,1,0,0,-17000,9999,9999,0,0,0,0,4294967295,4294967295,1000000,0,0,RC_CHANNELS,6902536,16,1502,1499,1004,1501,1000,1000,1501,1500,0,0,0,0,0,0,0,0,0,0,0,MISSION_CURRENT,0,SYS_STATUS,52485167,52461615,53510447,34,0,-1,-1,0,0,0,0,0,0,GLOBAL_POSITION_INT,6902536,0,0,-2400,-2404,1,2,0,5860,RAW_IMU,2607569429,21,11,-991,-6,-1,2,270,-451,248,0,4332,BATTERY_STATUS,0,0,0,32767,[65535, 65535, 65535, 65535, 65535, 65535, 65535, 65535, 65535, 65535],-1,-1,-1,100,0,0,[0, 0, 0, 0],0,0,HEARTBEAT,6,8,0,0,0,3
