Time (s),TMP117 Temp (C),SHTC3 Temp (C),SHTC Humidity (%),Micro Pressure (psi),BME280 Temp (C),BME280 Press. (Pa),BME280 Humidity (%),BME280 Altitude (m),CCS811 tVOC (ppb),CCS811 CO2 (ppm),mavpackettype,airspeed,groundspeed,heading,throttle,alt,climb,mavpackettype,time_boot_ms,coordinate_frame,type_mask,lat_int,lon_int,alt,vx,vy,vz,afx,afy,afz,yaw,yaw_rate,mavpackettype,omegaIx,omegaIy,omegaIz,accel_weight,renorm_val,error_rp,error_yaw,mavpackettype,time_usec,fix_type,lat,lon,alt,eph,epv,vel,cog,satellites_visible,time (ms),mavpackettype,time_boot_ms,chancount,chan1_raw,chan2_raw,chan3_raw,chan4_raw,chan5_raw,chan6_raw,chan7_raw,chan8_raw,chan9_raw,chan10_raw,chan11_raw,chan12_raw,chan13_raw,chan14_raw,chan15_raw,chan16_raw,chan17_raw,chan18_raw,rssi,mavpackettype,seq,mavpackettype,nav_roll,nav_pitch,nav_bearing,target_bearing,wp_dist,alt_error,aspd_error,xtrack_error,time (ms),mavpackettype,onboard_control_sensors_present,onboard_control_sensors_enabled,onboard_control_sensors_health,load,voltage_battery,current_battery,battery_remaining,drop_rate_comm,errors_comm,errors_count1,errors_count2,errors_count3,errors_count4,mavpackettype,time_boot_ms,lat,lon,alt,relative_alt,vx,vy,vz,hdg,mavpackettype,time_usec,xacc,yacc,zacc,xgyro,ygyro,zgyro,xmag,ymag,zmag
10.660166501998901,24.5859375,26.379470825195312,43.072509765625,14.453125116415329,24.51376714301159,99837.91931874954,42.86948908290013,124.54856056251775,2,415,VFR_HUD,0.0,0.0,324,0,-2.4600000381469727,-0.0,POSITION_TARGET_GLOBAL_INT,14342208,0,65016,0,0,100.0,0.0,0.0,0.0,0.0,0.0,0.0,0.0,0.0,AHRS,0.0016861287876963615,0.0009986935183405876,-0.006989212706685066,0.0,0.0,0.0163018386811018,0.447329044342041,GPS_RAW_INT,0,0,0,0,0,65535,65535,0,0,0,RC_CHANNELS,14342208,16,1500,1500,0,1500,0,0,0,0,0,0,0,0,0,0,0,0,0,0,255,MISSION_CURRENT,0,NAV_CONTROLLER_OUTPUT,0.0,0.0,0,0,0,102.19999694824219,0.0,0.0,SYS_STATUS,325188639,272759823,17890319,31,0,-1,-1,0,0,0,0,0,0,GLOBAL_POSITION_INT,14342708,0,0,-2460,-2468,0,0,0,32428,RAW_IMU,14342208553,-966,-67,30,-1,0,6,-204,-245,48
10.744889259338379,24.5859375,26.312713623046875,43.06640625,14.453125116415329,24.520505603558945,99839.64328874857,42.86380063752596,124.40330450383952,2,415,VFR_HUD,0.0,0.0,324,0,-2.4600000381469727,-0.0,POSITION_TARGET_GLOBAL_INT,14342208,0,65016,0,0,100.0,0.0,0.0,0.0,0.0,0.0,0.0,0.0,0.0,AHRS,0.0016861287876963615,0.0009986935183405876,-0.006989212706685066,0.0,0.0,0.0163018386811018,0.447329044342041,GPS_RAW_INT,0,0,0,0,0,65535,65535,0,0,0,RC_CHANNELS,14342708,16,1500,1500,0,1500,0,0,0,0,0,0,0,0,0,0,0,0,0,0,255,MISSION_CURRENT,0,NAV_CONTROLLER_OUTPUT,0.0,0.0,0,0,0,102.19999694824219,0.0,0.0,SYS_STATUS,325188639,272759823,17890319,31,0,-1,-1,0,0,0,0,0,0,GLOBAL_POSITION_INT,14342708,0,0,-2460,-2468,0,0,0,32428,RAW_IMU,14342208553,-966,-67,30,-1,0,6,-204,-245,48
10.744889259338379,24.5859375,26.312713623046875,43.06640625,14.453125116415329,24.520505603558945,99839.64328874857,42.86380063752596,124.40330450383952,2,415,VFR_HUD,0.0,0.0,324,0,-2.4600000381469727,-0.0,POSITION_TARGET_GLOBAL_INT,14342208,0,65016,0,0,100.0,0.0,0.0,0.0,0.0,0.0,0.0,0.0,0.0,AHRS,0.0016861287876963615,0.0009986935183405876,-0.006989212706685066,0.0,0.0,0.0163018386811018,0.447329044342041,GPS_RAW_INT,0,0,0,0,0,65535,65535,0,0,0,RC_CHANNELS,14342708,16,1500,1500,0,1500,0,0,0,0,0,0,0,0,0,0,0,0,0,0,255,MISSION_CURRENT,0,NAV_CONTROLLER_OUTPUT,0.0,0.0,0,0,0,102.19999694824219,0.0,0.0,SYS_STATUS,325188639,272759823,17890319,31,0,-1,-1,0,0,0,0,0,0,GLOBAL_POSITION_INT,14342708,0,0,-2460,-2468,0,0,0,32428,RAW_IMU,14342708584,-968,-67,31,-2,-1,5,-184,-232,52
10.832066774368286,24.5859375,26.347427368164062,43.1304931640625,14.453125116415329,24.520505603558945,99841.66310189769,42.840871949927596,124.23312425504417,2,415,VFR_HUD,0.0,0.0,324,0,-2.4600000381469727,-0.0,POSITION_TARGET_GLOBAL_INT,14342208,0,65016,0,0,100.0,0.0,0.0,0.0,0.0,0.0,0.0,0.0,0.0,AHRS,0.0016861287876963615,0.0009986935183405876,-0.006989212706685066,0.0,0.0,0.0163018386811018,0.447329044342041,GPS_RAW_INT,0,0,0,0,0,65535,65535,0,0,0,RC_CHANNELS,14342708,16,1500,1500,0,1500,0,0,0,0,0,0,0,0,0,0,0,0,0,0,255,MISSION_CURRENT,0,NAV_CONTROLLER_OUTPUT,0.0,0.0,0,0,0,102.19999694824219,0.0,0.0,SYS_STATUS,325188639,272759823,17890319,31,0,-1,-1,0,0,0,0,0,0,GLOBAL_POSITION_INT,14342708,0,0,-2460,-2468,0,0,0,32428,RAW_IMU,14342708584,-968,-67,31,-2,-1,5,-184,-232,52
10.832066774368286,24.5859375,26.347427368164062,43.1304931640625,14.453125116415329,24.520505603558945,99841.66310189769,42.840871949927596,124.23312425504417,2,415,VFR_HUD,0.0,0.0,324,0,-2.4600000381469727,-0.0,POSITION_TARGET_GLOBAL_INT,14342208,0,65016,0,0,100.0,0.0,0.0,0.0,0.0,0.0,0.0,0.0,0.0,AHRS,0.0016861287876963615,0.0009986935183405876,-0.006989212706685066,0.0,0.0,0.016444358974695206,0.4539923071861267,GPS_RAW_INT,0,0,0,0,0,65535,65535,0,0,0,RC_CHANNELS,14342708,16,1500,1500,0,1500,0,0,0,0,0,0,0,0,0,0,0,0,0,0,255,MISSION_CURRENT,0,NAV_CONTROLLER_OUTPUT,0.0,0.0,0,0,0,102.19999694824219,0.0,0.0,SYS_STATUS,325188639,272759823,17890319,31,0,-1,-1,0,0,0,0,0,0,GLOBAL_POSITION_INT,14342708,0,0,-2460,-2468,0,0,0,32428,RAW_IMU,14342708584,-968,-67,31,-2,-1,5,-184,-232,52
10.920166015625,24.578125,26.33941650390625,43.14422607421875,14.453125116415329,24.51793857091036,99841.66310189769,42.840871949927596,124.23312425504417,2,415,VFR_HUD,0.0,0.0,324,0,-2.4600000381469727,-0.0,POSITION_TARGET_GLOBAL_INT,14342708,0,65016,0,0,100.0,0.0,0.0,0.0,0.0,0.0,0.0,0.0,0.0,AHRS,0.0016861287876963615,0.0009986935183405876,-0.006989212706685066,0.0,0.0,0.016444358974695206,0.4539923071861267,GPS_RAW_INT,0,0,0,0,0,65535,65535,0,0,0,RC_CHANNELS,14342708,16,1500,1500,0,1500,0,0,0,0,0,0,0,0,0,0,0,0,0,0,255,MISSION_CURRENT,0,NAV_CONTROLLER_OUTPUT,0.0,0.0,0,0,0,102.19999694824219,0.0,0.0,SYS_STATUS,325188639,272759823,17890319,31,0,-1,-1,0,0,0,0,0,0,GLOBAL_POSITION_INT,14342708,0,0,-2460,-2468,0,0,0,32428,RAW_IMU,14342708584,-968,-67,31,-2,-1,5,-184,-232,52
11.00573182106018,24.578125,26.336746215820312,43.12591552734375,14.453125116415329,24.525960548178773,99842.37719725822,42.961215323487586,124.17295850210805,0,400,VFR_HUD,0.0,0.0,324,0,-2.4600000381469727,-0.0,POSITION_TARGET_GLOBAL_INT,14342708,0,65016,0,0,100.0,0.0,0.0,0.0,0.0,0.0,0.0,0.0,0.0,AHRS,0.0016861287876963615,0.0009986935183405876,-0.006989212706685066,0.0,0.0,0.016444358974695206,0.4539923071861267,GPS_RAW_INT,0,0,0,0,0,65535,65535,0,0,0,RC_CHANNELS,14342708,16,1500,1500,0,1500,0,0,0,0,0,0,0,0,0,0,0,0,0,0,255,MISSION_CURRENT,0,NAV_CONTROLLER_OUTPUT,0.0,0.0,0,0,0,102.19999694824219,0.0,0.0,SYS_STATUS,325188639,272759823,17890319,31,0,-1,-1,0,0,0,0,0,0,GLOBAL_POSITION_INT,14343208,0,0,-2330,-2339,0,0,0,32422,RAW_IMU,14342708584,-968,-67,31,-2,-1,5,-184,-232,52
11.00573182106018,24.578125,26.336746215820312,43.12591552734375,14.453125116415329,24.525960548178773,99842.37719725822,42.961215323487586,124.17295850210805,0,400,VFR_HUD,0.0,0.0,324,0,-2.4600000381469727,-0.0,POSITION_TARGET_GLOBAL_INT,14342708,0,65016,0,0,100.0,0.0,0.0,0.0,0.0,0.0,0.0,0.0,0.0,AHRS,0.0016861287876963615,0.0009986935183405876,-0.006989212706685066,0.0,0.0,0.016444358974695206,0.4539923071861267,GPS_RAW_INT,0,0,0,0,0,65535,65535,0,0,0,RC_CHANNELS,14342708,16,1500,1500,0,1500,0,0,0,0,0,0,0,0,0,0,0,0,0,0,255,MISSION_CURRENT,0,NAV_CONTROLLER_OUTPUT,0.0,0.0,0,0,0,102.19999694824219,0.0,0.0,SYS_STATUS,325188639,272759823,17890319,29,0,-1,-1,0,0,0,0,0,0,GLOBAL_POSITION_INT,14343208,0,0,-2330,-2339,0,0,0,32422,RAW_IMU,14342708584,-968,-67,31,-2,-1,5,-184,-232,52
11.095683097839355,24.578125,26.326065063476562,43.10302734375,14.453125116415329,24.53751219669357,99839.49494546947,42.846715271294606,124.41580334221673,0,400,VFR_HUD,0.0,0.0,324,0,-2.4600000381469727,-0.0,POSITION_TARGET_GLOBAL_INT,14342708,0,65016,0,0,100.0,0.0,0.0,0.0,0.0,0.0,0.0,0.0,0.0,AHRS,0.0016861287876963615,0.0009986935183405876,-0.006989212706685066,0.0,0.0,0.016444358974695206,0.4539923071861267,GPS_RAW_INT,0,0,0,0,0,65535,65535,0,0,0,RC_CHANNELS,14342708,16,1500,1500,0,1500,0,0,0,0,0,0,0,0,0,0,0,0,0,0,255,MISSION_CURRENT,0,NAV_CONTROLLER_OUTPUT,0.0,0.0,0,0,0,102.38999938964844,0.0,0.0,SYS_STATUS,325188639,272759823,17890319,29,0,-1,-1,0,0,0,0,0,0,GLOBAL_POSITION_INT,14343208,0,0,-2330,-2339,0,0,0,32422,RAW_IMU,14342708584,-968,-67,31,-2,-1,5,-184,-232,52
11.095683097839355,24.578125,26.326065063476562,43.10302734375,14.453125116415329,24.53751219669357,99839.49494546947,42.846715271294606,124.41580334221673,0,400,VFR_HUD,0.0,0.0,324,0,-2.4600000381469727,-0.0,POSITION_TARGET_GLOBAL_INT,14342708,0,65016,0,0,100.0,0.0,0.0,0.0,0.0,0.0,0.0,0.0,0.0,AHRS,0.0016861287876963615,0.0009986935183405876,-0.006989212706685066,0.0,0.0,0.016444358974695206,0.4539923071861267,GPS_RAW_INT,0,0,0,0,0,65535,65535,0,0,0,RC_CHANNELS,14342708,16,1500,1500,0,1500,0,0,0,0,0,0,0,0,0,0,0,0,0,0,255,MISSION_CURRENT,0,NAV_CONTROLLER_OUTPUT,0.0,0.0,0,0,0,102.38999938964844,0.0,0.0,SYS_STATUS,325188639,272759823,17890319,29,0,-1,-1,0,0,0,0,0,0,GLOBAL_POSITION_INT,14343208,0,0,-2330,-2339,0,0,0,32422,RAW_IMU,14342708584,-968,-67,31,-2,-1,5,-184,-232,52
11.182833909988403,24.578125,26.33941650390625,43.12286376953125,14.453125116415329,24.520184724473893,99837.35261045289,42.82369979969765,124.59630998871742,0,400,VFR_HUD,0.0,0.0,324,0,-2.3299999237060547,-0.0,POSITION_TARGET_GLOBAL_INT,14342708,0,65016,0,0,100.0,0.0,0.0,0.0,0.0,0.0,0.0,0.0,0.0,AHRS,0.0016861287876963615,0.0009986935183405876,-0.006989212706685066,0.0,0.0,0.016444358974695206,0.4539923071861267,GPS_RAW_INT,0,0,0,0,0,65535,65535,0,0,0,RC_CHANNELS,14342708,16,1500,1500,0,1500,0,0,0,0,0,0,0,0,0,0,0,0,0,0,255,MISSION_CURRENT,0,NAV_CONTROLLER_OUTPUT,0.0,0.0,0,0,0,102.38999938964844,0.0,0.0,SYS_STATUS,325188639,272759823,17890319,29,0,-1,-1,0,0,0,0,0,0,GLOBAL_POSITION_INT,14343208,0,0,-2330,-2339,0,0,0,32422,RAW_IMU,14342708584,-968,-67,31,-2,-1,5,-184,-232,52
11.182833909988403,24.578125,26.33941650390625,43.12286376953125,14.453125116415329,24.520184724473893,99837.35261045289,42.82369979969765,124.59630998871742,0,400,VFR_HUD,0.0,0.0,324,0,-2.3299999237060547,-0.0,POSITION_TARGET_GLOBAL_INT,14342708,0,65016,0,0,100.0,0.0,0.0,0.0,0.0,0.0,0.0,0.0,0.0,AHRS,0.0016861287876963615,0.0009986935183405876,-0.006989212706685066,0.0,0.0,0.016444358974695206,0.4539923071861267,GPS_RAW_INT,0,0,0,0,0,65535,65535,0,0,0,RC_CHANNELS,14343208,16,1500,1500,0,1500,0,0,0,0,0,0,0,0,0,0,0,0,0,0,255,MISSION_CURRENT,0,NAV_CONTROLLER_OUTPUT,0.0,0.0,0,0,0,102.38999938964844,0.0,0.0,SYS_STATUS,325188639,272759823,17890319,29,0,-1,-1,0,0,0,0,0,0,GLOBAL_POSITION_INT,14343208,0,0,-2330,-2339,0,0,0,32422,RAW_IMU,14342708584,-968,-67,31,-2,-1,5,-184,-232,52
11.274186611175537,24.578125,26.336746215820312,43.0877685546875,14.453125116415329,24.53077373488088,99839.15033984021,42.86958984961563,124.44483855499361,0,400,VFR_HUD,0.0,0.0,324,0,-2.3299999237060547,-0.0,POSITION_TARGET_GLOBAL_INT,14342708,0,65016,0,0,100.0,0.0,0.0,0.0,0.0,0.0,0.0,0.0,0.0,AHRS,0.0016861287876963615,0.0009986935183405876,-0.006989212706685066,0.0,0.0,0.016444358974695206,0.4539923071861267,GPS_RAW_INT,0,0,0,0,0,65535,65535,0,0,0,RC_CHANNELS,14343208,16,1500,1500,0,1500,0,0,0,0,0,0,0,0,0,0,0,0,0,0,255,MISSION_CURRENT,0,NAV_CONTROLLER_OUTPUT,0.0,0.0,0,0,0,102.38999938964844,0.0,0.0,SYS_STATUS,325188639,272759823,17890319,29,0,-1,-1,0,0,0,0,0,0,GLOBAL_POSITION_INT,14343208,0,0,-2330,-2339,0,0,0,32422,RAW_IMU,14343208482,-967,-68,30,-2,0,6,-192,-228,54
11.36665940284729,24.578125,26.336746215820312,43.11065673828125,14.453125116415329,24.516334175541942,99839.69266804685,42.858047626387936,124.3991439960168,0,400,VFR_HUD,0.0,0.0,324,0,-2.3299999237060547,-0.0,POSITION_TARGET_GLOBAL_INT,14342708,0,65016,0,0,100.0,0.0,0.0,0.0,0.0,0.0,0.0,0.0,0.0,AHRS,0.0016861287876963615,0.0009986935183405876,-0.006989212706685066,0.0,0.0,0.016444358974695206,0.4539923071861267,GPS_RAW_INT,0,0,0,0,0,65535,65535,0,0,0,RC_CHANNELS,14343208,16,1500,1500,0,1500,0,0,0,0,0,0,0,0,0,0,0,0,0,0,255,MISSION_CURRENT,0,NAV_CONTROLLER_OUTPUT,0.0,0.0,0,0,0,102.38999938964844,0.0,0.0,SYS_STATUS,325188639,272759823,17890319,29,0,-1,-1,0,0,0,0,0,0,GLOBAL_POSITION_INT,14343208,0,0,-2330,-2339,0,0,0,32422,RAW_IMU,14343208482,-967,-68,30,-2,0,6,-192,-228,54
11.36665940284729,24.578125,26.336746215820312,43.11065673828125,14.453125116415329,24.516334175541942,99839.69266804685,42.858047626387936,124.3991439960168,0,400,VFR_HUD,0.0,0.0,324,0,-2.3299999237060547,-0.0,POSITION_TARGET_GLOBAL_INT,14342708,0,65016,0,0,100.0,0.0,0.0,0.0,0.0,0.0,0.0,0.0,0.0,AHRS,0.001709036179818213,0.0009998097084462643,-0.006992820184677839,0.0,0.0,0.016603603959083557,0.4634586572647095,GPS_RAW_INT,0,0,0,0,0,65535,65535,0,0,0,RC_CHANNELS,14343208,16,1500,1500,0,1500,0,0,0,0,0,0,0,0,0,0,0,0,0,0,255,MISSION_CURRENT,0,NAV_CONTROLLER_OUTPUT,0.0,0.0,0,0,0,102.38999938964844,0.0,0.0,SYS_STATUS,325188639,272759823,17890319,29,0,-1,-1,0,0,0,0,0,0,GLOBAL_POSITION_INT,14343208,0,0,-2330,-2339,0,0,0,32422,RAW_IMU,14343208482,-967,-68,30,-2,0,6,-192,-228,54
11.45205807685852,24.578125,26.368789672851562,43.10150146484375,14.453125116415329,24.530131976639154,99840.08635630996,42.85812902136774,124.36597341212193,0,400,VFR_HUD,0.0,0.0,324,0,-2.3299999237060547,-0.0,POSITION_TARGET_GLOBAL_INT,14343208,0,65016,0,0,100.0,0.0,0.0,0.0,0.0,0.0,0.0,0.0,0.0,AHRS,0.001709036179818213,0.0009998097084462643,-0.006992820184677839,0.0,0.0,0.016603603959083557,0.4634586572647095,GPS_RAW_INT,0,0,0,0,0,65535,65535,0,0,0,RC_CHANNELS,14343208,16,1500,1500,0,1500,0,0,0,0,0,0,0,0,0,0,0,0,0,0,255,MISSION_CURRENT,0,NAV_CONTROLLER_OUTPUT,0.0,0.0,0,0,0,102.38999938964844,0.0,0.0,SYS_STATUS,325188639,272759823,17890319,29,0,-1,-1,0,0,0,0,0,0,GLOBAL_POSITION_INT,14343208,0,0,-2330,-2339,0,0,0,32422,RAW_IMU,14343208482,-967,-68,30,-2,0,6,-192,-228,54
11.45205807685852,24.578125,26.368789672851562,43.10150146484375,14.453125116415329,24.530131976639154,99840.08635630996,42.85812902136774,124.36597341212193,0,400,VFR_HUD,0.0,0.0,324,0,-2.3299999237060547,-0.0,POSITION_TARGET_GLOBAL_INT,14343208,0,65016,0,0,100.0,0.0,0.0,0.0,0.0,0.0,0.0,0.0,0.0,AHRS,0.001709036179818213,0.0009998097084462643,-0.006992820184677839,0.0,0.0,0.016603603959083557,0.4634586572647095,GPS_RAW_INT,0,0,0,0,0,65535,65535,0,0,0,RC_CHANNELS,14343208,16,1500,1500,0,1500,0,0,0,0,0,0,0,0,0,0,0,0,0,0,255,MISSION_CURRENT,0,NAV_CONTROLLER_OUTPUT,0.0,0.0,0,0,0,102.38999938964844,0.0,0.0,SYS_STATUS,325188639,272759823,17890319,29,0,-1,-1,0,0,0,0,0,0,GLOBAL_POSITION_INT,14343208,0,0,-2330,-2339,0,0,0,32422,RAW_IMU,14343208482,-967,-68,30,-2,0,6,-192,-228,54
11.538294553756714,24.578125,26.36077880859375,43.10760498046875,14.453125116415329,24.530131976639154,99841.63813751988,42.846671955033,124.23522762270764,0,400,VFR_HUD,0.0,0.0,324,0,-2.3299999237060547,-0.0,POSITION_TARGET_GLOBAL_INT,14343208,0,65016,0,0,100.0,0.0,0.0,0.0,0.0,0.0,0.0,0.0,0.0,AHRS,0.001709036179818213,0.0009998097084462643,-0.006992820184677839,0.0,0.0,0.016603603959083557,0.4634586572647095,GPS_RAW_INT,0,0,0,0,0,65535,65535,0,0,0,RC_CHANNELS,14343208,16,1500,1500,0,1500,0,0,0,0,0,0,0,0,0,0,0,0,0,0,255,MISSION_CURRENT,0,NAV_CONTROLLER_OUTPUT,0.0,0.0,0,0,0,102.38999938964844,0.0,0.0,SYS_STATUS,325188639,272759823,17890319,29,0,-1,-1,0,0,0,0,0,0,GLOBAL_POSITION_INT,14343708,0,0,-2410,-2419,0,0,0,32415,RAW_IMU,14343208482,-967,-68,30,-2,0,6,-192,-228,54
11.62517523765564,24.5703125,26.331405639648438,43.13201904296875,14.453125116415329,24.518259449987454,99840.67785427002,42.8294170115257,124.31613638073182,0,400,VFR_HUD,0.0,0.0,324,0,-2.3299999237060547,-0.0,POSITION_TARGET_GLOBAL_INT,14343208,0,65016,0,0,100.0,0.0,0.0,0.0,0.0,0.0,0.0,0.0,0.0,AHRS,0.001709036179818213,0.0009998097084462643,-0.006992820184677839,0.0,0.0,0.016603603959083557,0.4634586572647095,GPS_RAW_INT,0,0,0,0,0,65535,65535,0,0,0,RC_CHANNELS,14343208,16,1500,1500,0,1500,0,0,0,0,0,0,0,0,0,0,0,0,0,0,255,MISSION_CURRENT,0,NAV_CONTROLLER_OUTPUT,0.0,0.0,0,0,0,102.38999938964844,0.0,0.0,SYS_STATUS,325188639,272759823,17890319,30,0,-1,-1,0,0,0,0,0,0,GLOBAL_POSITION_INT,14343708,0,0,-2410,-2419,0,0,0,32415,RAW_IMU,14343208482,-967,-68,30,-2,0,6,-192,-228,54
11.62517523765564,24.5703125,26.331405639648438,43.13201904296875,14.453125116415329,24.518259449987454,99840.67785427002,42.8294170115257,124.31613638073182,0,400,VFR_HUD,0.0,0.0,324,0,-2.3299999237060547,-0.0,POSITION_TARGET_GLOBAL_INT,14343208,0,65016,0,0,100.0,0.0,0.0,0.0,0.0,0.0,0.0,0.0,0.0,AHRS,0.001709036179818213,0.0009998097084462643,-0.006992820184677839,0.0,0.0,0.016603603959083557,0.4634586572647095,GPS_RAW_INT,0,0,0,0,0,65535,65535,0,0,0,RC_CHANNELS,14343208,16,1500,1500,0,1500,0,0,0,0,0,0,0,0,0,0,0,0,0,0,255,MISSION_CURRENT,0,NAV_CONTROLLER_OUTPUT,0.0,0.0,0,0,0,102.66000366210938,0.0,0.0,SYS_STATUS,325188639,272759823,17890319,30,0,-1,-1,0,0,0,0,0,0,GLOBAL_POSITION_INT,14343708,0,0,-2410,-2419,0,0,0,32415,RAW_IMU,14343208482,-967,-68,30,-2,0,6,-192,-228,54
11.71316146850586,24.5703125,26.336746215820312,43.13812255859375,14.453125116415329,24.517617691834403,99842.6483487314,42.88096857659067,124.15011285953771,0,400,VFR_HUD,0.0,0.0,324,0,-2.3299999237060547,-0.0,POSITION_TARGET_GLOBAL_INT,14343208,0,65016,0,0,100.0,0.0,0.0,0.0,0.0,0.0,0.0,0.0,0.0,AHRS,0.001709036179818213,0.0009998097084462643,-0.006992820184677839,0.0,0.0,0.016603603959083557,0.4634586572647095,GPS_RAW_INT,0,0,0,0,0,65535,65535,0,0,0,RC_CHANNELS,14343208,16,1500,1500,0,1500,0,0,0,0,0,0,0,0,0,0,0,0,0,0,255,MISSION_CURRENT,0,NAV_CONTROLLER_OUTPUT,0.0,0.0,0,0,0,102.66000366210938,0.0,0.0,SYS_STATUS,325188639,272759823,17890319,30,0,-1,-1,0,0,0,0,0,0,GLOBAL_POSITION_INT,14343708,0,0,-2410,-2419,0,0,0,32415,RAW_IMU,14343208482,-967,-68,30,-2,0,6,-192,-228,54
11.71316146850586,24.5703125,26.336746215820312,43.13812255859375,14.453125116415329,24.517617691834403,99842.6483487314,42.88096857659067,124.15011285953771,0,400,VFR_HUD,0.0,0.0,324,0,-2.4099998474121094,-0.0,POSITION_TARGET_GLOBAL_INT,14343208,0,65016,0,0,100.0,0.0,0.0,0.0,0.0,0.0,0.0,0.0,0.0,AHRS,0.001709036179818213,0.0009998097084462643,-0.006992820184677839,0.0,0.0,0.016603603959083557,0.4634586572647095,GPS_RAW_INT,0,0,0,0,0,65535,65535,0,0,0,RC_CHANNELS,14343208,16,1500,1500,0,1500,0,0,0,0,0,0,0,0,0,0,0,0,0,0,255,MISSION_CURRENT,0,NAV_CONTROLLER_OUTPUT,0.0,0.0,0,0,0,102.66000366210938,0.0,0.0,SYS_STATUS,325188639,272759823,17890319,30,0,-1,-1,0,0,0,0,0,0,GLOBAL_POSITION_INT,14343708,0,0,-2410,-2419,0,0,0,32415,RAW_IMU,14343208482,-967,-68,30,-2,0,6,-192,-228,54
11.800350904464722,24.578125,26.326065063476562,43.121337890625,14.453125116415329,24.517617691834403,99842.6483487314,42.88096857659067,124.15011285953771,0,400,VFR_HUD,0.0,0.0,324,0,-2.4099998474121094,-0.0,POSITION_TARGET_GLOBAL_INT,14343208,0,65016,0,0,100.0,0.0,0.0,0.0,0.0,0.0,0.0,0.0,0.0,AHRS,0.001709036179818213,0.0009998097084462643,-0.006992820184677839,0.0,0.0,0.016603603959083557,0.4634586572647095,GPS_RAW_INT,0,0,0,0,0,65535,65535,0,0,0,RC_CHANNELS,14343708,16,1500,1500,0,1500,0,0,0,0,0,0,0,0,0,0,0,0,0,0,255,MISSION_CURRENT,0,NAV_CONTROLLER_OUTPUT,0.0,0.0,0,0,0,102.66000366210938,0.0,0.0,SYS_STATUS,325188639,272759823,17890319,30,0,-1,-1,0,0,0,0,0,0,GLOBAL_POSITION_INT,14343708,0,0,-2410,-2419,0,0,0,32415,RAW_IMU,14343208482,-967,-68,30,-2,0,6,-192,-228,54
11.800350904464722,24.578125,26.326065063476562,43.121337890625,14.453125116415329,24.517617691834403,99842.6483487314,42.88096857659067,124.15011285953771,0,400,VFR_HUD,0.0,0.0,324,0,-2.4099998474121094,-0.0,POSITION_TARGET_GLOBAL_INT,14343208,0,65016,0,0,100.0,0.0,0.0,0.0,0.0,0.0,0.0,0.0,0.0,AHRS,0.001709036179818213,0.0009998097084462643,-0.006992820184677839,0.0,0.0,0.016603603959083557,0.4634586572647095,GPS_RAW_INT,0,0,0,0,0,65535,65535,0,0,0,RC_CHANNELS,14343708,16,1500,1500,0,1500,0,0,0,0,0,0,0,0,0,0,0,0,0,0,255,MISSION_CURRENT,0,NAV_CONTROLLER_OUTPUT,0.0,0.0,0,0,0,102.66000366210938,0.0,0.0,SYS_STATUS,325188639,272759823,17890319,30,0,-1,-1,0,0,0,0,0,0,GLOBAL_POSITION_INT,14343708,0,0,-2410,-2419,0,0,0,32415,RAW_IMU,14343708655,-968,-67,31,-1,-1,7,-171,-217,54
11.887433290481567,24.578125,26.347427368164062,43.08929443359375,14.453125116415329,24.529490218401975,99842.2293108976,42.86385374774904,124.18541856598506,0,400,VFR_HUD,0.0,0.0,324,0,-2.4099998474121094,-0.0,POSITION_TARGET_GLOBAL_INT,14343208,0,65016,0,0,100.0,0.0,0.0,0.0,0.0,0.0,0.0,0.0,0.0,AHRS,0.001709036179818213,0.0009998097084462643,-0.006992820184677839,0.0,0.0,0.016603603959083557,0.4634586572647095,GPS_RAW_INT,0,0,0,0,0,65535,65535,0,0,0,RC_CHANNELS,14343708,16,1500,1500,0,1500,0,0,0,0,0,0,0,0,0,0,0,0,0,0,255,MISSION_CURRENT,0,NAV_CONTROLLER_OUTPUT,0.0,0.0,0,0,0,102.66000366210938,0.0,0.0,SYS_STATUS,325188639,272759823,17890319,30,0,-1,-1,0,0,0,0,0,0,GLOBAL_POSITION_INT,14343708,0,0,-2410,-2419,0,0,0,32415,RAW_IMU,14343708655,-968,-67,31,-1,-1,7,-171,-217,54
11.887433290481567,24.578125,26.347427368164062,43.08929443359375,14.453125116415329,24.529490218401975,99842.2293108976,42.86385374774904,124.18541856598506,0,400,VFR_HUD,0.0,0.0,324,0,-2.4099998474121094,-0.0,POSITION_TARGET_GLOBAL_INT,14343208,0,65016,0,0,100.0,0.0,0.0,0.0,0.0,0.0,0.0,0.0,0.0,AHRS,0.001709036179818213,0.0009998097084462643,-0.006992820184677839,0.0,0.0,0.016548749059438705,0.4779345691204071,GPS_RAW_INT,0,0,0,0,0,65535,65535,0,0,0,RC_CHANNELS,14343708,16,1500,1500,0,1500,0,0,0,0,0,0,0,0,0,0,0,0,0,0,255,MISSION_CURRENT,0,NAV_CONTROLLER_OUTPUT,0.0,0.0,0,0,0,102.66000366210938,0.0,0.0,SYS_STATUS,325188639,272759823,17890319,30,0,-1,-1,0,0,0,0,0,0,GLOBAL_POSITION_INT,14343708,0,0,-2410,-2419,0,0,0,32415,RAW_IMU,14343708655,-968,-67,31,-1,-1,7,-171,-217,54
12.002904415130615,24.578125,26.331405639648438,43.13201904296875,14.453125116415329,24.523714394471995,99840.82549092987,42.86954803599936,124.30369719870207,0,405,VFR_HUD,0.0,0.0,324,0,-2.4099998474121094,-0.0,POSITION_TARGET_GLOBAL_INT,14343708,0,65016,0,0,100.0,0.0,0.0,0.0,0.0,0.0,0.0,0.0,0.0,AHRS,0.001709036179818213,0.0009998097084462643,-0.006992820184677839,0.0,0.0,0.016548749059438705,0.4779345691204071,GPS_RAW_INT,0,0,0,0,0,65535,65535,0,0,0,RC_CHANNELS,14343708,16,1500,1500,0,1500,0,0,0,0,0,0,0,0,0,0,0,0,0,0,255,MISSION_CURRENT,0,NAV_CONTROLLER_OUTPUT,0.0,0.0,0,0,0,102.66000366210938,0.0,0.0,SYS_STATUS,325188639,272759823,17890319,30,0,-1,-1,0,0,0,0,0,0,GLOBAL_POSITION_INT,14343708,0,0,-2410,-2419,0,0,0,32415,RAW_IMU,14343708655,-968,-67,31,-1,-1,7,-171,-217,54
12.002904415130615,24.578125,26.331405639648438,43.13201904296875,14.453125116415329,24.523714394471995,99840.82549092987,42.86954803599936,124.30369719870207,0,405,VFR_HUD,0.0,0.0,324,0,-2.4099998474121094,-0.0,POSITION_TARGET_GLOBAL_INT,14343708,0,65016,0,0,100.0,0.0,0.0,0.0,0.0,0.0,0.0,0.0,0.0,AHRS,0.001709036179818213,0.0009998097084462643,-0.006992820184677839,0.0,0.0,0.016548749059438705,0.4779345691204071,GPS_RAW_INT,0,0,0,0,0,65535,65535,0,0,0,RC_CHANNELS,14343708,16,1500,1500,0,1500,0,0,0,0,0,0,0,0,0,0,0,0,0,0,255,MISSION_CURRENT,0,NAV_CONTROLLER_OUTPUT,0.0,0.0,0,0,0,102.66000366210938,0.0,0.0,SYS_STATUS,325188639,272759823,17890319,30,0,-1,-1,0,0,0,0,0,0,GLOBAL_POSITION_INT,14344208,0,0,-2500,-2505,0,0,0,32407,RAW_IMU,14343708655,-968,-67,31,-1,-1,7,-171,-217,54
12.099199533462524,24.578125,26.33941650390625,43.11065673828125,14.453125116415329,24.523714394471995,99840.82549092987,42.86954803599936,124.30369719870207,0,405,VFR_HUD,0.0,0.0,324,0,-2.4099998474121094,-0.0,POSITION_TARGET_GLOBAL_INT,14343708,0,65016,0,0,100.0,0.0,0.0,0.0,0.0,0.0,0.0,0.0,0.0,AHRS,0.001709036179818213,0.0009998097084462643,-0.006992820184677839,0.0,0.0,0.016548749059438705,0.4779345691204071,GPS_RAW_INT,0,0,0,0,0,65535,65535,0,0,0,RC_CHANNELS,14343708,16,1500,1500,0,1500,0,0,0,0,0,0,0,0,0,0,0,0,0,0,255,MISSION_CURRENT,0,NAV_CONTROLLER_OUTPUT,0.0,0.0,0,0,0,102.66000366210938,0.0,0.0,SYS_STATUS,325188639,272759823,17890319,28,0,-1,-1,0,0,0,0,0,0,GLOBAL_POSITION_INT,14344208,0,0,-2500,-2505,0,0,0,32407,RAW_IMU,14343708655,-968,-67,31,-1,-1,7,-171,-217,54
12.18505048751831,24.578125,26.379470825195312,43.10760498046875,14.453125116415329,24.5195429663072,99841.21970281673,42.858066562264476,124.27048280160301,0,405,VFR_HUD,0.0,0.0,324,0,-2.4099998474121094,-0.0,POSITION_TARGET_GLOBAL_INT,14343708,0,65016,0,0,100.0,0.0,0.0,0.0,0.0,0.0,0.0,0.0,0.0,AHRS,0.001709036179818213,0.0009998097084462643,-0.006992820184677839,0.0,0.0,0.016548749059438705,0.4779345691204071,GPS_RAW_INT,0,0,0,0,0,65535,65535,0,0,0,RC_CHANNELS,14343708,16,1500,1500,0,1500,0,0,0,0,0,0,0,0,0,0,0,0,0,0,255,MISSION_CURRENT,0,NAV_CONTROLLER_OUTPUT,0.0,0.0,0,0,0,102.63999938964844,0.0,0.0,SYS_STATUS,325188639,272759823,17890319,28,0,-1,-1,0,0,0,0,0,0,GLOBAL_POSITION_INT,14344208,0,0,-2500,-2505,0,0,0,32407,RAW_IMU,14343708655,-968,-67,31,-1,-1,7,-171,-217,54
12.18505048751831,24.578125,26.379470825195312,43.10760498046875,14.453125116415329,24.5195429663072,99841.21970281673,42.858066562264476,124.27048280160301,0,405,VFR_HUD,0.0,0.0,324,0,-2.4099998474121094,-0.0,POSITION_TARGET_GLOBAL_INT,14343708,0,65016,0,0,100.0,0.0,0.0,0.0,0.0,0.0,0.0,0.0,0.0,AHRS,0.001709036179818213,0.0009998097084462643,-0.006992820184677839,0.0,0.0,0.016548749059438705,0.4779345691204071,GPS_RAW_INT,0,0,0,0,0,65535,65535,0,0,0,RC_CHANNELS,14343708,16,1500,1500,0,1500,0,0,0,0,0,0,0,0,0,0,0,0,0,0,255,MISSION_CURRENT,0,NAV_CONTROLLER_OUTPUT,0.0,0.0,0,0,0,102.63999938964844,0.0,0.0,SYS_STATUS,325188639,272759823,17890319,28,0,-1,-1,0,0,0,0,0,0,GLOBAL_POSITION_INT,14344208,0,0,-2500,-2505,0,0,0,32407,RAW_IMU,14343708655,-968,-67,31,-1,-1,7,-171,-217,54
12.271534442901611,24.578125,26.331405639648438,43.10150146484375,14.453125116415329,24.5352660427003,99843.6331430744,42.91544470084101,124.06714025118,0,405,VFR_HUD,0.0,0.0,324,0,-2.5,-0.0,POSITION_TARGET_GLOBAL_INT,14343708,0,65016,0,0,100.0,0.0,0.0,0.0,0.0,0.0,0.0,0.0,0.0,AHRS,0.001709036179818213,0.0009998097084462643,-0.006992820184677839,0.0,0.0,0.016548749059438705,0.4779345691204071,GPS_RAW_INT,0,0,0,0,0,65535,65535,0,0,0,RC_CHANNELS,14343708,16,1500,1500,0,1500,0,0,0,0,0,0,0,0,0,0,0,0,0,0,255,MISSION_CURRENT,0,NAV_CONTROLLER_OUTPUT,0.0,0.0,0,0,0,102.63999938964844,0.0,0.0,SYS_STATUS,325188639,272759823,17890319,28,0,-1,-1,0,0,0,0,0,0,GLOBAL_POSITION_INT,14344208,0,0,-2500,-2505,0,0,0,32407,RAW_IMU,14343708655,-968,-67,31,-1,-1,7,-171,-217,54
12.271534442901611,24.578125,26.331405639648438,43.10150146484375,14.453125116415329,24.5352660427003,99843.6331430744,42.91544470084101,124.06714025118,0,405,VFR_HUD,0.0,0.0,324,0,-2.5,-0.0,POSITION_TARGET_GLOBAL_INT,14343708,0,65016,0,0,100.0,0.0,0.0,0.0,0.0,0.0,0.0,0.0,0.0,AHRS,0.001709036179818213,0.0009998097084462643,-0.006992820184677839,0.0,0.0,0.016548749059438705,0.4779345691204071,GPS_RAW_INT,0,0,0,0,0,65535,65535,0,0,0,RC_CHANNELS,14344208,16,1500,1500,0,1500,0,0,0,0,0,0,0,0,0,0,0,0,0,0,255,MISSION_CURRENT,0,NAV_CONTROLLER_OUTPUT,0.0,0.0,0,0,0,102.63999938964844,0.0,0.0,SYS_STATUS,325188639,272759823,17890319,28,0,-1,-1,0,0,0,0,0,0,GLOBAL_POSITION_INT,14344208,0,0,-2500,-2505,0,0,0,32407,RAW_IMU,14343708655,-968,-67,31,-1,-1,7,-171,-217,54
12.358355045318604,24.578125,26.368789672851562,43.1304931640625,14.453125116415329,24.53462428442674,99843.18979202886,42.90398384672377,124.10449415371424,0,405,VFR_HUD,0.0,0.0,324,0,-2.5,-0.0,POSITION_TARGET_GLOBAL_INT,14343708,0,65016,0,0,100.0,0.0,0.0,0.0,0.0,0.0,0.0,0.0,0.0,AHRS,0.001709036179818213,0.0009998097084462643,-0.006992820184677839,0.0,0.0,0.016548749059438705,0.4779345691204071,GPS_RAW_INT,0,0,0,0,0,65535,65535,0,0,0,RC_CHANNELS,14344208,16,1500,1500,0,1500,0,0,0,0,0,0,0,0,0,0,0,0,0,0,255,MISSION_CURRENT,0,NAV_CONTROLLER_OUTPUT,0.0,0.0,0,0,0,102.63999938964844,0.0,0.0,SYS_STATUS,325188639,272759823,17890319,28,0,-1,-1,0,0,0,0,0,0,GLOBAL_POSITION_INT,14344208,0,0,-2500,-2505,0,0,0,32407,RAW_IMU,14344208422,-967,-67,30,-2,0,5,-194,-233,53
12.445127487182617,24.578125,26.36077880859375,43.04656982421875,14.453125116415329,24.53654955926106,99843.83015943985,42.829523704041236,124.05054096473293,0,405,VFR_HUD,0.0,0.0,324,0,-2.5,-0.0,POSITION_TARGET_GLOBAL_INT,14343708,0,65016,0,0,100.0,0.0,0.0,0.0,0.0,0.0,0.0,0.0,0.0,AHRS,0.001709036179818213,0.0009998097084462643,-0.006992820184677839,0.0,0.0,0.016548749059438705,0.4779345691204071,GPS_RAW_INT,0,0,0,0,0,65535,65535,0,0,0,RC_CHANNELS,14344208,16,1500,1500,0,1500,0,0,0,0,0,0,0,0,0,0,0,0,0,0,255,MISSION_CURRENT,0,NAV_CONTROLLER_OUTPUT,0.0,0.0,0,0,0,102.63999938964844,0.0,0.0,SYS_STATUS,325188639,272759823,17890319,28,0,-1,-1,0,0,0,0,0,0,GLOBAL_POSITION_INT,14344208,0,0,-2500,-2505,0,0,0,32407,RAW_IMU,14344208422,-967,-67,30,-2,0,5,-194,-233,53
12.445127487182617,24.578125,26.36077880859375,43.04656982421875,14.453125116415329,24.53654955926106,99843.83015943985,42.829523704041236,124.05054096473293,0,405,VFR_HUD,0.0,0.0,324,0,-2.5,-0.0,POSITION_TARGET_GLOBAL_INT,14343708,0,65016,0,0,100.0,0.0,0.0,0.0,0.0,0.0,0.0,0.0,0.0,AHRS,0.001709036179818213,0.0009998097084462643,-0.006992820184677839,0.0,0.0,0.01657211221754551,0.4683234393596649,GPS_RAW_INT,0,0,0,0,0,65535,65535,0,0,0,RC_CHANNELS,14344208,16,1500,1500,0,1500,0,0,0,0,0,0,0,0,0,0,0,0,0,0,255,MISSION_CURRENT,0,NAV_CONTROLLER_OUTPUT,0.0,0.0,0,0,0,102.63999938964844,0.0,0.0,SYS_STATUS,325188639,272759823,17890319,28,0,-1,-1,0,0,0,0,0,0,GLOBAL_POSITION_INT,14344208,0,0,-2500,-2505,0,0,0,32407,RAW_IMU,14344208422,-967,-67,30,-2,0,5,-194,-233,53
12.532181024551392,24.578125,26.331405639648438,43.10760498046875,14.453125116415329,24.525318789971152,99839.69240682054,42.858100636439275,124.39916600592859,0,405,VFR_HUD,0.0,0.0,324,0,-2.5,-0.0,POSITION_TARGET_GLOBAL_INT,14344208,0,65016,0,0,100.0,0.0,0.0,0.0,0.0,0.0,0.0,0.0,0.0,AHRS,0.001709036179818213,0.0009998097084462643,-0.006992820184677839,0.0,0.0,0.01657211221754551,0.4683234393596649,GPS_RAW_INT,0,0,0,0,0,65535,65535,0,0,0,RC_CHANNELS,14344208,16,1500,1500,0,1500,0,0,0,0,0,0,0,0,0,0,0,0,0,0,255,MISSION_CURRENT,0,NAV_CONTROLLER_OUTPUT,0.0,0.0,0,0,0,102.63999938964844,0.0,0.0,SYS_STATUS,325188639,272759823,17890319,28,0,-1,-1,0,0,0,0,0,0,GLOBAL_POSITION_INT,14344208,0,0,-2500,-2505,0,0,0,32407,RAW_IMU,14344208422,-967,-67,30,-2,0,5,-194,-233,53
12.532181024551392,24.578125,26.331405639648438,43.10760498046875,14.453125116415329,24.525318789971152,99839.69240682054,42.858100636439275,124.39916600592859,0,405,VFR_HUD,0.0,0.0,324,0,-2.5,-0.0,POSITION_TARGET_GLOBAL_INT,14344208,0,65016,0,0,100.0,0.0,0.0,0.0,0.0,0.0,0.0,0.0,0.0,AHRS,0.001709036179818213,0.0009998097084462643,-0.006992820184677839,0.0,0.0,0.01657211221754551,0.4683234393596649,GPS_RAW_INT,0,0,0,0,0,65535,65535,0,0,0,RC_CHANNELS,14344208,16,1500,1500,0,1500,0,0,0,0,0,0,0,0,0,0,0,0,0,0,255,MISSION_CURRENT,0,NAV_CONTROLLER_OUTPUT,0.0,0.0,0,0,0,102.63999938964844,0.0,0.0,SYS_STATUS,325188639,272759823,17890319,28,0,-1,-1,0,0,0,0,0,0,GLOBAL_POSITION_INT,14344208,0,0,-2500,-2505,0,0,0,32407,RAW_IMU,14344208422,-967,-67,30,-2,0,5,-194,-233,53
12.619535207748413,24.578125,26.355438232421875,43.1060791015625,14.453125116415329,24.52788582282892,99841.81062308718,42.85811577622366,124.22069490131956,0,405,VFR_HUD,0.0,0.0,324,0,-2.5,-0.0,POSITION_TARGET_GLOBAL_INT,14344208,0,65016,0,0,100.0,0.0,0.0,0.0,0.0,0.0,0.0,0.0,0.0,AHRS,0.001709036179818213,0.0009998097084462643,-0.006992820184677839,0.0,0.0,0.01657211221754551,0.4683234393596649,GPS_RAW_INT,0,0,0,0,0,65535,65535,0,0,0,RC_CHANNELS,14344208,16,1500,1500,0,1500,0,0,0,0,0,0,0,0,0,0,0,0,0,0,255,MISSION_CURRENT,0,NAV_CONTROLLER_OUTPUT,0.0,0.0,0,0,0,102.63999938964844,0.0,0.0,SYS_STATUS,325188639,272759823,17890319,28,0,-1,-1,0,0,0,0,0,0,GLOBAL_POSITION_INT,14344708,0,0,-2470,-2478,0,0,0,32402,RAW_IMU,14344208422,-967,-67,30,-2,0,5,-194,-233,53
12.619535207748413,24.578125,26.355438232421875,43.1060791015625,14.453125116415329,24.52788582282892,99841.81062308718,42.85811577622366,124.22069490131956,0,405,VFR_HUD,0.0,0.0,324,0,-2.5,-0.0,POSITION_TARGET_GLOBAL_INT,14344208,0,65016,0,0,100.0,0.0,0.0,0.0,0.0,0.0,0.0,0.0,0.0,AHRS,0.001709036179818213,0.0009998097084462643,-0.006992820184677839,0.0,0.0,0.01657211221754551,0.4683234393596649,GPS_RAW_INT,0,0,0,0,0,65535,65535,0,0,0,RC_CHANNELS,14344208,16,1500,1500,0,1500,0,0,0,0,0,0,0,0,0,0,0,0,0,0,255,MISSION_CURRENT,0,NAV_CONTROLLER_OUTPUT,0.0,0.0,0,0,0,102.63999938964844,0.0,0.0,SYS_STATUS,325188639,272759823,17890319,30,0,-1,-1,0,0,0,0,0,0,GLOBAL_POSITION_INT,14344708,0,0,-2470,-2478,0,0,0,32402,RAW_IMU,14344208422,-967,-67,30,-2,0,5,-194,-233,53
12.710421323776245,24.5703125,26.336746215820312,43.109130859375,14.453125116415329,24.522430878093132,99841.83540443596,42.863812021012606,124.21860695763988,0,405,VFR_HUD,0.0,0.0,324,0,-2.5,-0.0,POSITION_TARGET_GLOBAL_INT,14344208,0,65016,0,0,100.0,0.0,0.0,0.0,0.0,0.0,0.0,0.0,0.0,AHRS,0.001709036179818213,0.0009998097084462643,-0.006992820184677839,0.0,0.0,0.01657211221754551,0.4683234393596649,GPS_RAW_INT,0,0,0,0,0,65535,65535,0,0,0,RC_CHANNELS,14344208,16,1500,1500,0,1500,0,0,0,0,0,0,0,0,0,0,0,0,0,0,255,MISSION_CURRENT,0,NAV_CONTROLLER_OUTPUT,0.0,0.0,0,0,0,102.81999969482422,0.0,0.0,SYS_STATUS,325188639,272759823,17890319,30,0,-1,-1,0,0,0,0,0,0,GLOBAL_POSITION_INT,14344708,0,0,-2470,-2478,0,0,0,32402,RAW_IMU,14344208422,-967,-67,30,-2,0,5,-194,-233,53
12.79948902130127,24.5703125,26.326065063476562,43.1427001953125,14.453125116415329,24.52692318549873,99843.73189464712,42.86383857670211,124.05882009822541,0,405,VFR_HUD,0.0,0.0,324,0,-2.5,-0.0,POSITION_TARGET_GLOBAL_INT,14344208,0,65016,0,0,100.0,0.0,0.0,0.0,0.0,0.0,0.0,0.0,0.0,AHRS,0.001709036179818213,0.0009998097084462643,-0.006992820184677839,0.0,0.0,0.01657211221754551,0.4683234393596649,GPS_RAW_INT,0,0,0,0,0,65535,65535,0,0,0,RC_CHANNELS,14344208,16,1500,1500,0,1500,0,0,0,0,0,0,0,0,0,0,0,0,0,0,255,MISSION_CURRENT,0,NAV_CONTROLLER_OUTPUT,0.0,0.0,0,0,0,102.81999969482422,0.0,0.0,SYS_STATUS,325188639,272759823,17890319,30,0,-1,-1,0,0,0,0,0,0,GLOBAL_POSITION_INT,14344708,0,0,-2470,-2478,0,0,0,32402,RAW_IMU,14344208422,-967,-67,30,-2,0,5,-194,-233,53
12.79948902130127,24.5703125,26.326065063476562,43.1427001953125,14.453125116415329,24.52692318549873,99843.73189464712,42.86383857670211,124.05882009822541,0,405,VFR_HUD,0.0,0.0,324,0,-2.4700000286102295,-0.0,POSITION_TARGET_GLOBAL_INT,14344208,0,65016,0,0,100.0,0.0,0.0,0.0,0.0,0.0,0.0,0.0,0.0,AHRS,0.001709036179818213,0.0009998097084462643,-0.006992820184677839,0.0,0.0,0.01657211221754551,0.4683234393596649,GPS_RAW_INT,0,0,0,0,0,65535,65535,0,0,0,RC_CHANNELS,14344208,16,1500,1500,0,1500,0,0,0,0,0,0,0,0,0,0,0,0,0,0,255,MISSION_CURRENT,0,NAV_CONTROLLER_OUTPUT,0.0,0.0,0,0,0,102.81999969482422,0.0,0.0,SYS_STATUS,325188639,272759823,17890319,30,0,-1,-1,0,0,0,0,0,0,GLOBAL_POSITION_INT,14344708,0,0,-2470,-2478,0,0,0,32402,RAW_IMU,14344208422,-967,-67,30,-2,0,5,-194,-233,53
12.886680364608765,24.578125,26.33941650390625,43.12896728515625,14.453125116415329,24.530131976639154,99841.12087705056,42.84094340742849,124.2788093752521,0,405,VFR_HUD,0.0,0.0,324,0,-2.4700000286102295,-0.0,POSITION_TARGET_GLOBAL_INT,14344208,0,65016,0,0,100.0,0.0,0.0,0.0,0.0,0.0,0.0,0.0,0.0,AHRS,0.001709036179818213,0.0009998097084462643,-0.006992820184677839,0.0,0.0,0.01657211221754551,0.4683234393596649,GPS_RAW_INT,0,0,0,0,0,65535,65535,0,0,0,RC_CHANNELS,14344708,16,1500,1500,0,1500,0,0,0,0,0,0,0,0,0,0,0,0,0,0,255,MISSION_CURRENT,0,NAV_CONTROLLER_OUTPUT,0.0,0.0,0,0,0,102.81999969482422,0.0,0.0,SYS_STATUS,325188639,272759823,17890319,30,0,-1,-1,0,0,0,0,0,0,GLOBAL_POSITION_INT,14344708,0,0,-2470,-2478,0,0,0,32402,RAW_IMU,14344208422,-967,-67,30,-2,0,5,-194,-233,53
12.886680364608765,24.578125,26.33941650390625,43.12896728515625,14.453125116415329,24.530131976639154,99841.12087705056,42.84094340742849,124.2788093752521,0,405,VFR_HUD,0.0,0.0,324,0,-2.4700000286102295,-0.0,POSITION_TARGET_GLOBAL_INT,14344208,0,65016,0,0,100.0,0.0,0.0,0.0,0.0,0.0,0.0,0.0,0.0,AHRS,0.001709036179818213,0.0009998097084462643,-0.006992820184677839,0.0,0.0,0.01657211221754551,0.4683234393596649,GPS_RAW_INT,0,0,0,0,0,65535,65535,0,0,0,RC_CHANNELS,14344708,16,1500,1500,0,1500,0,0,0,0,0,0,0,0,0,0,0,0,0,0,255,MISSION_CURRENT,0,NAV_CONTROLLER_OUTPUT,0.0,0.0,0,0,0,102.81999969482422,0.0,0.0,SYS_STATUS,325188639,272759823,17890319,30,0,-1,-1,0,0,0,0,0,0,GLOBAL_POSITION_INT,14344708,0,0,-2470,-2478,0,0,0,32402,RAW_IMU,14344708522,-965,-68,29,-2,0,6,-172,-219,54
12.973502397537231,24.578125,26.336746215820312,43.0450439453125,14.453125116415329,24.530131976639154,99841.12087705056,42.84094340742849,124.2788093752521,0,405,VFR_HUD,0.0,0.0,324,0,-2.4700000286102295,-0.0,POSITION_TARGET_GLOBAL_INT,14344208,0,65016,0,0,100.0,0.0,0.0,0.0,0.0,0.0,0.0,0.0,0.0,AHRS,0.001709036179818213,0.0009998097084462643,-0.006992820184677839,0.0,0.0,0.01657211221754551,0.4683234393596649,GPS_RAW_INT,0,0,0,0,0,65535,65535,0,0,0,RC_CHANNELS,14344708,16,1500,1500,0,1500,0,0,0,0,0,0,0,0,0,0,0,0,0,0,255,MISSION_CURRENT,0,NAV_CONTROLLER_OUTPUT,0.0,0.0,0,0,0,102.81999969482422,0.0,0.0,SYS_STATUS,325188639,272759823,17890319,30,0,-1,-1,0,0,0,0,0,0,GLOBAL_POSITION_INT,14344708,0,0,-2470,-2478,0,0,0,32402,RAW_IMU,14344708522,-965,-68,29,-2,0,6,-172,-219,54
13.059642314910889,24.578125,26.355438232421875,43.09539794921875,14.453125116415329,24.522751757186143,99838.78113218129,42.89818426062105,124.47594673505314,3,424,VFR_HUD,0.0,0.0,324,0,-2.4700000286102295,-0.0,POSITION_TARGET_GLOBAL_INT,14344208,0,65016,0,0,100.0,0.0,0.0,0.0,0.0,0.0,0.0,0.0,0.0,AHRS,0.001709036179818213,0.0009998097084462643,-0.006992820184677839,0.0,0.0,0.01656237617135048,0.46306881308555603,GPS_RAW_INT,0,0,0,0,0,65535,65535,0,0,0,RC_CHANNELS,14344708,16,1500,1500,0,1500,0,0,0,0,0,0,0,0,0,0,0,0,0,0,255,MISSION_CURRENT,0,NAV_CONTROLLER_OUTPUT,0.0,0.0,0,0,0,102.81999969482422,0.0,0.0,SYS_STATUS,325188639,272759823,17890319,30,0,-1,-1,0,0,0,0,0,0,GLOBAL_POSITION_INT,14344708,0,0,-2470,-2478,0,0,0,32402,RAW_IMU,14344708522,-965,-68,29,-2,0,6,-172,-219,54
13.059642314910889,24.578125,26.355438232421875,43.09539794921875,14.453125116415329,24.522751757186143,99838.78113218129,42.89818426062105,124.47594673505314,3,424,VFR_HUD,0.0,0.0,324,0,-2.4700000286102295,-0.0,POSITION_TARGET_GLOBAL_INT,14344708,0,65016,0,0,100.0,0.0,0.0,0.0,0.0,0.0,0.0,0.0,0.0,AHRS,0.001709036179818213,0.0009998097084462643,-0.006992820184677839,0.0,0.0,0.01656237617135048,0.46306881308555603,GPS_RAW_INT,0,0,0,0,0,65535,65535,0,0,0,RC_CHANNELS,14344708,16,1500,1500,0,1500,0,0,0,0,0,0,0,0,0,0,0,0,0,0,255,MISSION_CURRENT,0,NAV_CONTROLLER_OUTPUT,0.0,0.0,0,0,0,102.81999969482422,0.0,0.0,SYS_STATUS,325188639,272759823,17890319,30,0,-1,-1,0,0,0,0,0,0,GLOBAL_POSITION_INT,14344708,0,0,-2470,-2478,0,0,0,32402,RAW_IMU,14344708522,-965,-68,29,-2,0,6,-172,-219,54
13.147741317749023,24.578125,26.355438232421875,43.115234375,14.453125116415329,24.53398252615773,99844.12581203239,42.91543697051041,124.0256312966539,3,424,VFR_HUD,0.0,0.0,324,0,-2.4700000286102295,-0.0,POSITION_TARGET_GLOBAL_INT,14344708,0,65016,0,0,100.0,0.0,0.0,0.0,0.0,0.0,0.0,0.0,0.0,AHRS,0.001709036179818213,0.0009998097084462643,-0.006992820184677839,0.0,0.0,0.01656237617135048,0.46306881308555603,GPS_RAW_INT,0,0,0,0,0,65535,65535,0,0,0,RC_CHANNELS,14344708,16,1500,1500,0,1500,0,0,0,0,0,0,0,0,0,0,0,0,0,0,255,MISSION_CURRENT,0,NAV_CONTROLLER_OUTPUT,0.0,0.0,0,0,0,102.81999969482422,0.0,0.0,SYS_STATUS,325188639,272759823,17890319,30,0,-1,-1,0,0,0,0,0,0,GLOBAL_POSITION_INT,14345208,0,0,-2360,-2366,0,0,0,32397,RAW_IMU,14344708522,-965,-68,29,-2,0,6,-172,-219,54
13.147741317749023,24.578125,26.355438232421875,43.115234375,14.453125116415329,24.53398252615773,99844.12581203239,42.91543697051041,124.0256312966539,3,424,VFR_HUD,0.0,0.0,324,0,-2.4700000286102295,-0.0,POSITION_TARGET_GLOBAL_INT,14344708,0,65016,0,0,100.0,0.0,0.0,0.0,0.0,0.0,0.0,0.0,0.0,AHRS,0.001709036179818213,0.0009998097084462643,-0.006992820184677839,0.0,0.0,0.01656237617135048,0.46306881308555603,GPS_RAW_INT,0,0,0,0,0,65535,65535,0,0,0,RC_CHANNELS,14344708,16,1500,1500,0,1500,0,0,0,0,0,0,0,0,0,0,0,0,0,0,255,MISSION_CURRENT,0,NAV_CONTROLLER_OUTPUT,0.0,0.0,0,0,0,102.81999969482422,0.0,0.0,SYS_STATUS,325188639,272759823,17890319,29,0,-1,-1,0,0,0,0,0,0,GLOBAL_POSITION_INT,14345208,0,0,-2360,-2366,0,0,0,32397,RAW_IMU,14344708522,-965,-68,29,-2,0,6,-172,-219,54
13.233530282974243,24.578125,26.355438232421875,43.10455322265625,14.453125116415329,24.525639669074394,99840.25891606322,42.84664557792092,124.35143425724806,3,424,VFR_HUD,0.0,0.0,324,0,-2.4700000286102295,-0.0,POSITION_TARGET_GLOBAL_INT,14344708,0,65016,0,0,100.0,0.0,0.0,0.0,0.0,0.0,0.0,0.0,0.0,AHRS,0.001709036179818213,0.0009998097084462643,-0.006992820184677839,0.0,0.0,0.01656237617135048,0.46306881308555603,GPS_RAW_INT,0,0,0,0,0,65535,65535,0,0,0,RC_CHANNELS,14344708,16,1500,1500,0,1500,0,0,0,0,0,0,0,0,0,0,0,0,0,0,255,MISSION_CURRENT,0,NAV_CONTROLLER_OUTPUT,0.0,0.0,0,0,0,102.5,0.0,0.0,SYS_STATUS,325188639,272759823,17890319,29,0,-1,-1,0,0,0,0,0,0,GLOBAL_POSITION_INT,14345208,0,0,-2360,-2366,0,0,0,32397,RAW_IMU,14344708522,-965,-68,29,-2,0,6,-172,-219,54
13.322144031524658,24.578125,26.33941650390625,43.11370849609375,14.453125116415329,24.540400109052484,99837.8691382614,42.881104088628675,124.55278863630988,3,424,VFR_HUD,0.0,0.0,324,0,-2.4700000286102295,-0.0,POSITION_TARGET_GLOBAL_INT,14344708,0,65016,0,0,100.0,0.0,0.0,0.0,0.0,0.0,0.0,0.0,0.0,AHRS,0.001709036179818213,0.0009998097084462643,-0.006992820184677839,0.0,0.0,0.01656237617135048,0.46306881308555603,GPS_RAW_INT,0,0,0,0,0,65535,65535,0,0,0,RC_CHANNELS,14344708,16,1500,1500,0,1500,0,0,0,0,0,0,0,0,0,0,0,0,0,0,255,MISSION_CURRENT,0,NAV_CONTROLLER_OUTPUT,0.0,0.0,0,0,0,102.5,0.0,0.0,SYS_STATUS,325188639,272759823,17890319,29,0,-1,-1,0,0,0,0,0,0,GLOBAL_POSITION_INT,14345208,0,0,-2360,-2366,0,0,0,32397,RAW_IMU,14344708522,-965,-68,29,-2,0,6,-172,-219,54
13.322144031524658,24.578125,26.33941650390625,43.11370849609375,14.453125116415329,24.540400109052484,99837.8691382614,42.881104088628675,124.55278863630988,3,424,VFR_HUD,0.0,0.0,323,0,-2.359999895095825,-0.0,POSITION_TARGET_GLOBAL_INT,14344708,0,65016,0,0,100.0,0.0,0.0,0.0,0.0,0.0,0.0,0.0,0.0,AHRS,0.001709036179818213,0.0009998097084462643,-0.006992820184677839,0.0,0.0,0.01656237617135048,0.46306881308555603,GPS_RAW_INT,0,0,0,0,0,65535,65535,0,0,0,RC_CHANNELS,14344708,16,1500,1500,0,1500,0,0,0,0,0,0,0,0,0,0,0,0,0,0,255,MISSION_CURRENT,0,NAV_CONTROLLER_OUTPUT,0.0,0.0,0,0,0,102.5,0.0,0.0,SYS_STATUS,325188639,272759823,17890319,29,0,-1,-1,0,0,0,0,0,0,GLOBAL_POSITION_INT,14345208,0,0,-2360,-2366,0,0,0,32397,RAW_IMU,14344708522,-965,-68,29,-2,0,6,-172,-219,54
13.408294916152954,24.578125,26.336746215820312,43.07403564453125,14.453125116415329,24.534303405291666,99841.07148237241,42.886796378952184,124.28297113071991,3,424,VFR_HUD,0.0,0.0,323,0,-2.359999895095825,-0.0,POSITION_TARGET_GLOBAL_INT,14344708,0,65016,0,0,100.0,0.0,0.0,0.0,0.0,0.0,0.0,0.0,0.0,AHRS,0.001709036179818213,0.0009998097084462643,-0.006992820184677839,0.0,0.0,0.01656237617135048,0.46306881308555603,GPS_RAW_INT,0,0,0,0,0,65535,65535,0,0,0,RC_CHANNELS,14345208,16,1500,1500,0,1500,0,0,0,0,0,0,0,0,0,0,0,0,0,0,255,MISSION_CURRENT,0,NAV_CONTROLLER_OUTPUT,0.0,0.0,0,0,0,102.5,0.0,0.0,SYS_STATUS,325188639,272759823,17890319,29,0,-1,-1,0,0,0,0,0,0,GLOBAL_POSITION_INT,14345208,0,0,-2360,-2366,0,0,0,32397,RAW_IMU,14344708522,-965,-68,29,-2,0,6,-172,-219,54
13.408294916152954,24.578125,26.336746215820312,43.07403564453125,14.453125116415329,24.534303405291666,99841.07148237241,42.886796378952184,124.28297113071991,3,424,VFR_HUD,0.0,0.0,323,0,-2.359999895095825,-0.0,POSITION_TARGET_GLOBAL_INT,14344708,0,65016,0,0,100.0,0.0,0.0,0.0,0.0,0.0,0.0,0.0,0.0,AHRS,0.001709036179818213,0.0009998097084462643,-0.006992820184677839,0.0,0.0,0.01656237617135048,0.46306881308555603,GPS_RAW_INT,0,0,0,0,0,65535,65535,0,0,0,RC_CHANNELS,14345208,16,1500,1500,0,1500,0,0,0,0,0,0,0,0,0,0,0,0,0,0,255,MISSION_CURRENT,0,NAV_CONTROLLER_OUTPUT,0.0,0.0,0,0,0,102.5,0.0,0.0,SYS_STATUS,325188639,272759823,17890319,29,0,-1,-1,0,0,0,0,0,0,GLOBAL_POSITION_INT,14345208,0,0,-2360,-2366,0,0,0,32397,RAW_IMU,14345208429,-967,-69,31,-1,-1,5,-193,-230,53
13.495463848114014,24.578125,26.347427368164062,43.07098388671875,14.453125116415329,24.534303405291666,99840.72663984541,42.89252490304263,124.31202593217398,3,424,VFR_HUD,0.0,0.0,323,0,-2.359999895095825,-0.0,POSITION_TARGET_GLOBAL_INT,14344708,0,65016,0,0,100.0,0.0,0.0,0.0,0.0,0.0,0.0,0.0,0.0,AHRS,0.001709036179818213,0.0009998097084462643,-0.006992820184677839,0.0,0.0,0.01656237617135048,0.46306881308555603,GPS_RAW_INT,0,0,0,0,0,65535,65535,0,0,0,RC_CHANNELS,14345208,16,1500,1500,0,1500,0,0,0,0,0,0,0,0,0,0,0,0,0,0,255,MISSION_CURRENT,0,NAV_CONTROLLER_OUTPUT,0.0,0.0,0,0,0,102.5,0.0,0.0,SYS_STATUS,325188639,272759823,17890319,29,0,-1,-1,0,0,0,0,0,0,GLOBAL_POSITION_INT,14345208,0,0,-2360,-2366,0,0,0,32397,RAW_IMU,14345208429,-967,-69,31,-1,-1,5,-193,-230,53
13.580347776412964,24.578125,26.336746215820312,43.10150146484375,14.453125116415329,24.52916933928509,99840.97311790157,42.875308835413605,124.29125884783527,3,424,VFR_HUD,0.0,0.0,323,0,-2.359999895095825,-0.0,POSITION_TARGET_GLOBAL_INT,14344708,0,65016,0,0,100.0,0.0,0.0,0.0,0.0,0.0,0.0,0.0,0.0,AHRS,0.001709036179818213,0.0009998097084462643,-0.006992820184677839,0.0,0.0,0.016461661085486412,0.45583274960517883,GPS_RAW_INT,0,0,0,0,0,65535,65535,0,0,0,RC_CHANNELS,14345208,16,1500,1500,0,1500,0,0,0,0,0,0,0,0,0,0,0,0,0,0,255,MISSION_CURRENT,0,NAV_CONTROLLER_OUTPUT,0.0,0.0,0,0,0,102.5,0.0,0.0,SYS_STATUS,325188639,272759823,17890319,29,0,-1,-1,0,0,0,0,0,0,GLOBAL_POSITION_INT,14345208,0,0,-2360,-2366,0,0,0,32397,RAW_IMU,14345208429,-967,-69,31,-1,-1,5,-193,-230,53
13.580347776412964,24.578125,26.336746215820312,43.10150146484375,14.453125116415329,24.52916933928509,99840.97311790157,42.875308835413605,124.29125884783527,3,424,VFR_HUD,0.0,0.0,323,0,-2.359999895095825,-0.0,POSITION_TARGET_GLOBAL_INT,14345208,0,65016,0,0,100.0,0.0,0.0,0.0,0.0,0.0,0.0,0.0,0.0,AHRS,0.001709036179818213,0.0009998097084462643,-0.006992820184677839,0.0,0.0,0.016461661085486412,0.45583274960517883,GPS_RAW_INT,0,0,0,0,0,65535,65535,0,0,0,RC_CHANNELS,14345208,16,1500,1500,0,1500,0,0,0,0,0,0,0,0,0,0,0,0,0,0,255,MISSION_CURRENT,0,NAV_CONTROLLER_OUTPUT,0.0,0.0,0,0,0,102.5,0.0,0.0,SYS_STATUS,325188639,272759823,17890319,29,0,-1,-1,0,0,0,0,0,0,GLOBAL_POSITION_INT,14345208,0,0,-2360,-2366,0,0,0,32397,RAW_IMU,14345208429,-967,-69,31,-1,-1,5,-193,-230,53
13.665447473526001,24.578125,26.347427368164062,43.10455322265625,14.453125116415329,24.52916933928509,99838.21489745782,42.86375888536015,124.52365592560278,3,424,VFR_HUD,0.0,0.0,323,0,-2.359999895095825,-0.0,POSITION_TARGET_GLOBAL_INT,14345208,0,65016,0,0,100.0,0.0,0.0,0.0,0.0,0.0,0.0,0.0,0.0,AHRS,0.001709036179818213,0.0009998097084462643,-0.006992820184677839,0.0,0.0,0.016461661085486412,0.45583274960517883,GPS_RAW_INT,0,0,0,0,0,65535,65535,0,0,0,RC_CHANNELS,14345208,16,1500,1500,0,1500,0,0,0,0,0,0,0,0,0,0,0,0,0,0,255,MISSION_CURRENT,0,NAV_CONTROLLER_OUTPUT,0.0,0.0,0,0,0,102.5,0.0,0.0,SYS_STATUS,325188639,272759823,17890319,29,0,-1,-1,0,0,0,0,0,0,GLOBAL_POSITION_INT,14345208,0,0,-2360,-2366,0,0,0,32397,RAW_IMU,14345208429,-967,-69,31,-1,-1,5,-193,-230,53
13.665447473526001,24.578125,26.347427368164062,43.10455322265625,14.453125116415329,24.52916933928509,99838.21489745782,42.86375888536015,124.52365592560278,3,424,VFR_HUD,0.0,0.0,323,0,-2.359999895095825,-0.0,POSITION_TARGET_GLOBAL_INT,14345208,0,65016,0,0,100.0,0.0,0.0,0.0,0.0,0.0,0.0,0.0,0.0,AHRS,0.001709036179818213,0.0009998097084462643,-0.006992820184677839,0.0,0.0,0.016461661085486412,0.45583274960517883,GPS_RAW_INT,0,0,0,0,0,65535,65535,0,0,0,RC_CHANNELS,14345208,16,1500,1500,0,1500,0,0,0,0,0,0,0,0,0,0,0,0,0,0,255,MISSION_CURRENT,0,NAV_CONTROLLER_OUTPUT,0.0,0.0,0,0,0,102.5,0.0,0.0,SYS_STATUS,325188639,272759823,17890319,29,0,-1,-1,0,0,0,0,0,0,GLOBAL_POSITION_INT,14345708,0,0,-2800,-2806,0,0,0,32401,RAW_IMU,14345208429,-967,-69,31,-1,-1,5,-193,-230,53
13.750775337219238,24.578125,26.347427368164062,43.0755615234375,14.453125116415329,24.513446263950414,99838.21489745782,42.86375888536015,124.52365592560278,3,424,VFR_HUD,0.0,0.0,323,0,-2.359999895095825,-0.0,POSITION_TARGET_GLOBAL_INT,14345208,0,65016,0,0,100.0,0.0,0.0,0.0,0.0,0.0,0.0,0.0,0.0,AHRS,0.001709036179818213,0.0009998097084462643,-0.006992820184677839,0.0,0.0,0.016461661085486412,0.45583274960517883,GPS_RAW_INT,0,0,0,0,0,65535,65535,0,0,0,RC_CHANNELS,14345208,16,1500,1500,0,1500,0,0,0,0,0,0,0,0,0,0,0,0,0,0,255,MISSION_CURRENT,0,NAV_CONTROLLER_OUTPUT,0.0,0.0,0,0,0,102.5,0.0,0.0,SYS_STATUS,325188671,272759855,17890319,30,0,-1,-1,0,0,0,0,0,0,GLOBAL_POSITION_INT,14345708,0,0,-2800,-2806,0,0,0,32401,RAW_IMU,14345208429,-967,-69,31,-1,-1,5,-193,-230,53
13.837084293365479,24.578125,26.331405639648438,43.0328369140625,14.453125116415329,24.531736372252,99838.43599349343,42.88678108120491,124.50502702981272,3,424,VFR_HUD,0.0,0.0,323,0,-2.359999895095825,-0.0,POSITION_TARGET_GLOBAL_INT,14345208,0,65016,0,0,100.0,0.0,0.0,0.0,0.0,0.0,0.0,0.0,0.0,AHRS,0.001709036179818213,0.0009998097084462643,-0.006992820184677839,0.0,0.0,0.016461661085486412,0.45583274960517883,GPS_RAW_INT,0,0,0,0,0,65535,65535,0,0,0,RC_CHANNELS,14345208,16,1500,1500,0,1500,0,0,0,0,0,0,0,0,0,0,0,0,0,0,255,MISSION_CURRENT,0,NAV_CONTROLLER_OUTPUT,0.0,0.0,0,0,0,102.30000305175781,0.0,0.0,SYS_STATUS,325188671,272759855,17890319,30,0,-1,-1,0,0,0,0,0,0,GLOBAL_POSITION_INT,14345708,0,0,-2800,-2806,0,0,0,32401,RAW_IMU,14345208429,-967,-69,31,-1,-1,5,-193,-230,53
13.837084293365479,24.578125,26.331405639648438,43.0328369140625,14.453125116415329,24.531736372252,99838.43599349343,42.88678108120491,124.50502702981272,3,424,VFR_HUD,0.0,0.0,323,0,-2.359999895095825,-0.0,POSITION_TARGET_GLOBAL_INT,14345208,0,65016,0,0,100.0,0.0,0.0,0.0,0.0,0.0,0.0,0.0,0.0,AHRS,0.001709036179818213,0.0009998097084462643,-0.006992820184677839,0.0,0.0,0.016461661085486412,0.45583274960517883,GPS_RAW_INT,0,0,0,0,0,65535,65535,0,0,0,RC_CHANNELS,14345208,16,1500,1500,0,1500,0,0,0,0,0,0,0,0,0,0,0,0,0,0,255,MISSION_CURRENT,0,NAV_CONTROLLER_OUTPUT,0.0,0.0,0,0,0,102.30000305175781,0.0,0.0,SYS_STATUS,325188671,272759855,17890319,30,0,-1,-1,0,0,0,0,0,0,GLOBAL_POSITION_INT,14345708,0,0,-2800,-2806,0,0,0,32401,RAW_IMU,14345208429,-967,-69,31,-1,-1,5,-193,-230,53
13.921564817428589,24.578125,26.36077880859375,43.0419921875,14.453125116415329,24.5352660427003,99841.56408392247,42.95554391687235,124.24146699329206,3,424,VFR_HUD,0.0,0.0,324,0,-2.799999952316284,-0.0,POSITION_TARGET_GLOBAL_INT,14345208,0,65016,0,0,100.0,0.0,0.0,0.0,0.0,0.0,0.0,0.0,0.0,AHRS,0.001709036179818213,0.0009998097084462643,-0.006992820184677839,0.0,0.0,0.016461661085486412,0.45583274960517883,GPS_RAW_INT,0,0,0,0,0,65535,65535,0,0,0,RC_CHANNELS,14345208,16,1500,1500,0,1500,0,0,0,0,0,0,0,0,0,0,0,0,0,0,255,MISSION_CURRENT,0,NAV_CONTROLLER_OUTPUT,0.0,0.0,0,0,0,102.30000305175781,0.0,0.0,SYS_STATUS,325188671,272759855,17890319,30,0,-1,-1,0,0,0,0,0,0,GLOBAL_POSITION_INT,14345708,0,0,-2800,-2806,0,0,0,32401,RAW_IMU,14345208429,-967,-69,31,-1,-1,5,-193,-230,53
13.921564817428589,24.578125,26.36077880859375,43.0419921875,14.453125116415329,24.5352660427003,99841.56408392247,42.95554391687235,124.24146699329206,3,424,VFR_HUD,0.0,0.0,324,0,-2.799999952316284,-0.0,POSITION_TARGET_GLOBAL_INT,14345208,0,65016,0,0,100.0,0.0,0.0,0.0,0.0,0.0,0.0,0.0,0.0,AHRS,0.001709036179818213,0.0009998097084462643,-0.006992820184677839,0.0,0.0,0.016461661085486412,0.45583274960517883,GPS_RAW_INT,0,0,0,0,0,65535,65535,0,0,0,RC_CHANNELS,14345708,16,1500,1500,0,1500,0,0,0,0,0,0,0,0,0,0,0,0,0,0,255,MISSION_CURRENT,0,NAV_CONTROLLER_OUTPUT,0.0,0.0,0,0,0,102.30000305175781,0.0,0.0,SYS_STATUS,325188671,272759855,17890319,30,0,-1,-1,0,0,0,0,0,0,GLOBAL_POSITION_INT,14345708,0,0,-2800,-2806,0,0,0,32401,RAW_IMU,14345208429,-967,-69,31,-1,-1,5,-193,-230,53
14.007214307785034,24.578125,26.344757080078125,43.09539794921875,14.453125116415329,24.535586921838785,99839.1994346837,42.898261098304204,124.44070199768184,6,441,VFR_HUD,0.0,0.0,324,0,-2.799999952316284,-0.0,POSITION_TARGET_GLOBAL_INT,14345208,0,65016,0,0,100.0,0.0,0.0,0.0,0.0,0.0,0.0,0.0,0.0,AHRS,0.001709036179818213,0.0009998097084462643,-0.006992820184677839,0.0,0.0,0.016461661085486412,0.45583274960517883,GPS_RAW_INT,0,0,0,0,0,65535,65535,0,0,0,RC_CHANNELS,14345708,16,1500,1500,0,1500,0,0,0,0,0,0,0,0,0,0,0,0,0,0,255,MISSION_CURRENT,0,NAV_CONTROLLER_OUTPUT,0.0,0.0,0,0,0,102.30000305175781,0.0,0.0,SYS_STATUS,325188671,272759855,17890319,30,0,-1,-1,0,0,0,0,0,0,GLOBAL_POSITION_INT,14345708,0,0,-2800,-2806,0,0,0,32401,RAW_IMU,14345708675,-968,-68,33,-2,0,5,-189,-231,52
14.09321928024292,24.578125,26.31805419921875,43.09234619140625,14.453125116415329,24.537833075840012,99840.23388599289,42.92118868074141,124.35354318383553,6,441,VFR_HUD,0.0,0.0,324,0,-2.799999952316284,-0.0,POSITION_TARGET_GLOBAL_INT,14345208,0,65016,0,0,100.0,0.0,0.0,0.0,0.0,0.0,0.0,0.0,0.0,AHRS,0.001709036179818213,0.0009998097084462643,-0.006992820184677839,0.0,0.0,0.016461661085486412,0.45583274960517883,GPS_RAW_INT,0,1,0,0,0,65535,65535,0,0,0,RC_CHANNELS,14345708,16,1500,1500,0,1500,0,0,0,0,0,0,0,0,0,0,0,0,0,0,255,MISSION_CURRENT,0,NAV_CONTROLLER_OUTPUT,0.0,0.0,0,0,0,102.30000305175781,0.0,0.0,SYS_STATUS,325188671,272759855,17890319,30,0,-1,-1,0,0,0,0,0,0,GLOBAL_POSITION_INT,14345708,0,0,-2800,-2806,0,0,0,32401,RAW_IMU,14345708675,-968,-68,33,-2,0,5,-189,-231,52
14.09321928024292,24.578125,26.31805419921875,43.09234619140625,14.453125116415329,24.537833075840012,99840.23388599289,42.92118868074141,124.35354318383553,6,441,VFR_HUD,0.0,0.0,324,0,-2.799999952316284,-0.0,POSITION_TARGET_GLOBAL_INT,14345208,0,65016,0,0,100.0,0.0,0.0,0.0,0.0,0.0,0.0,0.0,0.0,AHRS,0.001709036179818213,0.0009998097084462643,-0.006992820184677839,0.0,0.0,0.016477376222610474,0.4587057828903198,GPS_RAW_INT,0,1,0,0,0,65535,65535,0,0,0,RC_CHANNELS,14345708,16,1500,1500,0,1500,0,0,0,0,0,0,0,0,0,0,0,0,0,0,255,MISSION_CURRENT,0,NAV_CONTROLLER_OUTPUT,0.0,0.0,0,0,0,102.30000305175781,0.0,0.0,SYS_STATUS,325188671,272759855,17890319,30,0,-1,-1,0,0,0,0,0,0,GLOBAL_POSITION_INT,14345708,0,0,-2800,-2806,0,0,0,32401,RAW_IMU,14345708675,-968,-68,33,-2,0,5,-189,-231,52
14.179603815078735,24.578125,26.3287353515625,43.00994873046875,14.453125116415329,24.521789119910522,99839.84030011286,42.92109181494415,124.38670510165073,6,441,VFR_HUD,0.0,0.0,324,0,-2.799999952316284,-0.0,POSITION_TARGET_GLOBAL_INT,14345708,0,65016,0,0,100.0,0.0,0.0,0.0,0.0,0.0,0.0,0.0,0.0,AHRS,0.001709036179818213,0.0009998097084462643,-0.006992820184677839,0.0,0.0,0.016477376222610474,0.4587057828903198,GPS_RAW_INT,0,1,0,0,0,65535,65535,0,0,0,RC_CHANNELS,14345708,16,1500,1500,0,1500,0,0,0,0,0,0,0,0,0,0,0,0,0,0,255,MISSION_CURRENT,0,NAV_CONTROLLER_OUTPUT,0.0,0.0,0,0,0,102.30000305175781,0.0,0.0,SYS_STATUS,325188671,272759855,17890319,30,0,-1,-1,0,0,0,0,0,0,GLOBAL_POSITION_INT,14345708,0,0,-2800,-2806,0,0,0,32401,RAW_IMU,14345708675,-968,-68,33,-2,0,5,-189,-231,52
14.179603815078735,24.578125,26.3287353515625,43.00994873046875,14.453125116415329,24.521789119910522,99839.84030011286,42.92109181494415,124.38670510165073,6,441,VFR_HUD,0.0,0.0,324,0,-2.799999952316284,-0.0,POSITION_TARGET_GLOBAL_INT,14345708,0,65016,0,0,100.0,0.0,0.0,0.0,0.0,0.0,0.0,0.0,0.0,AHRS,0.001709036179818213,0.0009998097084462643,-0.006992820184677839,0.0,0.0,0.016477376222610474,0.4587057828903198,GPS_RAW_INT,0,1,0,0,0,65535,65535,0,0,0,RC_CHANNELS,14345708,16,1500,1500,0,1500,0,0,0,0,0,0,0,0,0,0,0,0,0,0,255,MISSION_CURRENT,0,NAV_CONTROLLER_OUTPUT,0.0,0.0,0,0,0,102.30000305175781,0.0,0.0,SYS_STATUS,325188671,272759855,17890319,30,0,-1,-1,0,0,0,0,0,0,GLOBAL_POSITION_INT,14345708,0,0,-2800,-2806,0,0,0,32401,RAW_IMU,14345708675,-968,-68,33,-2,0,5,-189,-231,52
14.264845848083496,24.578125,26.344757080078125,43.07708740234375,14.453125116415329,24.537191317548263,99840.1353816398,42.921184808090985,124.36184274313808,6,441,VFR_HUD,0.0,0.0,324,0,-2.799999952316284,-0.0,POSITION_TARGET_GLOBAL_INT,14345708,0,65016,0,0,100.0,0.0,0.0,0.0,0.0,0.0,0.0,0.0,0.0,AHRS,0.001709036179818213,0.0009998097084462643,-0.006992820184677839,0.0,0.0,0.016477376222610474,0.4587057828903198,GPS_RAW_INT,0,1,0,0,0,65535,65535,0,0,0,RC_CHANNELS,14345708,16,1500,1500,0,1500,0,0,0,0,0,0,0,0,0,0,0,0,0,0,255,MISSION_CURRENT,0,NAV_CONTROLLER_OUTPUT,0.0,0.0,0,0,0,102.30000305175781,0.0,0.0,SYS_STATUS,325188671,272759855,17890319,30,0,-1,-1,0,0,0,0,0,0,GLOBAL_POSITION_INT,14346208,0,0,-2480,-2484,0,0,0,32402,RAW_IMU,14345708675,-968,-68,33,-2,0,5,-189,-231,52
14.352844476699829,24.578125,26.355438232421875,43.072509765625,14.453125116415329,24.53045285575945,99840.99770988531,42.94978612390414,124.28918684496838,6,441,VFR_HUD,0.0,0.0,324,0,-2.799999952316284,-0.0,POSITION_TARGET_GLOBAL_INT,14345708,0,65016,0,0,100.0,0.0,0.0,0.0,0.0,0.0,0.0,0.0,0.0,AHRS,0.001709036179818213,0.0009998097084462643,-0.006992820184677839,0.0,0.0,0.016477376222610474,0.4587057828903198,GPS_RAW_INT,0,1,0,0,0,65535,65535,0,0,0,RC_CHANNELS,14345708,16,1500,1500,0,1500,0,0,0,0,0,0,0,0,0,0,0,0,0,0,255,MISSION_CURRENT,0,NAV_CONTROLLER_OUTPUT,0.0,0.0,0,0,0,102.30000305175781,0.0,0.0,SYS_STATUS,325188671,272759855,17890319,29,0,-1,-1,0,0,0,0,0,0,GLOBAL_POSITION_INT,14346208,0,0,-2480,-2484,0,0,0,32402,RAW_IMU,14345708675,-968,-68,33,-2,0,5,-189,-231,52
14.352844476699829,24.578125,26.355438232421875,43.072509765625,14.453125116415329,24.53045285575945,99840.99770988531,42.94978612390414,124.28918684496838,6,441,VFR_HUD,0.0,0.0,324,0,-2.799999952316284,-0.0,POSITION_TARGET_GLOBAL_INT,14345708,0,65016,0,0,100.0,0.0,0.0,0.0,0.0,0.0,0.0,0.0,0.0,AHRS,0.001709036179818213,0.0009998097084462643,-0.006992820184677839,0.0,0.0,0.016477376222610474,0.4587057828903198,GPS_RAW_INT,0,1,0,0,0,65535,65535,0,0,0,RC_CHANNELS,14345708,16,1500,1500,0,1500,0,0,0,0,0,0,0,0,0,0,0,0,0,0,255,MISSION_CURRENT,0,NAV_CONTROLLER_OUTPUT,0.0,0.0,0,0,0,102.55000305175781,0.0,0.0,SYS_STATUS,325188671,272759855,17890319,29,0,-1,-1,0,0,0,0,0,0,GLOBAL_POSITION_INT,14346208,0,0,-2480,-2484,0,0,0,32402,RAW_IMU,14345708675,-968,-68,33,-2,0,5,-189,-231,52
14.437317609786987,24.578125,26.331405639648438,43.0419921875,14.453125116415329,24.53045285575945,99840.99770988531,42.94978612390414,124.28918684496838,6,441,VFR_HUD,0.0,0.0,324,0,-2.799999952316284,-0.0,POSITION_TARGET_GLOBAL_INT,14345708,0,65016,0,0,100.0,0.0,0.0,0.0,0.0,0.0,0.0,0.0,0.0,AHRS,0.001709036179818213,0.0009998097084462643,-0.006992820184677839,0.0,0.0,0.016477376222610474,0.4587057828903198,GPS_RAW_INT,0,1,0,0,0,65535,65535,0,0,0,RC_CHANNELS,14345708,16,1500,1500,0,1500,0,0,0,0,0,0,0,0,0,0,0,0,0,0,255,MISSION_CURRENT,0,NAV_CONTROLLER_OUTPUT,0.0,0.0,0,0,0,102.55000305175781,0.0,0.0,SYS_STATUS,325188671,272759855,17890319,29,0,-1,-1,0,0,0,0,0,0,GLOBAL_POSITION_INT,14346208,0,0,-2480,-2484,0,0,0,32402,RAW_IMU,14345708675,-968,-68,33,-2,0,5,-189,-231,52
14.522800207138062,24.578125,26.344757080078125,43.170166015625,14.453125116415329,24.537191317548263,99840.82506974482,43.001382979354425,124.30373268578246,6,441,VFR_HUD,0.0,0.0,324,0,-2.4800000190734863,-0.0,POSITION_TARGET_GLOBAL_INT,14345708,0,65016,0,0,100.0,0.0,0.0,0.0,0.0,0.0,0.0,0.0,0.0,AHRS,0.001709036179818213,0.0009998097084462643,-0.006992820184677839,0.0,0.0,0.016477376222610474,0.4587057828903198,GPS_RAW_INT,0,1,0,0,0,65535,65535,0,0,0,RC_CHANNELS,14345708,16,1500,1500,0,1500,0,0,0,0,0,0,0,0,0,0,0,0,0,0,255,MISSION_CURRENT,0,NAV_CONTROLLER_OUTPUT,0.0,0.0,0,0,0,102.55000305175781,0.0,0.0,SYS_STATUS,325188671,272759855,17890319,29,0,-1,-1,0,0,0,0,0,0,GLOBAL_POSITION_INT,14346208,0,0,-2480,-2484,0,0,0,32402,RAW_IMU,14345708675,-968,-68,33,-2,0,5,-189,-231,52
