Time (s),TMP117 Temp (C),mavpackettype,airspeed,groundspeed,heading,throttle,alt,climb,mavpackettype,time_boot_ms,coordinate_frame,type_mask,lat_int,lon_int,alt,vx,vy,vz,afx,afy,afz,yaw,yaw_rate,mavpackettype,omegaIx,omegaIy,omegaIz,accel_weight,renorm_val,error_rp,error_yaw,mavpackettype,time_usec,fix_type,lat,lon,alt,eph,epv,vel,cog,satellites_visible,mavpackettype,time_boot_ms,chancount,chan1_raw,chan2_raw,chan3_raw,chan4_raw,chan5_raw,chan6_raw,chan7_raw,chan8_raw,chan9_raw,chan10_raw,chan11_raw,chan12_raw,chan13_raw,chan14_raw,chan15_raw,chan16_raw,chan17_raw,chan18_raw,rssi,mavpackettype,seq,mavpackettype,onboard_control_sensors_present,onboard_control_sensors_enabled,onboard_control_sensors_health,load,voltage_battery,current_battery,battery_remaining,drop_rate_comm,errors_comm,errors_count1,errors_count2,errors_count3,errors_count4,mavpackettype,time_boot_ms,lat,lon,alt,relative_alt,vx,vy,vz,hdg,mavpackettype,time_usec,xacc,yacc,zacc,xgyro,ygyro,zgyro,xmag,ymag,zmag,mavpackettype,id,battery_function,type,temperature,voltages,current_battery,current_consumed,energy_consumed,battery_remaining,mavpackettype,type,autopilot,base_mode,custom_mode,system_status,mavlink_version
10.003564834594727,22.765625,VFR_HUD,0.0,0.08223255723714828,58,0,-2.0899999141693115,-0.014093488454818726,,,,,,,,,,,,,,,,AHRS,0.007084706332534552,0.0010246068704873323,-0.0023511957842856646,0.0,0.0,0.0006735037895850837,0.0038156064692884684,GPS_RAW_INT,0,1,0,0,-17000,9999,9999,0,0,0,0,4294967295,4294967295,1000000,0,0,RC_CHANNELS,7709536,16,1502,1499,1004,1501,1000,1000,1501,1500,0,0,0,0,0,0,0,0,0,0,0,MISSION_CURRENT,0,SYS_STATUS,52485167,52461615,53510447,33,0,-1,-1,0,0,0,0,0,0,GLOBAL_POSITION_INT,7709536,0,0,-2090,-2093,7,2,1,5863,RAW_IMU,3414569452,20,11,-991,-7,-1,2,268,-450,238,0,4348,BATTERY_STATUS,0,0,0,32767,[65535, 65535, 65535, 65535, 65535, 65535, 65535, 65535, 65535, 65535],-1,-1,-1,100,0,0,[0, 0, 0, 0],0,0,HEARTBEAT,6,8,0,0,0,3
10.054302215576172,22.7578125,VFR_HUD,0.0,0.08223255723714828,58,0,-2.0899999141693115,-0.014093488454818726,,,,,,,,,,,,,,,,AHRS,0.007084706332534552,0.0010246068704873323,-0.0023511957842856646,0.0,0.0,0.0006735037895850837,0.0038156064692884684,GPS_RAW_INT,0,1,0,0,-17000,9999,9999,0,0,0,0,4294967295,4294967295,1000000,0,0,RC_CHANNELS,7709536,16,1502,1499,1004,1501,1000,1000,1501,1500,0,0,0,0,0,0,0,0,0,0,0,MISSION_CURRENT,0,SYS_STATUS,52485167,52461615,53510447,33,0,-1,-1,0,0,0,0,0,0,GLOBAL_POSITION_INT,7709536,0,0,-2090,-2093,7,2,1,5863,RAW_IMU,3414569452,20,11,-991,-7,-1,2,268,-450,238,0,4348,BATTERY_STATUS,0,0,0,32767,[65535, 65535, 65535, 65535, 65535, 65535, 65535, 65535, 65535, 65535],-1,-1,-1,100,0,0,[0, 0, 0, 0],0,0,HEARTBEAT,6,8,0,0,0,3
10.105833053588867,22.7578125,VFR_HUD,0.0,0.08223255723714828,58,0,-2.0899999141693115,-0.014093488454818726,,,,,,,,,,,,,,,,AHRS,0.007084706332534552,0.0010246068704873323,-0.0023511957842856646,0.0,0.0,0.0006735037895850837,0.0038156064692884684,GPS_RAW_INT,0,1,0,0,-17000,9999,9999,0,0,0,0,4294967295,4294967295,1000000,0,0,RC_CHANNELS,7709536,16,1502,1499,1004,1501,1000,1000,1501,1500,0,0,0,0,0,0,0,0,0,0,0,MISSION_CURRENT,0,SYS_STATUS,52485167,52461615,53510447,33,0,-1,-1,0,0,0,0,0,0,GLOBAL_POSITION_INT,7709536,0,0,-2090,-2093,7,2,1,5863,RAW_IMU,3414569452,20,11,-991,-7,-1,2,268,-450,238,0,4348,BATTERY_STATUS,0,0,0,32767,[65535, 65535, 65535, 65535, 65535, 65535, 65535, 65535, 65535, 65535],-1,-1,-1,100,0,0,[0, 0, 0, 0],0,0,HEARTBEAT,6,8,0,0,0,3
10.156525135040283,22.7734375,VFR_HUD,0.0,0.08223255723714828,58,0,-2.0899999141693115,-0.014093488454818726,,,,,,,,,,,,,,,,AHRS,0.007084706332534552,0.0010246068704873323,-0.0023511957842856646,0.0,0.0,0.0006735037895850837,0.0038156064692884684,GPS_RAW_INT,0,1,0,0,-17000,9999,9999,0,0,0,0,4294967295,4294967295,1000000,0,0,RC_CHANNELS,7709536,16,1502,1499,1004,1501,1000,1000,1501,1500,0,0,0,0,0,0,0,0,0,0,0,MISSION_CURRENT,0,SYS_STATUS,52485167,52461615,53510447,33,0,-1,-1,0,0,0,0,0,0,GLOBAL_POSITION_INT,7709536,0,0,-2090,-2093,7,2,1,5863,RAW_IMU,3414569452,20,11,-991,-7,-1,2,268,-450,238,0,4348,BATTERY_STATUS,0,0,0,32767,[65535, 65535, 65535, 65535, 65535, 65535, 65535, 65535, 65535, 65535],-1,-1,-1,100,0,0,[0, 0, 0, 0],0,0,HEARTBEAT,6,8,0,0,0,3
10.208090782165527,22.7734375,VFR_HUD,0.0,0.08223255723714828,58,0,-2.0899999141693115,-0.014093488454818726,,,,,,,,,,,,,,,,AHRS,0.007084706332534552,0.0010246068704873323,-0.0023511957842856646,0.0,0.0,0.0006735037895850837,0.0038156064692884684,GPS_RAW_INT,0,1,0,0,-17000,9999,9999,0,0,0,0,4294967295,4294967295,1000000,0,0,RC_CHANNELS,7709536,16,1502,1499,1004,1501,1000,1000,1501,1500,0,0,0,0,0,0,0,0,0,0,0,MISSION_CURRENT,0,SYS_STATUS,52485167,52461615,53510447,33,0,-1,-1,0,0,0,0,0,0,GLOBAL_POSITION_INT,7709536,0,0,-2090,-2093,7,2,1,5863,RAW_IMU,3414569452,20,11,-991,-7,-1,2,268,-450,238,0,4348,BATTERY_STATUS,0,0,0,32767,[65535, 65535, 65535, 65535, 65535, 65535, 65535, 65535, 65535, 65535],-1,-1,-1,100,0,0,[0, 0, 0, 0],0,0,HEARTBEAT,6,8,0,0,0,3
10.258665561676025,22.7734375,VFR_HUD,0.0,0.08223255723714828,58,0,-2.0899999141693115,-0.014093488454818726,,,,,,,,,,,,,,,,AHRS,0.007084706332534552,0.0010246068704873323,-0.0023511957842856646,0.0,0.0,0.0006735037895850837,0.0038156064692884684,GPS_RAW_INT,0,1,0,0,-17000,9999,9999,0,0,0,0,4294967295,4294967295,1000000,0,0,RC_CHANNELS,7709536,16,1502,1499,1004,1501,1000,1000,1501,1500,0,0,0,0,0,0,0,0,0,0,0,MISSION_CURRENT,0,SYS_STATUS,52485167,52461615,53510447,33,0,-1,-1,0,0,0,0,0,0,GLOBAL_POSITION_INT,7709536,0,0,-2090,-2093,7,2,1,5863,RAW_IMU,3414569452,20,11,-991,-7,-1,2,268,-450,238,0,4348,BATTERY_STATUS,0,0,0,32767,[65535, 65535, 65535, 65535, 65535, 65535, 65535, 65535, 65535, 65535],-1,-1,-1,100,0,0,[0, 0, 0, 0],0,0,HEARTBEAT,6,8,0,0,0,3
10.30959963798523,22.7734375,VFR_HUD,0.0,0.08223255723714828,58,0,-2.0899999141693115,-0.014093488454818726,,,,,,,,,,,,,,,,AHRS,0.007084706332534552,0.0010246068704873323,-0.0023511957842856646,0.0,0.0,0.0006735037895850837,0.0038156064692884684,GPS_RAW_INT,0,1,0,0,-17000,9999,9999,0,0,0,0,4294967295,4294967295,1000000,0,0,RC_CHANNELS,7709536,16,1502,1499,1004,1501,1000,1000,1501,1500,0,0,0,0,0,0,0,0,0,0,0,MISSION_CURRENT,0,SYS_STATUS,52485167,52461615,53510447,33,0,-1,-1,0,0,0,0,0,0,GLOBAL_POSITION_INT,7709536,0,0,-2090,-2093,7,2,1,5863,RAW_IMU,3414569452,20,11,-991,-7,-1,2,268,-450,238,0,4348,BATTERY_STATUS,0,0,0,32767,[65535, 65535, 65535, 65535, 65535, 65535, 65535, 65535, 65535, 65535],-1,-1,-1,100,0,0,[0, 0, 0, 0],0,0,HEARTBEAT,6,8,0,0,0,3
10.360224723815918,22.7734375,VFR_HUD,0.0,0.08223255723714828,58,0,-2.0899999141693115,-0.014093488454818726,,,,,,,,,,,,,,,,AHRS,0.007084706332534552,0.0010246068704873323,-0.0023511957842856646,0.0,0.0,0.0006735037895850837,0.0038156064692884684,GPS_RAW_INT,0,1,0,0,-17000,9999,9999,0,0,0,0,4294967295,4294967295,1000000,0,0,RC_CHANNELS,7709536,16,1502,1499,1004,1501,1000,1000,1501,1500,0,0,0,0,0,0,0,0,0,0,0,MISSION_CURRENT,0,SYS_STATUS,52485167,52461615,53510447,33,0,-1,-1,0,0,0,0,0,0,GLOBAL_POSITION_INT,7709536,0,0,-2090,-2093,7,2,1,5863,RAW_IMU,3414569452,20,11,-991,-7,-1,2,268,-450,238,0,4348,BATTERY_STATUS,0,0,0,32767,[65535, 65535, 65535, 65535, 65535, 65535, 65535, 65535, 65535, 65535],-1,-1,-1,100,0,0,[0, 0, 0, 0],0,0,HEARTBEAT,6,8,0,0,0,3
10.410939931869507,22.7734375,VFR_HUD,0.0,0.08223255723714828,58,0,-2.0899999141693115,-0.014093488454818726,,,,,,,,,,,,,,,,AHRS,0.007084706332534552,0.0010246068704873323,-0.0023511957842856646,0.0,0.0,0.0006735037895850837,0.0038156064692884684,GPS_RAW_INT,0,1,0,0,-17000,9999,9999,0,0,0,0,4294967295,4294967295,1000000,0,0,RC_CHANNELS,7709536,16,1502,1499,1004,1501,1000,1000,1501,1500,0,0,0,0,0,0,0,0,0,0,0,MISSION_CURRENT,0,SYS_STATUS,52485167,52461615,53510447,33,0,-1,-1,0,0,0,0,0,0,GLOBAL_POSITION_INT,7709536,0,0,-2090,-2093,7,2,1,5863,RAW_IMU,3414569452,20,11,-991,-7,-1,2,268,-450,238,0,4348,BATTERY_STATUS,0,0,0,32767,[65535, 65535, 65535, 65535, 65535, 65535, 65535, 65535, 65535, 65535],-1,-1,-1,100,0,0,[0, 0, 0, 0],0,0,HEARTBEAT,6,8,0,0,0,3
10.462554454803467,22.7734375,VFR_HUD,0.0,0.08223255723714828,58,0,-2.0899999141693115,-0.014093488454818726,,,,,,,,,,,,,,,,AHRS,0.007084706332534552,0.0010246068704873323,-0.0023511957842856646,0.0,0.0,0.0006735037895850837,0.0038156064692884684,GPS_RAW_INT,0,1,0,0,-17000,9999,9999,0,0,0,0,4294967295,4294967295,1000000,0,0,RC_CHANNELS,7709536,16,1502,1499,1004,1501,1000,1000,1501,1500,0,0,0,0,0,0,0,0,0,0,0,MISSION_CURRENT,0,SYS_STATUS,52485167,52461615,53510447,33,0,-1,-1,0,0,0,0,0,0,GLOBAL_POSITION_INT,7709536,0,0,-2090,-2093,7,2,1,5863,RAW_IMU,3414569452,20,11,-991,-7,-1,2,268,-450,238,0,4348,BATTERY_STATUS,0,0,0,32767,[65535, 65535, 65535, 65535, 65535, 65535, 65535, 65535, 65535, 65535],-1,-1,-1,100,0,0,[0, 0, 0, 0],0,0,HEARTBEAT,6,8,0,0,0,3
10.513384580612183,22.7734375,VFR_HUD,0.0,0.08223255723714828,58,0,-2.0899999141693115,-0.014093488454818726,,,,,,,,,,,,,,,,AHRS,0.007084706332534552,0.0010246068704873323,-0.0023511957842856646,0.0,0.0,0.0006735037895850837,0.0038156064692884684,GPS_RAW_INT,0,1,0,0,-17000,9999,9999,0,0,0,0,4294967295,4294967295,1000000,0,0,RC_CHANNELS,7709536,16,1502,1499,1004,1501,1000,1000,1501,1500,0,0,0,0,0,0,0,0,0,0,0,MISSION_CURRENT,0,SYS_STATUS,52485167,52461615,53510447,33,0,-1,-1,0,0,0,0,0,0,GLOBAL_POSITION_INT,7709536,0,0,-2090,-2093,7,2,1,5863,RAW_IMU,3414569452,20,11,-991,-7,-1,2,268,-450,238,0,4348,BATTERY_STATUS,0,0,0,32767,[65535, 65535, 65535, 65535, 65535, 65535, 65535, 65535, 65535, 65535],-1,-1,-1,100,0,0,[0, 0, 0, 0],0,0,HEARTBEAT,6,8,0,0,0,3
10.564358234405518,22.7734375,VFR_HUD,0.0,0.08223255723714828,58,0,-2.0899999141693115,-0.014093488454818726,,,,,,,,,,,,,,,,AHRS,0.007084706332534552,0.0010246068704873323,-0.0023511957842856646,0.0,0.0,0.0006735037895850837,0.0038156064692884684,GPS_RAW_INT,0,1,0,0,-17000,9999,9999,0,0,0,0,4294967295,4294967295,1000000,0,0,RC_CHANNELS,7709536,16,1502,1499,1004,1501,1000,1000,1501,1500,0,0,0,0,0,0,0,0,0,0,0,MISSION_CURRENT,0,SYS_STATUS,52485167,52461615,53510447,33,0,-1,-1,0,0,0,0,0,0,GLOBAL_POSITION_INT,7709536,0,0,-2090,-2093,7,2,1,5863,RAW_IMU,3414569452,20,11,-991,-7,-1,2,268,-450,238,0,4348,BATTERY_STATUS,0,0,0,32767,[65535, 65535, 65535, 65535, 65535, 65535, 65535, 65535, 65535, 65535],-1,-1,-1,100,0,0,[0, 0, 0, 0],0,0,HEARTBEAT,6,8,0,0,0,3
10.61925745010376,22.7734375,VFR_HUD,0.0,0.08223255723714828,58,0,-2.0899999141693115,-0.014093488454818726,,,,,,,,,,,,,,,,AHRS,0.007084706332534552,0.0010246068704873323,-0.0023511957842856646,0.0,0.0,0.0006735037895850837,0.0038156064692884684,GPS_RAW_INT,0,1,0,0,-17000,9999,9999,0,0,0,0,4294967295,4294967295,1000000,0,0,RC_CHANNELS,7709536,16,1502,1499,1004,1501,1000,1000,1501,1500,0,0,0,0,0,0,0,0,0,0,0,MISSION_CURRENT,0,SYS_STATUS,52485167,52461615,53510447,33,0,-1,-1,0,0,0,0,0,0,GLOBAL_POSITION_INT,7709536,0,0,-2090,-2093,7,2,1,5863,RAW_IMU,3414569452,20,11,-991,-7,-1,2,268,-450,238,0,4348,BATTERY_STATUS,0,0,0,32767,[65535, 65535, 65535, 65535, 65535, 65535, 65535, 65535, 65535, 65535],-1,-1,-1,100,0,0,[0, 0, 0, 0],0,0,HEARTBEAT,6,8,0,0,0,3
10.670134544372559,22.7734375,VFR_HUD,0.0,0.08223255723714828,58,0,-2.0899999141693115,-0.014093488454818726,,,,,,,,,,,,,,,,AHRS,0.007084706332534552,0.0010246068704873323,-0.0023511957842856646,0.0,0.0,0.0006735037895850837,0.0038156064692884684,GPS_RAW_INT,0,1,0,0,-17000,9999,9999,0,0,0,0,4294967295,4294967295,1000000,0,0,RC_CHANNELS,7709536,16,1502,1499,1004,1501,1000,1000,1501,1500,0,0,0,0,0,0,0,0,0,0,0,MISSION_CURRENT,0,SYS_STATUS,52485167,52461615,53510447,33,0,-1,-1,0,0,0,0,0,0,GLOBAL_POSITION_INT,7709536,0,0,-2090,-2093,7,2,1,5863,RAW_IMU,3414569452,20,11,-991,-7,-1,2,268,-450,238,0,4348,BATTERY_STATUS,0,0,0,32767,[65535, 65535, 65535, 65535, 65535, 65535, 65535, 65535, 65535, 65535],-1,-1,-1,100,0,0,[0, 0, 0, 0],0,0,HEARTBEAT,6,8,0,0,0,3
10.721376180648804,22.7734375,VFR_HUD,0.0,0.08223255723714828,58,0,-2.0899999141693115,-0.014093488454818726,,,,,,,,,,,,,,,,AHRS,0.007084706332534552,0.0010246068704873323,-0.0023511957842856646,0.0,0.0,0.0006735037895850837,0.0038156064692884684,GPS_RAW_INT,0,1,0,0,-17000,9999,9999,0,0,0,0,4294967295,4294967295,1000000,0,0,RC_CHANNELS,7709536,16,1502,1499,1004,1501,1000,1000,1501,1500,0,0,0,0,0,0,0,0,0,0,0,MISSION_CURRENT,0,SYS_STATUS,52485167,52461615,53510447,34,0,-1,-1,0,0,0,0,0,0,GLOBAL_POSITION_INT,7710536,0,0,-1990,-1991,8,2,0,5863,RAW_IMU,3414569452,20,11,-991,-7,-1,2,268,-450,238,0,4348,BATTERY_STATUS,0,0,0,32767,[65535, 65535, 65535, 65535, 65535, 65535, 65535, 65535, 65535, 65535],-1,-1,-1,100,0,0,[0, 0, 0, 0],0,0,HEARTBEAT,10,3,193,0,4,3
10.77271032333374,22.78125,VFR_HUD,0.0,0.08764035999774933,58,0,-1.9900000095367432,0.00244817603379488,,,,,,,,,,,,,,,,AHRS,0.007084706332534552,0.0010246068704873323,-0.0023511957842856646,0.0,0.0,0.0006735037895850837,0.0038156064692884684,GPS_RAW_INT,0,1,0,0,-17000,9999,9999,0,0,0,0,4294967295,4294967295,1000000,0,0,RC_CHANNELS,7710536,16,1501,1500,1004,1501,1000,1000,1500,1501,0,0,0,0,0,0,0,0,0,0,0,MISSION_CURRENT,0,SYS_STATUS,52485167,52461615,53510447,34,0,-1,-1,0,0,0,0,0,0,GLOBAL_POSITION_INT,7710536,0,0,-1990,-1991,8,2,0,5863,RAW_IMU,3415569435,20,11,-992,-6,0,1,269,-450,241,0,4348,BATTERY_STATUS,0,0,0,32767,[65535, 65535, 65535, 65535, 65535, 65535, 65535, 65535, 65535, 65535],-1,-1,-1,100,0,0,[0, 0, 0, 0],0,0,HEARTBEAT,10,3,193,0,4,3
10.826740026473999,22.78125,VFR_HUD,0.0,0.08764035999774933,58,0,-1.9900000095367432,0.00244817603379488,,,,,,,,,,,,,,,,AHRS,0.007081886753439903,0.0010247260797768831,-0.00235005677677691,0.0,0.0,0.0005362582160159945,0.0025785183534026146,GPS_RAW_INT,0,1,0,0,-17000,9999,9999,0,0,0,0,4294967295,4294967295,1000000,0,0,RC_CHANNELS,7710536,16,1501,1500,1004,1501,1000,1000,1500,1501,0,0,0,0,0,0,0,0,0,0,0,MISSION_CURRENT,0,SYS_STATUS,52485167,52461615,53510447,34,0,-1,-1,0,0,0,0,0,0,GLOBAL_POSITION_INT,7710536,0,0,-1990,-1991,8,2,0,5863,RAW_IMU,3415569435,20,11,-992,-6,0,1,269,-450,241,0,4348,BATTERY_STATUS,0,0,0,32767,[65535, 65535, 65535, 65535, 65535, 65535, 65535, 65535, 65535, 65535],-1,-1,-1,100,0,0,[0, 0, 0, 0],0,0,HEARTBEAT,10,3,193,0,4,3
10.877444744110107,22.7734375,VFR_HUD,0.0,0.08764035999774933,58,0,-1.9900000095367432,0.00244817603379488,,,,,,,,,,,,,,,,AHRS,0.007081886753439903,0.0010247260797768831,-0.00235005677677691,0.0,0.0,0.0005362582160159945,0.0025785183534026146,GPS_RAW_INT,0,1,0,0,-17000,9999,9999,0,0,0,0,4294967295,4294967295,1000000,0,0,RC_CHANNELS,7710536,16,1501,1500,1004,1501,1000,1000,1500,1501,0,0,0,0,0,0,0,0,0,0,0,MISSION_CURRENT,0,SYS_STATUS,52485167,52461615,53510447,34,0,-1,-1,0,0,0,0,0,0,GLOBAL_POSITION_INT,7710536,0,0,-1990,-1991,8,2,0,5863,RAW_IMU,3415569435,20,11,-992,-6,0,1,269,-450,241,0,4348,BATTERY_STATUS,0,0,0,32767,[65535, 65535, 65535, 65535, 65535, 65535, 65535, 65535, 65535, 65535],-1,-1,-1,100,0,0,[0, 0, 0, 0],0,0,HEARTBEAT,10,3,193,0,4,3
10.92856502532959,22.7734375,VFR_HUD,0.0,0.08764035999774933,58,0,-1.9900000095367432,0.00244817603379488,,,,,,,,,,,,,,,,AHRS,0.007081886753439903,0.0010247260797768831,-0.00235005677677691,0.0,0.0,0.0005362582160159945,0.0025785183534026146,GPS_RAW_INT,0,1,0,0,-17000,9999,9999,0,0,0,0,4294967295,4294967295,1000000,0,0,RC_CHANNELS,7710536,16,1501,1500,1004,1501,1000,1000,1500,1501,0,0,0,0,0,0,0,0,0,0,0,MISSION_CURRENT,0,SYS_STATUS,52485167,52461615,53510447,34,0,-1,-1,0,0,0,0,0,0,GLOBAL_POSITION_INT,7710536,0,0,-1990,-1991,8,2,0,5863,RAW_IMU,3415569435,20,11,-992,-6,0,1,269,-450,241,0,4348,BATTERY_STATUS,0,0,0,32767,[65535, 65535, 65535, 65535, 65535, 65535, 65535, 65535, 65535, 65535],-1,-1,-1,100,0,0,[0, 0, 0, 0],0,0,HEARTBEAT,10,3,193,0,4,3
10.979394435882568,22.7734375,VFR_HUD,0.0,0.08764035999774933,58,0,-1.9900000095367432,0.00244817603379488,,,,,,,,,,,,,,,,AHRS,0.007081886753439903,0.0010247260797768831,-0.00235005677677691,0.0,0.0,0.0005362582160159945,0.0025785183534026146,GPS_RAW_INT,0,1,0,0,-17000,9999,9999,0,0,0,0,4294967295,4294967295,1000000,0,0,RC_CHANNELS,7710536,16,1501,1500,1004,1501,1000,1000,1500,1501,0,0,0,0,0,0,0,0,0,0,0,MISSION_CURRENT,0,SYS_STATUS,52485167,52461615,53510447,34,0,-1,-1,0,0,0,0,0,0,GLOBAL_POSITION_INT,7710536,0,0,-1990,-1991,8,2,0,5863,RAW_IMU,3415569435,20,11,-992,-6,0,1,269,-450,241,0,4348,BATTERY_STATUS,0,0,0,32767,[65535, 65535, 65535, 65535, 65535, 65535, 65535, 65535, 65535, 65535],-1,-1,-1,100,0,0,[0, 0, 0, 0],0,0,HEARTBEAT,6,8,0,0,0,3
11.030817985534668,22.7734375,VFR_HUD,0.0,0.08764035999774933,58,0,-1.9900000095367432,0.00244817603379488,,,,,,,,,,,,,,,,AHRS,0.007081886753439903,0.0010247260797768831,-0.00235005677677691,0.0,0.0,0.0005362582160159945,0.0025785183534026146,GPS_RAW_INT,0,1,0,0,-17000,9999,9999,0,0,0,0,4294967295,4294967295,1000000,0,0,RC_CHANNELS,7710536,16,1501,1500,1004,1501,1000,1000,1500,1501,0,0,0,0,0,0,0,0,0,0,0,MISSION_CURRENT,0,SYS_STATUS,52485167,52461615,53510447,34,0,-1,-1,0,0,0,0,0,0,GLOBAL_POSITION_INT,7710536,0,0,-1990,-1991,8,2,0,5863,RAW_IMU,3415569435,20,11,-992,-6,0,1,269,-450,241,0,4348,BATTERY_STATUS,0,0,0,32767,[65535, 65535, 65535, 65535, 65535, 65535, 65535, 65535, 65535, 65535],-1,-1,-1,100,0,0,[0, 0, 0, 0],0,0,HEARTBEAT,6,8,0,0,0,3
11.08206295967102,22.7734375,VFR_HUD,0.0,0.08764035999774933,58,0,-1.9900000095367432,0.00244817603379488,,,,,,,,,,,,,,,,AHRS,0.007081886753439903,0.0010247260797768831,-0.00235005677677691,0.0,0.0,0.0005362582160159945,0.0025785183534026146,GPS_RAW_INT,0,1,0,0,-17000,9999,9999,0,0,0,0,4294967295,4294967295,1000000,0,0,RC_CHANNELS,7710536,16,1501,1500,1004,1501,1000,1000,1500,1501,0,0,0,0,0,0,0,0,0,0,0,MISSION_CURRENT,0,SYS_STATUS,52485167,52461615,53510447,34,0,-1,-1,0,0,0,0,0,0,GLOBAL_POSITION_INT,7710536,0,0,-1990,-1991,8,2,0,5863,RAW_IMU,3415569435,20,11,-992,-6,0,1,269,-450,241,0,4348,BATTERY_STATUS,0,0,0,32767,[65535, 65535, 65535, 65535, 65535, 65535, 65535, 65535, 65535, 65535],-1,-1,-1,100,0,0,[0, 0, 0, 0],0,0,HEARTBEAT,6,8,0,0,0,3
11.132772207260132,22.78125,VFR_HUD,0.0,0.08764035999774933,58,0,-1.9900000095367432,0.00244817603379488,,,,,,,,,,,,,,,,AHRS,0.007081886753439903,0.0010247260797768831,-0.00235005677677691,0.0,0.0,0.0005362582160159945,0.0025785183534026146,GPS_RAW_INT,0,1,0,0,-17000,9999,9999,0,0,0,0,4294967295,4294967295,1000000,0,0,RC_CHANNELS,7710536,16,1501,1500,1004,1501,1000,1000,1500,1501,0,0,0,0,0,0,0,0,0,0,0,MISSION_CURRENT,0,SYS_STATUS,52485167,52461615,53510447,34,0,-1,-1,0,0,0,0,0,0,GLOBAL_POSITION_INT,7710536,0,0,-1990,-1991,8,2,0,5863,RAW_IMU,3415569435,20,11,-992,-6,0,1,269,-450,241,0,4348,BATTERY_STATUS,0,0,0,32767,[65535, 65535, 65535, 65535, 65535, 65535, 65535, 65535, 65535, 65535],-1,-1,-1,100,0,0,[0, 0, 0, 0],0,0,HEARTBEAT,6,8,0,0,0,3
11.183923482894897,22.78125,VFR_HUD,0.0,0.08764035999774933,58,0,-1.9900000095367432,0.00244817603379488,,,,,,,,,,,,,,,,AHRS,0.007081886753439903,0.0010247260797768831,-0.00235005677677691,0.0,0.0,0.0005362582160159945,0.0025785183534026146,GPS_RAW_INT,0,1,0,0,-17000,9999,9999,0,0,0,0,4294967295,4294967295,1000000,0,0,RC_CHANNELS,7710536,16,1501,1500,1004,1501,1000,1000,1500,1501,0,0,0,0,0,0,0,0,0,0,0,MISSION_CURRENT,0,SYS_STATUS,52485167,52461615,53510447,34,0,-1,-1,0,0,0,0,0,0,GLOBAL_POSITION_INT,7710536,0,0,-1990,-1991,8,2,0,5863,RAW_IMU,3415569435,20,11,-992,-6,0,1,269,-450,241,0,4348,BATTERY_STATUS,0,0,0,32767,[65535, 65535, 65535, 65535, 65535, 65535, 65535, 65535, 65535, 65535],-1,-1,-1,100,0,0,[0, 0, 0, 0],0,0,HEARTBEAT,6,8,0,0,0,3
11.235050678253174,22.78125,VFR_HUD,0.0,0.08764035999774933,58,0,-1.9900000095367432,0.00244817603379488,,,,,,,,,,,,,,,,AHRS,0.007081886753439903,0.0010247260797768831,-0.00235005677677691,0.0,0.0,0.0005362582160159945,0.0025785183534026146,GPS_RAW_INT,0,1,0,0,-17000,9999,9999,0,0,0,0,4294967295,4294967295,1000000,0,0,RC_CHANNELS,7710536,16,1501,1500,1004,1501,1000,1000,1500,1501,0,0,0,0,0,0,0,0,0,0,0,MISSION_CURRENT,0,SYS_STATUS,52485167,52461615,53510447,34,0,-1,-1,0,0,0,0,0,0,GLOBAL_POSITION_INT,7710536,0,0,-1990,-1991,8,2,0,5863,RAW_IMU,3415569435,20,11,-992,-6,0,1,269,-450,241,0,4348,BATTERY_STATUS,0,0,0,32767,[65535, 65535, 65535, 65535, 65535, 65535, 65535, 65535, 65535, 65535],-1,-1,-1,100,0,0,[0, 0, 0, 0],0,0,HEARTBEAT,6,8,0,0,0,3
11.286205530166626,22.78125,VFR_HUD,0.0,0.08764035999774933,58,0,-1.9900000095367432,0.00244817603379488,,,,,,,,,,,,,,,,AHRS,0.007081886753439903,0.0010247260797768831,-0.00235005677677691,0.0,0.0,0.0005362582160159945,0.0025785183534026146,GPS_RAW_INT,0,1,0,0,-17000,9999,9999,0,0,0,0,4294967295,4294967295,1000000,0,0,RC_CHANNELS,7710536,16,1501,1500,1004,1501,1000,1000,1500,1501,0,0,0,0,0,0,0,0,0,0,0,MISSION_CURRENT,0,SYS_STATUS,52485167,52461615,53510447,34,0,-1,-1,0,0,0,0,0,0,GLOBAL_POSITION_INT,7710536,0,0,-1990,-1991,8,2,0,5863,RAW_IMU,3415569435,20,11,-992,-6,0,1,269,-450,241,0,4348,BATTERY_STATUS,0,0,0,32767,[65535, 65535, 65535, 65535, 65535, 65535, 65535, 65535, 65535, 65535],-1,-1,-1,100,0,0,[0, 0, 0, 0],0,0,HEARTBEAT,6,8,0,0,0,3
11.33690857887268,22.78125,VFR_HUD,0.0,0.08764035999774933,58,0,-1.9900000095367432,0.00244817603379488,,,,,,,,,,,,,,,,AHRS,0.007081886753439903,0.0010247260797768831,-0.00235005677677691,0.0,0.0,0.0005362582160159945,0.0025785183534026146,GPS_RAW_INT,0,1,0,0,-17000,9999,9999,0,0,0,0,4294967295,4294967295,1000000,0,0,RC_CHANNELS,7710536,16,1501,1500,1004,1501,1000,1000,1500,1501,0,0,0,0,0,0,0,0,0,0,0,MISSION_CURRENT,0,SYS_STATUS,52485167,52461615,53510447,34,0,-1,-1,0,0,0,0,0,0,GLOBAL_POSITION_INT,7710536,0,0,-1990,-1991,8,2,0,5863,RAW_IMU,3415569435,20,11,-992,-6,0,1,269,-450,241,0,4348,BATTERY_STATUS,0,0,0,32767,[65535, 65535, 65535, 65535, 65535, 65535, 65535, 65535, 65535, 65535],-1,-1,-1,100,0,0,[0, 0, 0, 0],0,0,HEARTBEAT,6,8,0,0,0,3
11.387605905532837,22.78125,VFR_HUD,0.0,0.08764035999774933,58,0,-1.9900000095367432,0.00244817603379488,,,,,,,,,,,,,,,,AHRS,0.007081886753439903,0.0010247260797768831,-0.00235005677677691,0.0,0.0,0.0005362582160159945,0.0025785183534026146,GPS_RAW_INT,0,1,0,0,-17000,9999,9999,0,0,0,0,4294967295,4294967295,1000000,0,0,RC_CHANNELS,7710536,16,1501,1500,1004,1501,1000,1000,1500,1501,0,0,0,0,0,0,0,0,0,0,0,MISSION_CURRENT,0,SYS_STATUS,52485167,52461615,53510447,34,0,-1,-1,0,0,0,0,0,0,GLOBAL_POSITION_INT,7710536,0,0,-1990,-1991,8,2,0,5863,RAW_IMU,3415569435,20,11,-992,-6,0,1,269,-450,241,0,4348,BATTERY_STATUS,0,0,0,32767,[65535, 65535, 65535, 65535, 65535, 65535, 65535, 65535, 65535, 65535],-1,-1,-1,100,0,0,[0, 0, 0, 0],0,0,HEARTBEAT,6,8,0,0,0,3
11.438617944717407,22.78125,VFR_HUD,0.0,0.08764035999774933,58,0,-1.9900000095367432,0.00244817603379488,,,,,,,,,,,,,,,,AHRS,0.007081886753439903,0.0010247260797768831,-0.00235005677677691,0.0,0.0,0.0005362582160159945,0.0025785183534026146,GPS_RAW_INT,0,1,0,0,-17000,9999,9999,0,0,0,0,4294967295,4294967295,1000000,0,0,RC_CHANNELS,7710536,16,1501,1500,1004,1501,1000,1000,1500,1501,0,0,0,0,0,0,0,0,0,0,0,MISSION_CURRENT,0,SYS_STATUS,52485167,52461615,53510447,34,0,-1,-1,0,0,0,0,0,0,GLOBAL_POSITION_INT,7710536,0,0,-1990,-1991,8,2,0,5863,RAW_IMU,3415569435,20,11,-992,-6,0,1,269,-450,241,0,4348,BATTERY_STATUS,0,0,0,32767,[65535, 65535, 65535, 65535, 65535, 65535, 65535, 65535, 65535, 65535],-1,-1,-1,100,0,0,[0, 0, 0, 0],0,0,HEARTBEAT,6,8,0,0,0,3
11.489367246627808,22.78125,VFR_HUD,0.0,0.08764035999774933,58,0,-1.9900000095367432,0.00244817603379488,,,,,,,,,,,,,,,,AHRS,0.007081886753439903,0.0010247260797768831,-0.00235005677677691,0.0,0.0,0.0005362582160159945,0.0025785183534026146,GPS_RAW_INT,0,1,0,0,-17000,9999,9999,0,0,0,0,4294967295,4294967295,1000000,0,0,RC_CHANNELS,7710536,16,1501,1500,1004,1501,1000,1000,1500,1501,0,0,0,0,0,0,0,0,0,0,0,MISSION_CURRENT,0,SYS_STATUS,52485167,52461615,53510447,34,0,-1,-1,0,0,0,0,0,0,GLOBAL_POSITION_INT,7710536,0,0,-1990,-1991,8,2,0,5863,RAW_IMU,3415569435,20,11,-992,-6,0,1,269,-450,241,0,4348,BATTERY_STATUS,0,0,0,32767,[65535, 65535, 65535, 65535, 65535, 65535, 65535, 65535, 65535, 65535],-1,-1,-1,100,0,0,[0, 0, 0, 0],0,0,HEARTBEAT,6,8,0,0,0,3
11.5404634475708,22.78125,VFR_HUD,0.0,0.08764035999774933,58,0,-1.9900000095367432,0.00244817603379488,,,,,,,,,,,,,,,,AHRS,0.007081886753439903,0.0010247260797768831,-0.00235005677677691,0.0,0.0,0.0005362582160159945,0.0025785183534026146,GPS_RAW_INT,0,1,0,0,-17000,9999,9999,0,0,0,0,4294967295,4294967295,1000000,0,0,RC_CHANNELS,7710536,16,1501,1500,1004,1501,1000,1000,1500,1501,0,0,0,0,0,0,0,0,0,0,0,MISSION_CURRENT,0,SYS_STATUS,52485167,52461615,53510447,34,0,-1,-1,0,0,0,0,0,0,GLOBAL_POSITION_INT,7710536,0,0,-1990,-1991,8,2,0,5863,RAW_IMU,3415569435,20,11,-992,-6,0,1,269,-450,241,0,4348,BATTERY_STATUS,0,0,0,32767,[65535, 65535, 65535, 65535, 65535, 65535, 65535, 65535, 65535, 65535],-1,-1,-1,100,0,0,[0, 0, 0, 0],0,0,HEARTBEAT,6,8,0,0,0,3
11.591267108917236,22.78125,VFR_HUD,0.0,0.08764035999774933,58,0,-1.9900000095367432,0.00244817603379488,,,,,,,,,,,,,,,,AHRS,0.007081886753439903,0.0010247260797768831,-0.00235005677677691,0.0,0.0,0.0005362582160159945,0.0025785183534026146,GPS_RAW_INT,0,1,0,0,-17000,9999,9999,0,0,0,0,4294967295,4294967295,1000000,0,0,RC_CHANNELS,7710536,16,1501,1500,1004,1501,1000,1000,1500,1501,0,0,0,0,0,0,0,0,0,0,0,MISSION_CURRENT,0,SYS_STATUS,52485167,52461615,53510447,34,0,-1,-1,0,0,0,0,0,0,GLOBAL_POSITION_INT,7710536,0,0,-1990,-1991,8,2,0,5863,RAW_IMU,3415569435,20,11,-992,-6,0,1,269,-450,241,0,4348,BATTERY_STATUS,0,0,0,32767,[65535, 65535, 65535, 65535, 65535, 65535, 65535, 65535, 65535, 65535],-1,-1,-1,100,0,0,[0, 0, 0, 0],0,0,HEARTBEAT,6,8,0,0,0,3
11.641918897628784,22.7890625,VFR_HUD,0.0,0.08764035999774933,58,0,-1.9900000095367432,0.00244817603379488,,,,,,,,,,,,,,,,AHRS,0.007081886753439903,0.0010247260797768831,-0.00235005677677691,0.0,0.0,0.0005362582160159945,0.0025785183534026146,GPS_RAW_INT,0,1,0,0,-17000,9999,9999,0,0,0,0,4294967295,4294967295,1000000,0,0,RC_CHANNELS,7710536,16,1501,1500,1004,1501,1000,1000,1500,1501,0,0,0,0,0,0,0,0,0,0,0,MISSION_CURRENT,0,SYS_STATUS,52485167,52461615,53510447,34,0,-1,-1,0,0,0,0,0,0,GLOBAL_POSITION_INT,7710536,0,0,-1990,-1991,8,2,0,5863,RAW_IMU,3415569435,20,11,-992,-6,0,1,269,-450,241,0,4348,BATTERY_STATUS,0,0,0,32767,[65535, 65535, 65535, 65535, 65535, 65535, 65535, 65535, 65535, 65535],-1,-1,-1,100,0,0,[0, 0, 0, 0],0,0,HEARTBEAT,6,8,0,0,0,3
11.693078756332397,22.7890625,VFR_HUD,0.0,0.08764035999774933,58,0,-1.9900000095367432,0.00244817603379488,,,,,,,,,,,,,,,,AHRS,0.007081886753439903,0.0010247260797768831,-0.00235005677677691,0.0,0.0,0.0005362582160159945,0.0025785183534026146,GPS_RAW_INT,0,1,0,0,-17000,9999,9999,0,0,0,0,4294967295,4294967295,1000000,0,0,RC_CHANNELS,7710536,16,1501,1500,1004,1501,1000,1000,1500,1501,0,0,0,0,0,0,0,0,0,0,0,MISSION_CURRENT,0,SYS_STATUS,52485167,52461615,53510447,34,0,-1,-1,0,0,0,0,0,0,GLOBAL_POSITION_INT,7710536,0,0,-1990,-1991,8,2,0,5863,RAW_IMU,3415569435,20,11,-992,-6,0,1,269,-450,241,0,4348,BATTERY_STATUS,0,0,0,32767,[65535, 65535, 65535, 65535, 65535, 65535, 65535, 65535, 65535, 65535],-1,-1,-1,100,0,0,[0, 0, 0, 0],0,0,HEARTBEAT,6,8,0,0,0,3
11.743764162063599,22.7890625,VFR_HUD,0.0,0.08764035999774933,58,0,-1.9900000095367432,0.00244817603379488,,,,,,,,,,,,,,,,AHRS,0.007081886753439903,0.0010247260797768831,-0.00235005677677691,0.0,0.0,0.0005362582160159945,0.0025785183534026146,GPS_RAW_INT,0,1,0,0,-17000,9999,9999,0,0,0,0,4294967295,4294967295,1000000,0,0,RC_CHANNELS,7710536,16,1501,1500,1004,1501,1000,1000,1500,1501,0,0,0,0,0,0,0,0,0,0,0,MISSION_CURRENT,0,SYS_STATUS,52485167,52461615,53510447,34,0,-1,-1,0,0,0,0,0,0,GLOBAL_POSITION_INT,7710536,0,0,-1990,-1991,8,2,0,5863,RAW_IMU,3415569435,20,11,-992,-6,0,1,269,-450,241,0,4348,BATTERY_STATUS,0,0,0,32767,[65535, 65535, 65535, 65535, 65535, 65535, 65535, 65535, 65535, 65535],-1,-1,-1,100,0,0,[0, 0, 0, 0],0,0,HEARTBEAT,6,8,0,0,0,3
11.794754028320312,22.7890625,VFR_HUD,0.0,0.08764035999774933,58,0,-1.9900000095367432,0.00244817603379488,,,,,,,,,,,,,,,,AHRS,0.007081886753439903,0.0010247260797768831,-0.00235005677677691,0.0,0.0,0.0005362582160159945,0.0025785183534026146,GPS_RAW_INT,0,1,0,0,-17000,9999,9999,0,0,0,0,4294967295,4294967295,1000000,0,0,RC_CHANNELS,7710536,16,1501,1500,1004,1501,1000,1000,1500,1501,0,0,0,0,0,0,0,0,0,0,0,MISSION_CURRENT,0,SYS_STATUS,52485167,52461615,53510447,34,0,-1,-1,0,0,0,0,0,0,GLOBAL_POSITION_INT,7710536,0,0,-1990,-1991,8,2,0,5863,RAW_IMU,3415569435,20,11,-992,-6,0,1,269,-450,241,0,4348,BATTERY_STATUS,0,0,0,32767,[65535, 65535, 65535, 65535, 65535, 65535, 65535, 65535, 65535, 65535],-1,-1,-1,100,0,0,[0, 0, 0, 0],0,0,HEARTBEAT,6,8,0,0,0,3
11.845937490463257,22.7890625,VFR_HUD,0.0,0.08764035999774933,58,0,-1.9900000095367432,0.00244817603379488,,,,,,,,,,,,,,,,AHRS,0.007081886753439903,0.0010247260797768831,-0.00235005677677691,0.0,0.0,0.0005362582160159945,0.0025785183534026146,GPS_RAW_INT,0,1,0,0,-17000,9999,9999,0,0,0,0,4294967295,4294967295,1000000,0,0,RC_CHANNELS,7710536,16,1501,1500,1004,1501,1000,1000,1500,1501,0,0,0,0,0,0,0,0,0,0,0,MISSION_CURRENT,0,SYS_STATUS,52485167,52461615,53510447,34,0,-1,-1,0,0,0,0,0,0,GLOBAL_POSITION_INT,7710536,0,0,-1990,-1991,8,2,0,5863,RAW_IMU,3415569435,20,11,-992,-6,0,1,269,-450,241,0,4348,BATTERY_STATUS,0,0,0,32767,[65535, 65535, 65535, 65535, 65535, 65535, 65535, 65535, 65535, 65535],-1,-1,-1,100,0,0,[0, 0, 0, 0],0,0,HEARTBEAT,6,8,0,0,0,3
11.898566007614136,22.7890625,VFR_HUD,0.0,0.08764035999774933,58,0,-1.9900000095367432,0.00244817603379488,,,,,,,,,,,,,,,,AHRS,0.007081886753439903,0.0010247260797768831,-0.00235005677677691,0.0,0.0,0.0005362582160159945,0.0025785183534026146,GPS_RAW_INT,0,1,0,0,-17000,9999,9999,0,0,0,0,4294967295,4294967295,1000000,0,0,RC_CHANNELS,7710536,16,1501,1500,1004,1501,1000,1000,1500,1501,0,0,0,0,0,0,0,0,0,0,0,MISSION_CURRENT,0,SYS_STATUS,52485167,52461615,53510447,34,0,-1,-1,0,0,0,0,0,0,GLOBAL_POSITION_INT,7711536,0,0,-2210,-2216,8,2,-1,5861,RAW_IMU,3415569435,20,11,-992,-6,0,1,269,-450,241,0,4348,BATTERY_STATUS,0,0,0,32767,[65535, 65535, 65535, 65535, 65535, 65535, 65535, 65535, 65535, 65535],-1,-1,-1,100,0,0,[0, 0, 0, 0],0,0,HEARTBEAT,10,3,193,0,4,3
11.949434518814087,22.7890625,VFR_HUD,0.0,0.09235189110040665,58,0,-2.2100000381469727,0.015119250863790512,,,,,,,,,,,,,,,,AHRS,0.007081886753439903,0.0010247260797768831,-0.00235005677677691,0.0,0.0,0.0005362582160159945,0.0025785183534026146,GPS_RAW_INT,0,1,0,0,-17000,9999,9999,0,0,0,0,4294967295,4294967295,1000000,0,0,RC_CHANNELS,7711536,16,1501,1499,1004,1502,1000,1000,1500,1500,0,0,0,0,0,0,0,0,0,0,0,MISSION_CURRENT,0,SYS_STATUS,52485167,52461615,53510447,34,0,-1,-1,0,0,0,0,0,0,GLOBAL_POSITION_INT,7711536,0,0,-2210,-2216,8,2,-1,5861,RAW_IMU,3415569435,20,11,-992,-6,0,1,269,-450,241,0,4348,BATTERY_STATUS,0,0,0,32767,[65535, 65535, 65535, 65535, 65535, 65535, 65535, 65535, 65535, 65535],-1,-1,-1,100,0,0,[0, 0, 0, 0],0,0,HEARTBEAT,10,3,193,0,4,3
12.000187873840332,22.78125,VFR_HUD,0.0,0.09235189110040665,58,0,-2.2100000381469727,0.015119250863790512,,,,,,,,,,,,,,,,AHRS,0.007086524274200201,0.0010259096743538976,-0.0023515294305980206,0.0,0.0,0.0004810555255971849,0.0032653999514877796,GPS_RAW_INT,0,1,0,0,-17000,9999,9999,0,0,0,0,4294967295,4294967295,1000000,0,0,RC_CHANNELS,7711536,16,1501,1499,1004,1502,1000,1000,1500,1500,0,0,0,0,0,0,0,0,0,0,0,MISSION_CURRENT,0,SYS_STATUS,52485167,52461615,53510447,34,0,-1,-1,0,0,0,0,0,0,GLOBAL_POSITION_INT,7711536,0,0,-2210,-2216,8,2,-1,5861,RAW_IMU,3416569465,20,11,-989,-6,0,1,270,-451,232,0,4349,BATTERY_STATUS,0,0,0,32767,[65535, 65535, 65535, 65535, 65535, 65535, 65535, 65535, 65535, 65535],-1,-1,-1,100,0,0,[0, 0, 0, 0],0,0,HEARTBEAT,10,3,193,0,4,3
12.06398868560791,22.78125,VFR_HUD,0.0,0.09235189110040665,58,0,-2.2100000381469727,0.015119250863790512,,,,,,,,,,,,,,,,AHRS,0.007086524274200201,0.0010259096743538976,-0.0023515294305980206,0.0,0.0,0.0004810555255971849,0.0032653999514877796,GPS_RAW_INT,0,1,0,0,-17000,9999,9999,0,0,0,0,4294967295,4294967295,1000000,0,0,RC_CHANNELS,7711536,16,1501,1499,1004,1502,1000,1000,1500,1500,0,0,0,0,0,0,0,0,0,0,0,MISSION_CURRENT,0,SYS_STATUS,52485167,52461615,53510447,34,0,-1,-1,0,0,0,0,0,0,GLOBAL_POSITION_INT,7711536,0,0,-2210,-2216,8,2,-1,5861,RAW_IMU,3416569465,20,11,-989,-6,0,1,270,-451,232,0,4349,BATTERY_STATUS,0,0,0,32767,[65535, 65535, 65535, 65535, 65535, 65535, 65535, 65535, 65535, 65535],-1,-1,-1,100,0,0,[0, 0, 0, 0],0,0,HEARTBEAT,10,3,193,0,4,3
12.120837211608887,22.7890625,VFR_HUD,0.0,0.09235189110040665,58,0,-2.2100000381469727,0.015119250863790512,,,,,,,,,,,,,,,,AHRS,0.007086524274200201,0.0010259096743538976,-0.0023515294305980206,0.0,0.0,0.0004810555255971849,0.0032653999514877796,GPS_RAW_INT,0,1,0,0,-17000,9999,9999,0,0,0,0,4294967295,4294967295,1000000,0,0,RC_CHANNELS,7711536,16,1501,1499,1004,1502,1000,1000,1500,1500,0,0,0,0,0,0,0,0,0,0,0,MISSION_CURRENT,0,SYS_STATUS,52485167,52461615,53510447,34,0,-1,-1,0,0,0,0,0,0,GLOBAL_POSITION_INT,7711536,0,0,-2210,-2216,8,2,-1,5861,RAW_IMU,3416569465,20,11,-989,-6,0,1,270,-451,232,0,4349,BATTERY_STATUS,0,0,0,32767,[65535, 65535, 65535, 65535, 65535, 65535, 65535, 65535, 65535, 65535],-1,-1,-1,100,0,0,[0, 0, 0, 0],0,0,HEARTBEAT,10,3,193,0,4,3
12.171979904174805,22.7890625,VFR_HUD,0.0,0.09235189110040665,58,0,-2.2100000381469727,0.015119250863790512,,,,,,,,,,,,,,,,AHRS,0.007086524274200201,0.0010259096743538976,-0.0023515294305980206,0.0,0.0,0.0004810555255971849,0.0032653999514877796,GPS_RAW_INT,0,1,0,0,-17000,9999,9999,0,0,0,0,4294967295,4294967295,1000000,0,0,RC_CHANNELS,7711536,16,1501,1499,1004,1502,1000,1000,1500,1500,0,0,0,0,0,0,0,0,0,0,0,MISSION_CURRENT,0,SYS_STATUS,52485167,52461615,53510447,34,0,-1,-1,0,0,0,0,0,0,GLOBAL_POSITION_INT,7711536,0,0,-2210,-2216,8,2,-1,5861,RAW_IMU,3416569465,20,11,-989,-6,0,1,270,-451,232,0,4349,BATTERY_STATUS,0,0,0,32767,[65535, 65535, 65535, 65535, 65535, 65535, 65535, 65535, 65535, 65535],-1,-1,-1,100,0,0,[0, 0, 0, 0],0,0,HEARTBEAT,10,3,193,0,4,3
12.222667694091797,22.7890625,VFR_HUD,0.0,0.09235189110040665,58,0,-2.2100000381469727,0.015119250863790512,,,,,,,,,,,,,,,,AHRS,0.007086524274200201,0.0010259096743538976,-0.0023515294305980206,0.0,0.0,0.0004810555255971849,0.0032653999514877796,GPS_RAW_INT,0,1,0,0,-17000,9999,9999,0,0,0,0,4294967295,4294967295,1000000,0,0,RC_CHANNELS,7711536,16,1501,1499,1004,1502,1000,1000,1500,1500,0,0,0,0,0,0,0,0,0,0,0,MISSION_CURRENT,0,SYS_STATUS,52485167,52461615,53510447,34,0,-1,-1,0,0,0,0,0,0,GLOBAL_POSITION_INT,7711536,0,0,-2210,-2216,8,2,-1,5861,RAW_IMU,3416569465,20,11,-989,-6,0,1,270,-451,232,0,4349,BATTERY_STATUS,0,0,0,32767,[65535, 65535, 65535, 65535, 65535, 65535, 65535, 65535, 65535, 65535],-1,-1,-1,100,0,0,[0, 0, 0, 0],0,0,HEARTBEAT,6,8,0,0,0,3
12.273807048797607,22.7890625,VFR_HUD,0.0,0.09235189110040665,58,0,-2.2100000381469727,0.015119250863790512,,,,,,,,,,,,,,,,AHRS,0.007086524274200201,0.0010259096743538976,-0.0023515294305980206,0.0,0.0,0.0004810555255971849,0.0032653999514877796,GPS_RAW_INT,0,1,0,0,-17000,9999,9999,0,0,0,0,4294967295,4294967295,1000000,0,0,RC_CHANNELS,7711536,16,1501,1499,1004,1502,1000,1000,1500,1500,0,0,0,0,0,0,0,0,0,0,0,MISSION_CURRENT,0,SYS_STATUS,52485167,52461615,53510447,34,0,-1,-1,0,0,0,0,0,0,GLOBAL_POSITION_INT,7711536,0,0,-2210,-2216,8,2,-1,5861,RAW_IMU,3416569465,20,11,-989,-6,0,1,270,-451,232,0,4349,BATTERY_STATUS,0,0,0,32767,[65535, 65535, 65535, 65535, 65535, 65535, 65535, 65535, 65535, 65535],-1,-1,-1,100,0,0,[0, 0, 0, 0],0,0,HEARTBEAT,6,8,0,0,0,3
12.32454252243042,22.7890625,VFR_HUD,0.0,0.09235189110040665,58,0,-2.2100000381469727,0.015119250863790512,,,,,,,,,,,,,,,,AHRS,0.007086524274200201,0.0010259096743538976,-0.0023515294305980206,0.0,0.0,0.0004810555255971849,0.0032653999514877796,GPS_RAW_INT,0,1,0,0,-17000,9999,9999,0,0,0,0,4294967295,4294967295,1000000,0,0,RC_CHANNELS,7711536,16,1501,1499,1004,1502,1000,1000,1500,1500,0,0,0,0,0,0,0,0,0,0,0,MISSION_CURRENT,0,SYS_STATUS,52485167,52461615,53510447,34,0,-1,-1,0,0,0,0,0,0,GLOBAL_POSITION_INT,7711536,0,0,-2210,-2216,8,2,-1,5861,RAW_IMU,3416569465,20,11,-989,-6,0,1,270,-451,232,0,4349,BATTERY_STATUS,0,0,0,32767,[65535, 65535, 65535, 65535, 65535, 65535, 65535, 65535, 65535, 65535],-1,-1,-1,100,0,0,[0, 0, 0, 0],0,0,HEARTBEAT,6,8,0,0,0,3
12.375245571136475,22.7890625,VFR_HUD,0.0,0.09235189110040665,58,0,-2.2100000381469727,0.015119250863790512,,,,,,,,,,,,,,,,AHRS,0.007086524274200201,0.0010259096743538976,-0.0023515294305980206,0.0,0.0,0.0004810555255971849,0.0032653999514877796,GPS_RAW_INT,0,1,0,0,-17000,9999,9999,0,0,0,0,4294967295,4294967295,1000000,0,0,RC_CHANNELS,7711536,16,1501,1499,1004,1502,1000,1000,1500,1500,0,0,0,0,0,0,0,0,0,0,0,MISSION_CURRENT,0,SYS_STATUS,52485167,52461615,53510447,34,0,-1,-1,0,0,0,0,0,0,GLOBAL_POSITION_INT,7711536,0,0,-2210,-2216,8,2,-1,5861,RAW_IMU,3416569465,20,11,-989,-6,0,1,270,-451,232,0,4349,BATTERY_STATUS,0,0,0,32767,[65535, 65535, 65535, 65535, 65535, 65535, 65535, 65535, 65535, 65535],-1,-1,-1,100,0,0,[0, 0, 0, 0],0,0,HEARTBEAT,6,8,0,0,0,3
12.426191568374634,22.7890625,VFR_HUD,0.0,0.09235189110040665,58,0,-2.2100000381469727,0.015119250863790512,,,,,,,,,,,,,,,,AHRS,0.007086524274200201,0.0010259096743538976,-0.0023515294305980206,0.0,0.0,0.0004810555255971849,0.0032653999514877796,GPS_RAW_INT,0,1,0,0,-17000,9999,9999,0,0,0,0,4294967295,4294967295,1000000,0,0,RC_CHANNELS,7711536,16,1501,1499,1004,1502,1000,1000,1500,1500,0,0,0,0,0,0,0,0,0,0,0,MISSION_CURRENT,0,SYS_STATUS,52485167,52461615,53510447,34,0,-1,-1,0,0,0,0,0,0,GLOBAL_POSITION_INT,7711536,0,0,-2210,-2216,8,2,-1,5861,RAW_IMU,3416569465,20,11,-989,-6,0,1,270,-451,232,0,4349,BATTERY_STATUS,0,0,0,32767,[65535, 65535, 65535, 65535, 65535, 65535, 65535, 65535, 65535, 65535],-1,-1,-1,100,0,0,[0, 0, 0, 0],0,0,HEARTBEAT,6,8,0,0,0,3
12.476812839508057,22.7890625,VFR_HUD,0.0,0.09235189110040665,58,0,-2.2100000381469727,0.015119250863790512,,,,,,,,,,,,,,,,AHRS,0.007086524274200201,0.0010259096743538976,-0.0023515294305980206,0.0,0.0,0.0004810555255971849,0.0032653999514877796,GPS_RAW_INT,0,1,0,0,-17000,9999,9999,0,0,0,0,4294967295,4294967295,1000000,0,0,RC_CHANNELS,7711536,16,1501,1499,1004,1502,1000,1000,1500,1500,0,0,0,0,0,0,0,0,0,0,0,MISSION_CURRENT,0,SYS_STATUS,52485167,52461615,53510447,34,0,-1,-1,0,0,0,0,0,0,GLOBAL_POSITION_INT,7711536,0,0,-2210,-2216,8,2,-1,5861,RAW_IMU,3416569465,20,11,-989,-6,0,1,270,-451,232,0,4349,BATTERY_STATUS,0,0,0,32767,[65535, 65535, 65535, 65535, 65535, 65535, 65535, 65535, 65535, 65535],-1,-1,-1,100,0,0,[0, 0, 0, 0],0,0,HEARTBEAT,6,8,0,0,0,3
12.52783489227295,22.7890625,VFR_HUD,0.0,0.09235189110040665,58,0,-2.2100000381469727,0.015119250863790512,,,,,,,,,,,,,,,,AHRS,0.007086524274200201,0.0010259096743538976,-0.0023515294305980206,0.0,0.0,0.0004810555255971849,0.0032653999514877796,GPS_RAW_INT,0,1,0,0,-17000,9999,9999,0,0,0,0,4294967295,4294967295,1000000,0,0,RC_CHANNELS,7711536,16,1501,1499,1004,1502,1000,1000,1500,1500,0,0,0,0,0,0,0,0,0,0,0,MISSION_CURRENT,0,SYS_STATUS,52485167,52461615,53510447,34,0,-1,-1,0,0,0,0,0,0,GLOBAL_POSITION_INT,7711536,0,0,-2210,-2216,8,2,-1,5861,RAW_IMU,3416569465,20,11,-989,-6,0,1,270,-451,232,0,4349,BATTERY_STATUS,0,0,0,32767,[65535, 65535, 65535, 65535, 65535, 65535, 65535, 65535, 65535, 65535],-1,-1,-1,100,0,0,[0, 0, 0, 0],0,0,HEARTBEAT,6,8,0,0,0,3
12.578483581542969,22.78125,VFR_HUD,0.0,0.09235189110040665,58,0,-2.2100000381469727,0.015119250863790512,,,,,,,,,,,,,,,,AHRS,0.007086524274200201,0.0010259096743538976,-0.0023515294305980206,0.0,0.0,0.0004810555255971849,0.0032653999514877796,GPS_RAW_INT,0,1,0,0,-17000,9999,9999,0,0,0,0,4294967295,4294967295,1000000,0,0,RC_CHANNELS,7711536,16,1501,1499,1004,1502,1000,1000,1500,1500,0,0,0,0,0,0,0,0,0,0,0,MISSION_CURRENT,0,SYS_STATUS,52485167,52461615,53510447,34,0,-1,-1,0,0,0,0,0,0,GLOBAL_POSITION_INT,7711536,0,0,-2210,-2216,8,2,-1,5861,RAW_IMU,3416569465,20,11,-989,-6,0,1,270,-451,232,0,4349,BATTERY_STATUS,0,0,0,32767,[65535, 65535, 65535, 65535, 65535, 65535, 65535, 65535, 65535, 65535],-1,-1,-1,100,0,0,[0, 0, 0, 0],0,0,HEARTBEAT,6,8,0,0,0,3
12.629684686660767,22.78125,VFR_HUD,0.0,0.09235189110040665,58,0,-2.2100000381469727,0.015119250863790512,,,,,,,,,,,,,,,,AHRS,0.007086524274200201,0.0010259096743538976,-0.0023515294305980206,0.0,0.0,0.0004810555255971849,0.0032653999514877796,GPS_RAW_INT,0,1,0,0,-17000,9999,9999,0,0,0,0,4294967295,4294967295,1000000,0,0,RC_CHANNELS,7711536,16,1501,1499,1004,1502,1000,1000,1500,1500,0,0,0,0,0,0,0,0,0,0,0,MISSION_CURRENT,0,SYS_STATUS,52485167,52461615,53510447,34,0,-1,-1,0,0,0,0,0,0,GLOBAL_POSITION_INT,7711536,0,0,-2210,-2216,8,2,-1,5861,RAW_IMU,3416569465,20,11,-989,-6,0,1,270,-451,232,0,4349,BATTERY_STATUS,0,0,0,32767,[65535, 65535, 65535, 65535, 65535, 65535, 65535, 65535, 65535, 65535],-1,-1,-1,100,0,0,[0, 0, 0, 0],0,0,HEARTBEAT,6,8,0,0,0,3
12.680369138717651,22.78125,VFR_HUD,0.0,0.09235189110040665,58,0,-2.2100000381469727,0.015119250863790512,,,,,,,,,,,,,,,,AHRS,0.007086524274200201,0.0010259096743538976,-0.0023515294305980206,0.0,0.0,0.0004810555255971849,0.0032653999514877796,GPS_RAW_INT,0,1,0,0,-17000,9999,9999,0,0,0,0,4294967295,4294967295,1000000,0,0,RC_CHANNELS,7711536,16,1501,1499,1004,1502,1000,1000,1500,1500,0,0,0,0,0,0,0,0,0,0,0,MISSION_CURRENT,0,SYS_STATUS,52485167,52461615,53510447,34,0,-1,-1,0,0,0,0,0,0,GLOBAL_POSITION_INT,7711536,0,0,-2210,-2216,8,2,-1,5861,RAW_IMU,3416569465,20,11,-989,-6,0,1,270,-451,232,0,4349,BATTERY_STATUS,0,0,0,32767,[65535, 65535, 65535, 65535, 65535, 65535, 65535, 65535, 65535, 65535],-1,-1,-1,100,0,0,[0, 0, 0, 0],0,0,HEARTBEAT,6,8,0,0,0,3
12.731121063232422,22.7890625,VFR_HUD,0.0,0.09235189110040665,58,0,-2.2100000381469727,0.015119250863790512,,,,,,,,,,,,,,,,AHRS,0.007086524274200201,0.0010259096743538976,-0.0023515294305980206,0.0,0.0,0.0004810555255971849,0.0032653999514877796,GPS_RAW_INT,0,1,0,0,-17000,9999,9999,0,0,0,0,4294967295,4294967295,1000000,0,0,RC_CHANNELS,7711536,16,1501,1499,1004,1502,1000,1000,1500,1500,0,0,0,0,0,0,0,0,0,0,0,MISSION_CURRENT,0,SYS_STATUS,52485167,52461615,53510447,34,0,-1,-1,0,0,0,0,0,0,GLOBAL_POSITION_INT,7711536,0,0,-2210,-2216,8,2,-1,5861,RAW_IMU,3416569465,20,11,-989,-6,0,1,270,-451,232,0,4349,BATTERY_STATUS,0,0,0,32767,[65535, 65535, 65535, 65535, 65535, 65535, 65535, 65535, 65535, 65535],-1,-1,-1,100,0,0,[0, 0, 0, 0],0,0,HEARTBEAT,6,8,0,0,0,3
12.782119035720825,22.7890625,VFR_HUD,0.0,0.09235189110040665,58,0,-2.2100000381469727,0.015119250863790512,,,,,,,,,,,,,,,,AHRS,0.007086524274200201,0.0010259096743538976,-0.0023515294305980206,0.0,0.0,0.0004810555255971849,0.0032653999514877796,GPS_RAW_INT,0,1,0,0,-17000,9999,9999,0,0,0,0,4294967295,4294967295,1000000,0,0,RC_CHANNELS,7711536,16,1501,1499,1004,1502,1000,1000,1500,1500,0,0,0,0,0,0,0,0,0,0,0,MISSION_CURRENT,0,SYS_STATUS,52485167,52461615,53510447,34,0,-1,-1,0,0,0,0,0,0,GLOBAL_POSITION_INT,7711536,0,0,-2210,-2216,8,2,-1,5861,RAW_IMU,3416569465,20,11,-989,-6,0,1,270,-451,232,0,4349,BATTERY_STATUS,0,0,0,32767,[65535, 65535, 65535, 65535, 65535, 65535, 65535, 65535, 65535, 65535],-1,-1,-1,100,0,0,[0, 0, 0, 0],0,0,HEARTBEAT,6,8,0,0,0,3
12.83289647102356,22.7890625,VFR_HUD,0.0,0.09235189110040665,58,0,-2.2100000381469727,0.015119250863790512,,,,,,,,,,,,,,,,AHRS,0.007086524274200201,0.0010259096743538976,-0.0023515294305980206,0.0,0.0,0.0004810555255971849,0.0032653999514877796,GPS_RAW_INT,0,1,0,0,-17000,9999,9999,0,0,0,0,4294967295,4294967295,1000000,0,0,RC_CHANNELS,7711536,16,1501,1499,1004,1502,1000,1000,1500,1500,0,0,0,0,0,0,0,0,0,0,0,MISSION_CURRENT,0,SYS_STATUS,52485167,52461615,53510447,34,0,-1,-1,0,0,0,0,0,0,GLOBAL_POSITION_INT,7711536,0,0,-2210,-2216,8,2,-1,5861,RAW_IMU,3416569465,20,11,-989,-6,0,1,270,-451,232,0,4349,BATTERY_STATUS,0,0,0,32767,[65535, 65535, 65535, 65535, 65535, 65535, 65535, 65535, 65535, 65535],-1,-1,-1,100,0,0,[0, 0, 0, 0],0,0,HEARTBEAT,6,8,0,0,0,3
12.88406491279602,22.7890625,VFR_HUD,0.0,0.09235189110040665,58,0,-2.2100000381469727,0.015119250863790512,,,,,,,,,,,,,,,,AHRS,0.007086524274200201,0.0010259096743538976,-0.0023515294305980206,0.0,0.0,0.0004810555255971849,0.0032653999514877796,GPS_RAW_INT,0,1,0,0,-17000,9999,9999,0,0,0,0,4294967295,4294967295,1000000,0,0,RC_CHANNELS,7711536,16,1501,1499,1004,1502,1000,1000,1500,1500,0,0,0,0,0,0,0,0,0,0,0,MISSION_CURRENT,0,SYS_STATUS,52485167,52461615,53510447,34,0,-1,-1,0,0,0,0,0,0,GLOBAL_POSITION_INT,7711536,0,0,-2210,-2216,8,2,-1,5861,RAW_IMU,3416569465,20,11,-989,-6,0,1,270,-451,232,0,4349,BATTERY_STATUS,0,0,0,32767,[65535, 65535, 65535, 65535, 65535, 65535, 65535, 65535, 65535, 65535],-1,-1,-1,100,0,0,[0, 0, 0, 0],0,0,HEARTBEAT,6,8,0,0,0,3
12.934753656387329,22.7890625,VFR_HUD,0.0,0.09235189110040665,58,0,-2.2100000381469727,0.015119250863790512,,,,,,,,,,,,,,,,AHRS,0.007086524274200201,0.0010259096743538976,-0.0023515294305980206,0.0,0.0,0.0004810555255971849,0.0032653999514877796,GPS_RAW_INT,0,1,0,0,-17000,9999,9999,0,0,0,0,4294967295,4294967295,1000000,0,0,RC_CHANNELS,7711536,16,1501,1499,1004,1502,1000,1000,1500,1500,0,0,0,0,0,0,0,0,0,0,0,MISSION_CURRENT,0,SYS_STATUS,52485167,52461615,53510447,34,0,-1,-1,0,0,0,0,0,0,GLOBAL_POSITION_INT,7711536,0,0,-2210,-2216,8,2,-1,5861,RAW_IMU,3416569465,20,11,-989,-6,0,1,270,-451,232,0,4349,BATTERY_STATUS,0,0,0,32767,[65535, 65535, 65535, 65535, 65535, 65535, 65535, 65535, 65535, 65535],-1,-1,-1,100,0,0,[0, 0, 0, 0],0,0,HEARTBEAT,6,8,0,0,0,3
12.985492467880249,22.7890625,VFR_HUD,0.0,0.09235189110040665,58,0,-2.2100000381469727,0.015119250863790512,,,,,,,,,,,,,,,,AHRS,0.007086524274200201,0.0010259096743538976,-0.0023515294305980206,0.0,0.0,0.0004810555255971849,0.0032653999514877796,GPS_RAW_INT,0,1,0,0,-17000,9999,9999,0,0,0,0,4294967295,4294967295,1000000,0,0,RC_CHANNELS,7711536,16,1501,1499,1004,1502,1000,1000,1500,1500,0,0,0,0,0,0,0,0,0,0,0,MISSION_CURRENT,0,SYS_STATUS,52485167,52461615,53510447,34,0,-1,-1,0,0,0,0,0,0,GLOBAL_POSITION_INT,7711536,0,0,-2210,-2216,8,2,-1,5861,RAW_IMU,3416569465,20,11,-989,-6,0,1,270,-451,232,0,4349,BATTERY_STATUS,0,0,0,32767,[65535, 65535, 65535, 65535, 65535, 65535, 65535, 65535, 65535, 65535],-1,-1,-1,100,0,0,[0, 0, 0, 0],0,0,HEARTBEAT,6,8,0,0,0,3
13.036671161651611,22.7890625,VFR_HUD,0.0,0.09235189110040665,58,0,-2.2100000381469727,0.015119250863790512,,,,,,,,,,,,,,,,AHRS,0.007086524274200201,0.0010259096743538976,-0.0023515294305980206,0.0,0.0,0.0004810555255971849,0.0032653999514877796,GPS_RAW_INT,0,1,0,0,-17000,9999,9999,0,0,0,0,4294967295,4294967295,1000000,0,0,RC_CHANNELS,7711536,16,1501,1499,1004,1502,1000,1000,1500,1500,0,0,0,0,0,0,0,0,0,0,0,MISSION_CURRENT,0,SYS_STATUS,52485167,52461615,53510447,34,0,-1,-1,0,0,0,0,0,0,GLOBAL_POSITION_INT,7711536,0,0,-2210,-2216,8,2,-1,5861,RAW_IMU,3416569465,20,11,-989,-6,0,1,270,-451,232,0,4349,BATTERY_STATUS,0,0,0,32767,[65535, 65535, 65535, 65535, 65535, 65535, 65535, 65535, 65535, 65535],-1,-1,-1,100,0,0,[0, 0, 0, 0],0,0,HEARTBEAT,6,8,0,0,0,3
13.087471961975098,22.7890625,VFR_HUD,0.0,0.09235189110040665,58,0,-2.2100000381469727,0.015119250863790512,,,,,,,,,,,,,,,,AHRS,0.007086524274200201,0.0010259096743538976,-0.0023515294305980206,0.0,0.0,0.0004810555255971849,0.0032653999514877796,GPS_RAW_INT,0,1,0,0,-17000,9999,9999,0,0,0,0,4294967295,4294967295,1000000,0,0,RC_CHANNELS,7711536,16,1501,1499,1004,1502,1000,1000,1500,1500,0,0,0,0,0,0,0,0,0,0,0,MISSION_CURRENT,0,SYS_STATUS,52485167,52461615,53510447,34,0,-1,-1,0,0,0,0,0,0,GLOBAL_POSITION_INT,7712536,0,0,-1990,-1991,9,2,-1,5861,RAW_IMU,3416569465,20,11,-989,-6,0,1,270,-451,232,0,4349,BATTERY_STATUS,0,0,0,32767,[65535, 65535, 65535, 65535, 65535, 65535, 65535, 65535, 65535, 65535],-1,-1,-1,100,0,0,[0, 0, 0, 0],0,0,HEARTBEAT,10,3,193,0,4,3
13.191349744796753,22.7890625,VFR_HUD,0.0,0.09636779874563217,58,0,-1.9900000095367432,0.016687482595443726,,,,,,,,,,,,,,,,AHRS,0.007086524274200201,0.0010259096743538976,-0.0023515294305980206,0.0,0.0,0.0004810555255971849,0.0032653999514877796,GPS_RAW_INT,0,1,0,0,-17000,9999,9999,0,0,0,0,4294967295,4294967295,1000000,0,0,RC_CHANNELS,7712536,16,1502,1499,1004,1501,1000,1000,1501,1500,0,0,0,0,0,0,0,0,0,0,0,MISSION_CURRENT,0,SYS_STATUS,52485167,52461615,53510447,33,0,-1,-1,0,0,0,0,0,0,GLOBAL_POSITION_INT,7712536,0,0,-1990,-1991,9,2,-1,5861,RAW_IMU,3416569465,20,11,-989,-6,0,1,270,-451,232,0,4349,BATTERY_STATUS,0,0,0,32767,[65535, 65535, 65535, 65535, 65535, 65535, 65535, 65535, 65535, 65535],-1,-1,-1,100,0,0,[0, 0, 0, 0],0,0,HEARTBEAT,10,3,193,0,4,3
13.242589235305786,22.7890625,VFR_HUD,0.0,0.09636779874563217,58,0,-1.9900000095367432,0.016687482595443726,,,,,,,,,,,,,,,,AHRS,0.0070846425369381905,0.0010261384304612875,-0.0023510358296334743,0.0,0.0,0.0005151536897756159,0.004394890274852514,GPS_RAW_INT,0,1,0,0,-17000,9999,9999,0,0,0,0,4294967295,4294967295,1000000,0,0,RC_CHANNELS,7712536,16,1502,1499,1004,1501,1000,1000,1501,1500,0,0,0,0,0,0,0,0,0,0,0,MISSION_CURRENT,0,SYS_STATUS,52485167,52461615,53510447,33,0,-1,-1,0,0,0,0,0,0,GLOBAL_POSITION_INT,7712536,0,0,-1990,-1991,9,2,-1,5861,RAW_IMU,3417569438,20,12,-991,-7,-1,2,272,-453,239,0,4349,BATTERY_STATUS,0,0,0,32767,[65535, 65535, 65535, 65535, 65535, 65535, 65535, 65535, 65535, 65535],-1,-1,-1,100,0,0,[0, 0, 0, 0],0,0,HEARTBEAT,10,3,193,0,4,3
13.293446063995361,22.7890625,VFR_HUD,0.0,0.09636779874563217,58,0,-1.9900000095367432,0.016687482595443726,,,,,,,,,,,,,,,,AHRS,0.0070846425369381905,0.0010261384304612875,-0.0023510358296334743,0.0,0.0,0.0005151536897756159,0.004394890274852514,GPS_RAW_INT,0,1,0,0,-17000,9999,9999,0,0,0,0,4294967295,4294967295,1000000,0,0,RC_CHANNELS,7712536,16,1502,1499,1004,1501,1000,1000,1501,1500,0,0,0,0,0,0,0,0,0,0,0,MISSION_CURRENT,0,SYS_STATUS,52485167,52461615,53510447,33,0,-1,-1,0,0,0,0,0,0,GLOBAL_POSITION_INT,7712536,0,0,-1990,-1991,9,2,-1,5861,RAW_IMU,3417569438,20,12,-991,-7,-1,2,272,-453,239,0,4349,BATTERY_STATUS,0,0,0,32767,[65535, 65535, 65535, 65535, 65535, 65535, 65535, 65535, 65535, 65535],-1,-1,-1,100,0,0,[0, 0, 0, 0],0,0,HEARTBEAT,10,3,193,0,4,3
13.34412956237793,22.7890625,VFR_HUD,0.0,0.09636779874563217,58,0,-1.9900000095367432,0.016687482595443726,,,,,,,,,,,,,,,,AHRS,0.0070846425369381905,0.0010261384304612875,-0.0023510358296334743,0.0,0.0,0.0005151536897756159,0.004394890274852514,GPS_RAW_INT,0,1,0,0,-17000,9999,9999,0,0,0,0,4294967295,4294967295,1000000,0,0,RC_CHANNELS,7712536,16,1502,1499,1004,1501,1000,1000,1501,1500,0,0,0,0,0,0,0,0,0,0,0,MISSION_CURRENT,0,SYS_STATUS,52485167,52461615,53510447,33,0,-1,-1,0,0,0,0,0,0,GLOBAL_POSITION_INT,7712536,0,0,-1990,-1991,9,2,-1,5861,RAW_IMU,3417569438,20,12,-991,-7,-1,2,272,-453,239,0,4349,BATTERY_STATUS,0,0,0,32767,[65535, 65535, 65535, 65535, 65535, 65535, 65535, 65535, 65535, 65535],-1,-1,-1,100,0,0,[0, 0, 0, 0],0,0,HEARTBEAT,10,3,193,0,4,3
13.395181655883789,22.7890625,VFR_HUD,0.0,0.09636779874563217,58,0,-1.9900000095367432,0.016687482595443726,,,,,,,,,,,,,,,,AHRS,0.0070846425369381905,0.0010261384304612875,-0.0023510358296334743,0.0,0.0,0.0005151536897756159,0.004394890274852514,GPS_RAW_INT,0,1,0,0,-17000,9999,9999,0,0,0,0,4294967295,4294967295,1000000,0,0,RC_CHANNELS,7712536,16,1502,1499,1004,1501,1000,1000,1501,1500,0,0,0,0,0,0,0,0,0,0,0,MISSION_CURRENT,0,SYS_STATUS,52485167,52461615,53510447,33,0,-1,-1,0,0,0,0,0,0,GLOBAL_POSITION_INT,7712536,0,0,-1990,-1991,9,2,-1,5861,RAW_IMU,3417569438,20,12,-991,-7,-1,2,272,-453,239,0,4349,BATTERY_STATUS,0,0,0,32767,[65535, 65535, 65535, 65535, 65535, 65535, 65535, 65535, 65535, 65535],-1,-1,-1,100,0,0,[0, 0, 0, 0],0,0,HEARTBEAT,10,3,193,0,4,3
13.446759939193726,22.7890625,VFR_HUD,0.0,0.09636779874563217,58,0,-1.9900000095367432,0.016687482595443726,,,,,,,,,,,,,,,,AHRS,0.0070846425369381905,0.0010261384304612875,-0.0023510358296334743,0.0,0.0,0.0005151536897756159,0.004394890274852514,GPS_RAW_INT,0,1,0,0,-17000,9999,9999,0,0,0,0,4294967295,4294967295,1000000,0,0,RC_CHANNELS,7712536,16,1502,1499,1004,1501,1000,1000,1501,1500,0,0,0,0,0,0,0,0,0,0,0,MISSION_CURRENT,0,SYS_STATUS,52485167,52461615,53510447,33,0,-1,-1,0,0,0,0,0,0,GLOBAL_POSITION_INT,7712536,0,0,-1990,-1991,9,2,-1,5861,RAW_IMU,3417569438,20,12,-991,-7,-1,2,272,-453,239,0,4349,BATTERY_STATUS,0,0,0,32767,[65535, 65535, 65535, 65535, 65535, 65535, 65535, 65535, 65535, 65535],-1,-1,-1,100,0,0,[0, 0, 0, 0],0,0,HEARTBEAT,6,8,0,0,0,3
13.49780535697937,22.7890625,VFR_HUD,0.0,0.09636779874563217,58,0,-1.9900000095367432,0.016687482595443726,,,,,,,,,,,,,,,,AHRS,0.0070846425369381905,0.0010261384304612875,-0.0023510358296334743,0.0,0.0,0.0005151536897756159,0.004394890274852514,GPS_RAW_INT,0,1,0,0,-17000,9999,9999,0,0,0,0,4294967295,4294967295,1000000,0,0,RC_CHANNELS,7712536,16,1502,1499,1004,1501,1000,1000,1501,1500,0,0,0,0,0,0,0,0,0,0,0,MISSION_CURRENT,0,SYS_STATUS,52485167,52461615,53510447,33,0,-1,-1,0,0,0,0,0,0,GLOBAL_POSITION_INT,7712536,0,0,-1990,-1991,9,2,-1,5861,RAW_IMU,3417569438,20,12,-991,-7,-1,2,272,-453,239,0,4349,BATTERY_STATUS,0,0,0,32767,[65535, 65535, 65535, 65535, 65535, 65535, 65535, 65535, 65535, 65535],-1,-1,-1,100,0,0,[0, 0, 0, 0],0,0,HEARTBEAT,6,8,0,0,0,3
13.548605918884277,22.7890625,VFR_HUD,0.0,0.09636779874563217,58,0,-1.9900000095367432,0.016687482595443726,,,,,,,,,,,,,,,,AHRS,0.0070846425369381905,0.0010261384304612875,-0.0023510358296334743,0.0,0.0,0.0005151536897756159,0.004394890274852514,GPS_RAW_INT,0,1,0,0,-17000,9999,9999,0,0,0,0,4294967295,4294967295,1000000,0,0,RC_CHANNELS,7712536,16,1502,1499,1004,1501,1000,1000,1501,1500,0,0,0,0,0,0,0,0,0,0,0,MISSION_CURRENT,0,SYS_STATUS,52485167,52461615,53510447,33,0,-1,-1,0,0,0,0,0,0,GLOBAL_POSITION_INT,7712536,0,0,-1990,-1991,9,2,-1,5861,RAW_IMU,3417569438,20,12,-991,-7,-1,2,272,-453,239,0,4349,BATTERY_STATUS,0,0,0,32767,[65535, 65535, 65535, 65535, 65535, 65535, 65535, 65535, 65535, 65535],-1,-1,-1,100,0,0,[0, 0, 0, 0],0,0,HEARTBEAT,6,8,0,0,0,3
13.59932255744934,22.7890625,VFR_HUD,0.0,0.09636779874563217,58,0,-1.9900000095367432,0.016687482595443726,,,,,,,,,,,,,,,,AHRS,0.0070846425369381905,0.0010261384304612875,-0.0023510358296334743,0.0,0.0,0.0005151536897756159,0.004394890274852514,GPS_RAW_INT,0,1,0,0,-17000,9999,9999,0,0,0,0,4294967295,4294967295,1000000,0,0,RC_CHANNELS,7712536,16,1502,1499,1004,1501,1000,1000,1501,1500,0,0,0,0,0,0,0,0,0,0,0,MISSION_CURRENT,0,SYS_STATUS,52485167,52461615,53510447,33,0,-1,-1,0,0,0,0,0,0,GLOBAL_POSITION_INT,7712536,0,0,-1990,-1991,9,2,-1,5861,RAW_IMU,3417569438,20,12,-991,-7,-1,2,272,-453,239,0,4349,BATTERY_STATUS,0,0,0,32767,[65535, 65535, 65535, 65535, 65535, 65535, 65535, 65535, 65535, 65535],-1,-1,-1,100,0,0,[0, 0, 0, 0],0,0,HEARTBEAT,6,8,0,0,0,3
13.65035367012024,22.7890625,VFR_HUD,0.0,0.09636779874563217,58,0,-1.9900000095367432,0.016687482595443726,,,,,,,,,,,,,,,,AHRS,0.0070846425369381905,0.0010261384304612875,-0.0023510358296334743,0.0,0.0,0.0005151536897756159,0.004394890274852514,GPS_RAW_INT,0,1,0,0,-17000,9999,9999,0,0,0,0,4294967295,4294967295,1000000,0,0,RC_CHANNELS,7712536,16,1502,1499,1004,1501,1000,1000,1501,1500,0,0,0,0,0,0,0,0,0,0,0,MISSION_CURRENT,0,SYS_STATUS,52485167,52461615,53510447,33,0,-1,-1,0,0,0,0,0,0,GLOBAL_POSITION_INT,7712536,0,0,-1990,-1991,9,2,-1,5861,RAW_IMU,3417569438,20,12,-991,-7,-1,2,272,-453,239,0,4349,BATTERY_STATUS,0,0,0,32767,[65535, 65535, 65535, 65535, 65535, 65535, 65535, 65535, 65535, 65535],-1,-1,-1,100,0,0,[0, 0, 0, 0],0,0,HEARTBEAT,6,8,0,0,0,3
13.701127529144287,22.7890625,VFR_HUD,0.0,0.09636779874563217,58,0,-1.9900000095367432,0.016687482595443726,,,,,,,,,,,,,,,,AHRS,0.0070846425369381905,0.0010261384304612875,-0.0023510358296334743,0.0,0.0,0.0005151536897756159,0.004394890274852514,GPS_RAW_INT,0,1,0,0,-17000,9999,9999,0,0,0,0,4294967295,4294967295,1000000,0,0,RC_CHANNELS,7712536,16,1502,1499,1004,1501,1000,1000,1501,1500,0,0,0,0,0,0,0,0,0,0,0,MISSION_CURRENT,0,SYS_STATUS,52485167,52461615,53510447,33,0,-1,-1,0,0,0,0,0,0,GLOBAL_POSITION_INT,7712536,0,0,-1990,-1991,9,2,-1,5861,RAW_IMU,3417569438,20,12,-991,-7,-1,2,272,-453,239,0,4349,BATTERY_STATUS,0,0,0,32767,[65535, 65535, 65535, 65535, 65535, 65535, 65535, 65535, 65535, 65535],-1,-1,-1,100,0,0,[0, 0, 0, 0],0,0,HEARTBEAT,6,8,0,0,0,3
13.752090454101562,22.7890625,VFR_HUD,0.0,0.09636779874563217,58,0,-1.9900000095367432,0.016687482595443726,,,,,,,,,,,,,,,,AHRS,0.0070846425369381905,0.0010261384304612875,-0.0023510358296334743,0.0,0.0,0.0005151536897756159,0.004394890274852514,GPS_RAW_INT,0,1,0,0,-17000,9999,9999,0,0,0,0,4294967295,4294967295,1000000,0,0,RC_CHANNELS,7712536,16,1502,1499,1004,1501,1000,1000,1501,1500,0,0,0,0,0,0,0,0,0,0,0,MISSION_CURRENT,0,SYS_STATUS,52485167,52461615,53510447,33,0,-1,-1,0,0,0,0,0,0,GLOBAL_POSITION_INT,7712536,0,0,-1990,-1991,9,2,-1,5861,RAW_IMU,3417569438,20,12,-991,-7,-1,2,272,-453,239,0,4349,BATTERY_STATUS,0,0,0,32767,[65535, 65535, 65535, 65535, 65535, 65535, 65535, 65535, 65535, 65535],-1,-1,-1,100,0,0,[0, 0, 0, 0],0,0,HEARTBEAT,6,8,0,0,0,3
13.802727937698364,22.796875,VFR_HUD,0.0,0.09636779874563217,58,0,-1.9900000095367432,0.016687482595443726,,,,,,,,,,,,,,,,AHRS,0.0070846425369381905,0.0010261384304612875,-0.0023510358296334743,0.0,0.0,0.0005151536897756159,0.004394890274852514,GPS_RAW_INT,0,1,0,0,-17000,9999,9999,0,0,0,0,4294967295,4294967295,1000000,0,0,RC_CHANNELS,7712536,16,1502,1499,1004,1501,1000,1000,1501,1500,0,0,0,0,0,0,0,0,0,0,0,MISSION_CURRENT,0,SYS_STATUS,52485167,52461615,53510447,33,0,-1,-1,0,0,0,0,0,0,GLOBAL_POSITION_INT,7712536,0,0,-1990,-1991,9,2,-1,5861,RAW_IMU,3417569438,20,12,-991,-7,-1,2,272,-453,239,0,4349,BATTERY_STATUS,0,0,0,32767,[65535, 65535, 65535, 65535, 65535, 65535, 65535, 65535, 65535, 65535],-1,-1,-1,100,0,0,[0, 0, 0, 0],0,0,HEARTBEAT,6,8,0,0,0,3
13.853661298751831,22.796875,VFR_HUD,0.0,0.09636779874563217,58,0,-1.9900000095367432,0.016687482595443726,,,,,,,,,,,,,,,,AHRS,0.0070846425369381905,0.0010261384304612875,-0.0023510358296334743,0.0,0.0,0.0005151536897756159,0.004394890274852514,GPS_RAW_INT,0,1,0,0,-17000,9999,9999,0,0,0,0,4294967295,4294967295,1000000,0,0,RC_CHANNELS,7712536,16,1502,1499,1004,1501,1000,1000,1501,1500,0,0,0,0,0,0,0,0,0,0,0,MISSION_CURRENT,0,SYS_STATUS,52485167,52461615,53510447,33,0,-1,-1,0,0,0,0,0,0,GLOBAL_POSITION_INT,7712536,0,0,-1990,-1991,9,2,-1,5861,RAW_IMU,3417569438,20,12,-991,-7,-1,2,272,-453,239,0,4349,BATTERY_STATUS,0,0,0,32767,[65535, 65535, 65535, 65535, 65535, 65535, 65535, 65535, 65535, 65535],-1,-1,-1,100,0,0,[0, 0, 0, 0],0,0,HEARTBEAT,6,8,0,0,0,3
13.904248237609863,22.796875,VFR_HUD,0.0,0.09636779874563217,58,0,-1.9900000095367432,0.016687482595443726,,,,,,,,,,,,,,,,AHRS,0.0070846425369381905,0.0010261384304612875,-0.0023510358296334743,0.0,0.0,0.0005151536897756159,0.004394890274852514,GPS_RAW_INT,0,1,0,0,-17000,9999,9999,0,0,0,0,4294967295,4294967295,1000000,0,0,RC_CHANNELS,7712536,16,1502,1499,1004,1501,1000,1000,1501,1500,0,0,0,0,0,0,0,0,0,0,0,MISSION_CURRENT,0,SYS_STATUS,52485167,52461615,53510447,33,0,-1,-1,0,0,0,0,0,0,GLOBAL_POSITION_INT,7712536,0,0,-1990,-1991,9,2,-1,5861,RAW_IMU,3417569438,20,12,-991,-7,-1,2,272,-453,239,0,4349,BATTERY_STATUS,0,0,0,32767,[65535, 65535, 65535, 65535, 65535, 65535, 65535, 65535, 65535, 65535],-1,-1,-1,100,0,0,[0, 0, 0, 0],0,0,HEARTBEAT,6,8,0,0,0,3
13.954896211624146,22.796875,VFR_HUD,0.0,0.09636779874563217,58,0,-1.9900000095367432,0.016687482595443726,,,,,,,,,,,,,,,,AHRS,0.0070846425369381905,0.0010261384304612875,-0.0023510358296334743,0.0,0.0,0.0005151536897756159,0.004394890274852514,GPS_RAW_INT,0,1,0,0,-17000,9999,9999,0,0,0,0,4294967295,4294967295,1000000,0,0,RC_CHANNELS,7712536,16,1502,1499,1004,1501,1000,1000,1501,1500,0,0,0,0,0,0,0,0,0,0,0,MISSION_CURRENT,0,SYS_STATUS,52485167,52461615,53510447,33,0,-1,-1,0,0,0,0,0,0,GLOBAL_POSITION_INT,7712536,0,0,-1990,-1991,9,2,-1,5861,RAW_IMU,3417569438,20,12,-991,-7,-1,2,272,-453,239,0,4349,BATTERY_STATUS,0,0,0,32767,[65535, 65535, 65535, 65535, 65535, 65535, 65535, 65535, 65535, 65535],-1,-1,-1,100,0,0,[0, 0, 0, 0],0,0,HEARTBEAT,6,8,0,0,0,3
