20.944654941558838,24.1328125,VFR_HUD,0.0,0.0,58,0,-2.0799999237060547,-0.0,,,,,,,,,,,,,,,,AHRS,0.006852644495666027,0.0007546042324975133,-0.002176626119762659,0.0,0.0,0.0003469314833637327,0.0035534994676709175,GPS_RAW_INT,0,1,0,0,-17000,9999,9999,0,0,0,0,4294967295,4294967295,1000000,0,0,RC_CHANNELS,6704536,16,1501,1499,1004,1502,1000,1000,1500,1500,0,0,0,0,0,0,0,0,0,0,0,MISSION_CURRENT,0,SYS_STATUS,52485167,52461615,53510447,36,0,-1,-1,0,0,0,0,0,0,GLOBAL_POSITION_INT,6705536,0,0,-2250,-2254,0,0,-1,5863,RAW_IMU,2409569510,20,11,-991,-7,0,2,266,-450,250,0,4308,BATTERY_STATUS,0,0,0,32767,[65535, 65535, 65535, 65535, 65535, 65535, 65535, 65535, 65535, 65535],-1,-1,-1,100,0,0,[0, 0, 0, 0],0,0,HEARTBEAT,10,3,193,0,4,3
0.033496856689453125,24.1328125,VFR_HUD,0.0,0.005401302594691515,58,0,-2.25,0.010028514079749584,,,,,,,,,,,,,,,,AHRS,0.006852644495666027,0.0007546042324975133,-0.002176626119762659,0.0,0.0,0.0003469314833637327,0.0035534994676709175,GPS_RAW_INT,0,1,0,0,-17000,9999,9999,0,0,0,0,4294967295,4294967295,1000000,0,0,RC_CHANNELS,6705536,16,1502,1499,1004,1501,1000,1000,1501,1500,0,0,0,0,0,0,0,0,0,0,0,MISSION_CURRENT,0,SYS_STATUS,52485167,52461615,53510447,36,0,-1,-1,0,0,0,0,0,0,GLOBAL_POSITION_INT,6705536,0,0,-2250,-2254,0,0,-1,5863,RAW_IMU,2410569526,19,11,-993,-6,0,2,267,-455,245,0,4308,BATTERY_STATUS,0,0,0,32767,[65535, 65535, 65535, 65535, 65535, 65535, 65535, 65535, 65535, 65535],-1,-1,-1,100,0,0,[0, 0, 0, 0],0,0,HEARTBEAT,10,3,193,0,4,3
0.08421945571899414,24.1328125,VFR_HUD,0.0,0.005401302594691515,58,0,-2.25,0.010028514079749584,,,,,,,,,,,,,,,,AHRS,0.006866843905299902,0.0006534472922794521,-0.0022078449837863445,0.0,0.0,0.0003424839524086565,0.0054175411351025105,GPS_RAW_INT,0,1,0,0,-17000,9999,9999,0,0,0,0,4294967295,4294967295,1000000,0,0,RC_CHANNELS,6705536,16,1502,1499,1004,1501,1000,1000,1501,1500,0,0,0,0,0,0,0,0,0,0,0,MISSION_CURRENT,0,SYS_STATUS,52485167,52461615,53510447,36,0,-1,-1,0,0,0,0,0,0,GLOBAL_POSITION_INT,6705536,0,0,-2250,-2254,0,0,-1,5863,RAW_IMU,2410569526,19,11,-993,-6,0,2,267,-455,245,0,4308,BATTERY_STATUS,0,0,0,32767,[65535, 65535, 65535, 65535, 65535, 65535, 65535, 65535, 65535, 65535],-1,-1,-1,100,0,0,[0, 0, 0, 0],0,0,HEARTBEAT,10,3,193,0,4,3
0.1353914737701416,24.1328125,VFR_HUD,0.0,0.005401302594691515,58,0,-2.25,0.010028514079749584,,,,,,,,,,,,,,,,AHRS,0.006866843905299902,0.0006534472922794521,-0.0022078449837863445,0.0,0.0,0.0003424839524086565,0.0054175411351025105,GPS_RAW_INT,0,1,0,0,-17000,9999,9999,0,0,0,0,4294967295,4294967295,1000000,0,0,RC_CHANNELS,6705536,16,1502,1499,1004,1501,1000,1000,1501,1500,0,0,0,0,0,0,0,0,0,0,0,MISSION_CURRENT,0,SYS_STATUS,52485167,52461615,53510447,36,0,-1,-1,0,0,0,0,0,0,GLOBAL_POSITION_INT,6705536,0,0,-2250,-2254,0,0,-1,5863,RAW_IMU,2410569526,19,11,-993,-6,0,2,267,-455,245,0,4308,BATTERY_STATUS,0,0,0,32767,[65535, 65535, 65535, 65535, 65535, 65535, 65535, 65535, 65535, 65535],-1,-1,-1,100,0,0,[0, 0, 0, 0],0,0,HEARTBEAT,10,3,193,0,4,3
0.18621587753295898,24.1328125,VFR_HUD,0.0,0.005401302594691515,58,0,-2.25,0.010028514079749584,,,,,,,,,,,,,,,,AHRS,0.006866843905299902,0.0006534472922794521,-0.0022078449837863445,0.0,0.0,0.0003424839524086565,0.0054175411351025105,GPS_RAW_INT,0,1,0,0,-17000,9999,9999,0,0,0,0,4294967295,4294967295,1000000,0,0,RC_CHANNELS,6705536,16,1502,1499,1004,1501,1000,1000,1501,1500,0,0,0,0,0,0,0,0,0,0,0,MISSION_CURRENT,0,SYS_STATUS,52485167,52461615,53510447,36,0,-1,-1,0,0,0,0,0,0,GLOBAL_POSITION_INT,6705536,0,0,-2250,-2254,0,0,-1,5863,RAW_IMU,2410569526,19,11,-993,-6,0,2,267,-455,245,0,4308,BATTERY_STATUS,0,0,0,32767,[65535, 65535, 65535, 65535, 65535, 65535, 65535, 65535, 65535, 65535],-1,-1,-1,100,0,0,[0, 0, 0, 0],0,0,HEARTBEAT,10,3,193,0,4,3
0.2372887134552002,24.1328125,VFR_HUD,0.0,0.005401302594691515,58,0,-2.25,0.010028514079749584,,,,,,,,,,,,,,,,AHRS,0.006866843905299902,0.0006534472922794521,-0.0022078449837863445,0.0,0.0,0.0003424839524086565,0.0054175411351025105,GPS_RAW_INT,0,1,0,0,-17000,9999,9999,0,0,0,0,4294967295,4294967295,1000000,0,0,RC_CHANNELS,6705536,16,1502,1499,1004,1501,1000,1000,1501,1500,0,0,0,0,0,0,0,0,0,0,0,MISSION_CURRENT,0,SYS_STATUS,52485167,52461615,53510447,36,0,-1,-1,0,0,0,0,0,0,GLOBAL_POSITION_INT,6705536,0,0,-2250,-2254,0,0,-1,5863,RAW_IMU,2410569526,19,11,-993,-6,0,2,267,-455,245,0,4308,BATTERY_STATUS,0,0,0,32767,[65535, 65535, 65535, 65535, 65535, 65535, 65535, 65535, 65535, 65535],-1,-1,-1,100,0,0,[0, 0, 0, 0],0,0,HEARTBEAT,10,3,193,0,4,3
0.2880411148071289,24.1328125,VFR_HUD,0.0,0.005401302594691515,58,0,-2.25,0.010028514079749584,,,,,,,,,,,,,,,,AHRS,0.006866843905299902,0.0006534472922794521,-0.0022078449837863445,0.0,0.0,0.0003424839524086565,0.0054175411351025105,GPS_RAW_INT,0,1,0,0,-17000,9999,9999,0,0,0,0,4294967295,4294967295,1000000,0,0,RC_CHANNELS,6705536,16,1502,1499,1004,1501,1000,1000,1501,1500,0,0,0,0,0,0,0,0,0,0,0,MISSION_CURRENT,0,SYS_STATUS,52485167,52461615,53510447,36,0,-1,-1,0,0,0,0,0,0,GLOBAL_POSITION_INT,6705536,0,0,-2250,-2254,0,0,-1,5863,RAW_IMU,2410569526,19,11,-993,-6,0,2,267,-455,245,0,4308,BATTERY_STATUS,0,0,0,32767,[65535, 65535, 65535, 65535, 65535, 65535, 65535, 65535, 65535, 65535],-1,-1,-1,100,0,0,[0, 0, 0, 0],0,0,HEARTBEAT,6,8,0,0,0,3
0.33930420875549316,24.1328125,VFR_HUD,0.0,0.005401302594691515,58,0,-2.25,0.010028514079749584,,,,,,,,,,,,,,,,AHRS,0.006866843905299902,0.0006534472922794521,-0.0022078449837863445,0.0,0.0,0.0003424839524086565,0.0054175411351025105,GPS_RAW_INT,0,1,0,0,-17000,9999,9999,0,0,0,0,4294967295,4294967295,1000000,0,0,RC_CHANNELS,6705536,16,1502,1499,1004,1501,1000,1000,1501,1500,0,0,0,0,0,0,0,0,0,0,0,MISSION_CURRENT,0,SYS_STATUS,52485167,52461615,53510447,36,0,-1,-1,0,0,0,0,0,0,GLOBAL_POSITION_INT,6705536,0,0,-2250,-2254,0,0,-1,5863,RAW_IMU,2410569526,19,11,-993,-6,0,2,267,-455,245,0,4308,BATTERY_STATUS,0,0,0,32767,[65535, 65535, 65535, 65535, 65535, 65535, 65535, 65535, 65535, 65535],-1,-1,-1,100,0,0,[0, 0, 0, 0],0,0,HEARTBEAT,6,8,0,0,0,3
0.390148401260376,24.1328125,VFR_HUD,0.0,0.005401302594691515,58,0,-2.25,0.010028514079749584,,,,,,,,,,,,,,,,AHRS,0.006866843905299902,0.0006534472922794521,-0.0022078449837863445,0.0,0.0,0.0003424839524086565,0.0054175411351025105,GPS_RAW_INT,0,1,0,0,-17000,9999,9999,0,0,0,0,4294967295,4294967295,1000000,0,0,RC_CHANNELS,6705536,16,1502,1499,1004,1501,1000,1000,1501,1500,0,0,0,0,0,0,0,0,0,0,0,MISSION_CURRENT,0,SYS_STATUS,52485167,52461615,53510447,36,0,-1,-1,0,0,0,0,0,0,GLOBAL_POSITION_INT,6705536,0,0,-2250,-2254,0,0,-1,5863,RAW_IMU,2410569526,19,11,-993,-6,0,2,267,-455,245,0,4308,BATTERY_STATUS,0,0,0,32767,[65535, 65535, 65535, 65535, 65535, 65535, 65535, 65535, 65535, 65535],-1,-1,-1,100,0,0,[0, 0, 0, 0],0,0,HEARTBEAT,6,8,0,0,0,3
0.44098496437072754,24.140625,VFR_HUD,0.0,0.005401302594691515,58,0,-2.25,0.010028514079749584,,,,,,,,,,,,,,,,AHRS,0.006866843905299902,0.0006534472922794521,-0.0022078449837863445,0.0,0.0,0.0003424839524086565,0.0054175411351025105,GPS_RAW_INT,0,1,0,0,-17000,9999,9999,0,0,0,0,4294967295,4294967295,1000000,0,0,RC_CHANNELS,6705536,16,1502,1499,1004,1501,1000,1000,1501,1500,0,0,0,0,0,0,0,0,0,0,0,MISSION_CURRENT,0,SYS_STATUS,52485167,52461615,53510447,36,0,-1,-1,0,0,0,0,0,0,GLOBAL_POSITION_INT,6705536,0,0,-2250,-2254,0,0,-1,5863,RAW_IMU,2410569526,19,11,-993,-6,0,2,267,-455,245,0,4308,BATTERY_STATUS,0,0,0,32767,[65535, 65535, 65535, 65535, 65535, 65535, 65535, 65535, 65535, 65535],-1,-1,-1,100,0,0,[0, 0, 0, 0],0,0,HEARTBEAT,6,8,0,0,0,3
0.49213385581970215,24.140625,VFR_HUD,0.0,0.005401302594691515,58,0,-2.25,0.010028514079749584,,,,,,,,,,,,,,,,AHRS,0.006866843905299902,0.0006534472922794521,-0.0022078449837863445,0.0,0.0,0.0003424839524086565,0.0054175411351025105,GPS_RAW_INT,0,1,0,0,-17000,9999,9999,0,0,0,0,4294967295,4294967295,1000000,0,0,RC_CHANNELS,6705536,16,1502,1499,1004,1501,1000,1000,1501,1500,0,0,0,0,0,0,0,0,0,0,0,MISSION_CURRENT,0,SYS_STATUS,52485167,52461615,53510447,36,0,-1,-1,0,0,0,0,0,0,GLOBAL_POSITION_INT,6705536,0,0,-2250,-2254,0,0,-1,5863,RAW_IMU,2410569526,19,11,-993,-6,0,2,267,-455,245,0,4308,BATTERY_STATUS,0,0,0,32767,[65535, 65535, 65535, 65535, 65535, 65535, 65535, 65535, 65535, 65535],-1,-1,-1,100,0,0,[0, 0, 0, 0],0,0,HEARTBEAT,6,8,0,0,0,3
0.5431017875671387,24.1328125,VFR_HUD,0.0,0.005401302594691515,58,0,-2.25,0.010028514079749584,,,,,,,,,,,,,,,,AHRS,0.006866843905299902,0.0006534472922794521,-0.0022078449837863445,0.0,0.0,0.0003424839524086565,0.0054175411351025105,GPS_RAW_INT,0,1,0,0,-17000,9999,9999,0,0,0,0,4294967295,4294967295,1000000,0,0,RC_CHANNELS,6705536,16,1502,1499,1004,1501,1000,1000,1501,1500,0,0,0,0,0,0,0,0,0,0,0,MISSION_CURRENT,0,SYS_STATUS,52485167,52461615,53510447,36,0,-1,-1,0,0,0,0,0,0,GLOBAL_POSITION_INT,6705536,0,0,-2250,-2254,0,0,-1,5863,RAW_IMU,2410569526,19,11,-993,-6,0,2,267,-455,245,0,4308,BATTERY_STATUS,0,0,0,32767,[65535, 65535, 65535, 65535, 65535, 65535, 65535, 65535, 65535, 65535],-1,-1,-1,100,0,0,[0, 0, 0, 0],0,0,HEARTBEAT,6,8,0,0,0,3
0.5943772792816162,24.1328125,VFR_HUD,0.0,0.005401302594691515,58,0,-2.25,0.010028514079749584,,,,,,,,,,,,,,,,AHRS,0.006866843905299902,0.0006534472922794521,-0.0022078449837863445,0.0,0.0,0.0003424839524086565,0.0054175411351025105,GPS_RAW_INT,0,1,0,0,-17000,9999,9999,0,0,0,0,4294967295,4294967295,1000000,0,0,RC_CHANNELS,6705536,16,1502,1499,1004,1501,1000,1000,1501,1500,0,0,0,0,0,0,0,0,0,0,0,MISSION_CURRENT,0,SYS_STATUS,52485167,52461615,53510447,36,0,-1,-1,0,0,0,0,0,0,GLOBAL_POSITION_INT,6705536,0,0,-2250,-2254,0,0,-1,5863,RAW_IMU,2410569526,19,11,-993,-6,0,2,267,-455,245,0,4308,BATTERY_STATUS,0,0,0,32767,[65535, 65535, 65535, 65535, 65535, 65535, 65535, 65535, 65535, 65535],-1,-1,-1,100,0,0,[0, 0, 0, 0],0,0,HEARTBEAT,6,8,0,0,0,3
0.6452646255493164,24.1328125,VFR_HUD,0.0,0.005401302594691515,58,0,-2.25,0.010028514079749584,,,,,,,,,,,,,,,,AHRS,0.006866843905299902,0.0006534472922794521,-0.0022078449837863445,0.0,0.0,0.0003424839524086565,0.0054175411351025105,GPS_RAW_INT,0,1,0,0,-17000,9999,9999,0,0,0,0,4294967295,4294967295,1000000,0,0,RC_CHANNELS,6705536,16,1502,1499,1004,1501,1000,1000,1501,1500,0,0,0,0,0,0,0,0,0,0,0,MISSION_CURRENT,0,SYS_STATUS,52485167,52461615,53510447,36,0,-1,-1,0,0,0,0,0,0,GLOBAL_POSITION_INT,6705536,0,0,-2250,-2254,0,0,-1,5863,RAW_IMU,2410569526,19,11,-993,-6,0,2,267,-455,245,0,4308,BATTERY_STATUS,0,0,0,32767,[65535, 65535, 65535, 65535, 65535, 65535, 65535, 65535, 65535, 65535],-1,-1,-1,100,0,0,[0, 0, 0, 0],0,0,HEARTBEAT,6,8,0,0,0,3
0.6959290504455566,24.1328125,VFR_HUD,0.0,0.005401302594691515,58,0,-2.25,0.010028514079749584,,,,,,,,,,,,,,,,AHRS,0.006866843905299902,0.0006534472922794521,-0.0022078449837863445,0.0,0.0,0.0003424839524086565,0.0054175411351025105,GPS_RAW_INT,0,1,0,0,-17000,9999,9999,0,0,0,0,4294967295,4294967295,1000000,0,0,RC_CHANNELS,6705536,16,1502,1499,1004,1501,1000,1000,1501,1500,0,0,0,0,0,0,0,0,0,0,0,MISSION_CURRENT,0,SYS_STATUS,52485167,52461615,53510447,36,0,-1,-1,0,0,0,0,0,0,GLOBAL_POSITION_INT,6705536,0,0,-2250,-2254,0,0,-1,5863,RAW_IMU,2410569526,19,11,-993,-6,0,2,267,-455,245,0,4308,BATTERY_STATUS,0,0,0,32767,[65535, 65535, 65535, 65535, 65535, 65535, 65535, 65535, 65535, 65535],-1,-1,-1,100,0,0,[0, 0, 0, 0],0,0,HEARTBEAT,6,8,0,0,0,3
0.7471611499786377,24.1328125,VFR_HUD,0.0,0.005401302594691515,58,0,-2.25,0.010028514079749584,,,,,,,,,,,,,,,,AHRS,0.006866843905299902,0.0006534472922794521,-0.0022078449837863445,0.0,0.0,0.0003424839524086565,0.0054175411351025105,GPS_RAW_INT,0,1,0,0,-17000,9999,9999,0,0,0,0,4294967295,4294967295,1000000,0,0,RC_CHANNELS,6705536,16,1502,1499,1004,1501,1000,1000,1501,1500,0,0,0,0,0,0,0,0,0,0,0,MISSION_CURRENT,0,SYS_STATUS,52485167,52461615,53510447,36,0,-1,-1,0,0,0,0,0,0,GLOBAL_POSITION_INT,6705536,0,0,-2250,-2254,0,0,-1,5863,RAW_IMU,2410569526,19,11,-993,-6,0,2,267,-455,245,0,4308,BATTERY_STATUS,0,0,0,32767,[65535, 65535, 65535, 65535, 65535, 65535, 65535, 65535, 65535, 65535],-1,-1,-1,100,0,0,[0, 0, 0, 0],0,0,HEARTBEAT,6,8,0,0,0,3
0.7978432178497314,24.140625,VFR_HUD,0.0,0.005401302594691515,58,0,-2.25,0.010028514079749584,,,,,,,,,,,,,,,,AHRS,0.006866843905299902,0.0006534472922794521,-0.0022078449837863445,0.0,0.0,0.0003424839524086565,0.0054175411351025105,GPS_RAW_INT,0,1,0,0,-17000,9999,9999,0,0,0,0,4294967295,4294967295,1000000,0,0,RC_CHANNELS,6705536,16,1502,1499,1004,1501,1000,1000,1501,1500,0,0,0,0,0,0,0,0,0,0,0,MISSION_CURRENT,0,SYS_STATUS,52485167,52461615,53510447,36,0,-1,-1,0,0,0,0,0,0,GLOBAL_POSITION_INT,6705536,0,0,-2250,-2254,0,0,-1,5863,RAW_IMU,2410569526,19,11,-993,-6,0,2,267,-455,245,0,4308,BATTERY_STATUS,0,0,0,32767,[65535, 65535, 65535, 65535, 65535, 65535, 65535, 65535, 65535, 65535],-1,-1,-1,100,0,0,[0, 0, 0, 0],0,0,HEARTBEAT,6,8,0,0,0,3
0.8489902019500732,24.140625,VFR_HUD,0.0,0.005401302594691515,58,0,-2.25,0.010028514079749584,,,,,,,,,,,,,,,,AHRS,0.006866843905299902,0.0006534472922794521,-0.0022078449837863445,0.0,0.0,0.0003424839524086565,0.0054175411351025105,GPS_RAW_INT,0,1,0,0,-17000,9999,9999,0,0,0,0,4294967295,4294967295,1000000,0,0,RC_CHANNELS,6705536,16,1502,1499,1004,1501,1000,1000,1501,1500,0,0,0,0,0,0,0,0,0,0,0,MISSION_CURRENT,0,SYS_STATUS,52485167,52461615,53510447,36,0,-1,-1,0,0,0,0,0,0,GLOBAL_POSITION_INT,6705536,0,0,-2250,-2254,0,0,-1,5863,RAW_IMU,2410569526,19,11,-993,-6,0,2,267,-455,245,0,4308,BATTERY_STATUS,0,0,0,32767,[65535, 65535, 65535, 65535, 65535, 65535, 65535, 65535, 65535, 65535],-1,-1,-1,100,0,0,[0, 0, 0, 0],0,0,HEARTBEAT,6,8,0,0,0,3
0.8999252319335938,24.1484375,VFR_HUD,0.0,0.005401302594691515,58,0,-2.25,0.010028514079749584,,,,,,,,,,,,,,,,AHRS,0.006866843905299902,0.0006534472922794521,-0.0022078449837863445,0.0,0.0,0.0003424839524086565,0.0054175411351025105,GPS_RAW_INT,0,1,0,0,-17000,9999,9999,0,0,0,0,4294967295,4294967295,1000000,0,0,RC_CHANNELS,6705536,16,1502,1499,1004,1501,1000,1000,1501,1500,0,0,0,0,0,0,0,0,0,0,0,MISSION_CURRENT,0,SYS_STATUS,52485167,52461615,53510447,36,0,-1,-1,0,0,0,0,0,0,GLOBAL_POSITION_INT,6705536,0,0,-2250,-2254,0,0,-1,5863,RAW_IMU,2410569526,19,11,-993,-6,0,2,267,-455,245,0,4308,BATTERY_STATUS,0,0,0,32767,[65535, 65535, 65535, 65535, 65535, 65535, 65535, 65535, 65535, 65535],-1,-1,-1,100,0,0,[0, 0, 0, 0],0,0,HEARTBEAT,6,8,0,0,0,3
0.9510869979858398,24.1484375,VFR_HUD,0.0,0.005401302594691515,58,0,-2.25,0.010028514079749584,,,,,,,,,,,,,,,,AHRS,0.006866843905299902,0.0006534472922794521,-0.0022078449837863445,0.0,0.0,0.0003424839524086565,0.0054175411351025105,GPS_RAW_INT,0,1,0,0,-17000,9999,9999,0,0,0,0,4294967295,4294967295,1000000,0,0,RC_CHANNELS,6705536,16,1502,1499,1004,1501,1000,1000,1501,1500,0,0,0,0,0,0,0,0,0,0,0,MISSION_CURRENT,0,SYS_STATUS,52485167,52461615,53510447,36,0,-1,-1,0,0,0,0,0,0,GLOBAL_POSITION_INT,6705536,0,0,-2250,-2254,0,0,-1,5863,RAW_IMU,2410569526,19,11,-993,-6,0,2,267,-455,245,0,4308,BATTERY_STATUS,0,0,0,32767,[65535, 65535, 65535, 65535, 65535, 65535, 65535, 65535, 65535, 65535],-1,-1,-1,100,0,0,[0, 0, 0, 0],0,0,HEARTBEAT,6,8,0,0,0,3
1.001756191253662,24.1484375,VFR_HUD,0.0,0.005401302594691515,58,0,-2.25,0.010028514079749584,,,,,,,,,,,,,,,,AHRS,0.006866843905299902,0.0006534472922794521,-0.0022078449837863445,0.0,0.0,0.0003424839524086565,0.0054175411351025105,GPS_RAW_INT,0,1,0,0,-17000,9999,9999,0,0,0,0,4294967295,4294967295,1000000,0,0,RC_CHANNELS,6705536,16,1502,1499,1004,1501,1000,1000,1501,1500,0,0,0,0,0,0,0,0,0,0,0,MISSION_CURRENT,0,SYS_STATUS,52485167,52461615,53510447,36,0,-1,-1,0,0,0,0,0,0,GLOBAL_POSITION_INT,6705536,0,0,-2250,-2254,0,0,-1,5863,RAW_IMU,2410569526,19,11,-993,-6,0,2,267,-455,245,0,4308,BATTERY_STATUS,0,0,0,32767,[65535, 65535, 65535, 65535, 65535, 65535, 65535, 65535, 65535, 65535],-1,-1,-1,100,0,0,[0, 0, 0, 0],0,0,HEARTBEAT,6,8,0,0,0,3
1.052603006362915,24.1328125,VFR_HUD,0.0,0.005401302594691515,58,0,-2.25,0.010028514079749584,,,,,,,,,,,,,,,,AHRS,0.006866843905299902,0.0006534472922794521,-0.0022078449837863445,0.0,0.0,0.0003424839524086565,0.0054175411351025105,GPS_RAW_INT,0,1,0,0,-17000,9999,9999,0,0,0,0,4294967295,4294967295,1000000,0,0,RC_CHANNELS,6705536,16,1502,1499,1004,1501,1000,1000,1501,1500,0,0,0,0,0,0,0,0,0,0,0,MISSION_CURRENT,0,SYS_STATUS,52485167,52461615,53510447,36,0,-1,-1,0,0,0,0,0,0,GLOBAL_POSITION_INT,6705536,0,0,-2250,-2254,0,0,-1,5863,RAW_IMU,2410569526,19,11,-993,-6,0,2,267,-455,245,0,4308,BATTERY_STATUS,0,0,0,32767,[65535, 65535, 65535, 65535, 65535, 65535, 65535, 65535, 65535, 65535],-1,-1,-1,100,0,0,[0, 0, 0, 0],0,0,HEARTBEAT,6,8,0,0,0,3
1.1041216850280762,24.1328125,VFR_HUD,0.0,0.005401302594691515,58,0,-2.25,0.010028514079749584,,,,,,,,,,,,,,,,AHRS,0.006866843905299902,0.0006534472922794521,-0.0022078449837863445,0.0,0.0,0.0003424839524086565,0.0054175411351025105,GPS_RAW_INT,0,1,0,0,-17000,9999,9999,0,0,0,0,4294967295,4294967295,1000000,0,0,RC_CHANNELS,6705536,16,1502,1499,1004,1501,1000,1000,1501,1500,0,0,0,0,0,0,0,0,0,0,0,MISSION_CURRENT,0,SYS_STATUS,52485167,52461615,53510447,36,0,-1,-1,0,0,0,0,0,0,GLOBAL_POSITION_INT,6705536,0,0,-2250,-2254,0,0,-1,5863,RAW_IMU,2410569526,19,11,-993,-6,0,2,267,-455,245,0,4308,BATTERY_STATUS,0,0,0,32767,[65535, 65535, 65535, 65535, 65535, 65535, 65535, 65535, 65535, 65535],-1,-1,-1,100,0,0,[0, 0, 0, 0],0,0,HEARTBEAT,10,3,193,0,4,3
1.1547653675079346,24.140625,VFR_HUD,0.0,0.0055467188358306885,58,0,-2.490000009536743,0.010287434794008732,,,,,,,,,,,,,,,,AHRS,0.006866843905299902,0.0006534472922794521,-0.0022078449837863445,0.0,0.0,0.0003424839524086565,0.0054175411351025105,GPS_RAW_INT,0,1,0,0,-17000,9999,9999,0,0,0,0,4294967295,4294967295,1000000,0,0,RC_CHANNELS,6705536,16,1502,1499,1004,1501,1000,1000,1501,1500,0,0,0,0,0,0,0,0,0,0,0,MISSION_CURRENT,0,SYS_STATUS,52485167,52461615,53510447,34,0,-1,-1,0,0,0,0,0,0,GLOBAL_POSITION_INT,6706536,0,0,-2490,-2495,0,0,-1,5864,RAW_IMU,2410569526,19,11,-993,-6,0,2,267,-455,245,0,4308,BATTERY_STATUS,0,0,0,32767,[65535, 65535, 65535, 65535, 65535, 65535, 65535, 65535, 65535, 65535],-1,-1,-1,100,0,0,[0, 0, 0, 0],0,0,HEARTBEAT,10,3,193,0,4,3
1.2058336734771729,24.140625,VFR_HUD,0.0,0.0055467188358306885,58,0,-2.490000009536743,0.010287434794008732,,,,,,,,,,,,,,,,AHRS,0.006871393881738186,0.0006538807647302747,-0.0022089642006903887,0.0,0.0,0.00039068766636773944,0.0035873318556696177,GPS_RAW_INT,0,1,0,0,-17000,9999,9999,0,0,0,0,4294967295,4294967295,1000000,0,0,RC_CHANNELS,6706536,16,1501,1499,1004,1501,1001,1000,1500,1500,0,0,0,0,0,0,0,0,0,0,0,MISSION_CURRENT,0,SYS_STATUS,52485167,52461615,53510447,34,0,-1,-1,0,0,0,0,0,0,GLOBAL_POSITION_INT,6706536,0,0,-2490,-2495,0,0,-1,5864,RAW_IMU,2411569430,20,11,-992,-6,0,1,266,-449,251,0,4308,BATTERY_STATUS,0,0,0,32767,[65535, 65535, 65535, 65535, 65535, 65535, 65535, 65535, 65535, 65535],-1,-1,-1,100,0,0,[0, 0, 0, 0],0,0,HEARTBEAT,10,3,193,0,4,3
1.2566344738006592,24.140625,VFR_HUD,0.0,0.0055467188358306885,58,0,-2.490000009536743,0.010287434794008732,,,,,,,,,,,,,,,,AHRS,0.006871393881738186,0.0006538807647302747,-0.0022089642006903887,0.0,0.0,0.00039068766636773944,0.0035873318556696177,GPS_RAW_INT,0,1,0,0,-17000,9999,9999,0,0,0,0,4294967295,4294967295,1000000,0,0,RC_CHANNELS,6706536,16,1501,1499,1004,1501,1001,1000,1500,1500,0,0,0,0,0,0,0,0,0,0,0,MISSION_CURRENT,0,SYS_STATUS,52485167,52461615,53510447,34,0,-1,-1,0,0,0,0,0,0,GLOBAL_POSITION_INT,6706536,0,0,-2490,-2495,0,0,-1,5864,RAW_IMU,2411569430,20,11,-992,-6,0,1,266,-449,251,0,4308,BATTERY_STATUS,0,0,0,32767,[65535, 65535, 65535, 65535, 65535, 65535, 65535, 65535, 65535, 65535],-1,-1,-1,100,0,0,[0, 0, 0, 0],0,0,HEARTBEAT,10,3,193,0,4,3
1.307805061340332,24.140625,VFR_HUD,0.0,0.0055467188358306885,58,0,-2.490000009536743,0.010287434794008732,,,,,,,,,,,,,,,,AHRS,0.006871393881738186,0.0006538807647302747,-0.0022089642006903887,0.0,0.0,0.00039068766636773944,0.0035873318556696177,GPS_RAW_INT,0,1,0,0,-17000,9999,9999,0,0,0,0,4294967295,4294967295,1000000,0,0,RC_CHANNELS,6706536,16,1501,1499,1004,1501,1001,1000,1500,1500,0,0,0,0,0,0,0,0,0,0,0,MISSION_CURRENT,0,SYS_STATUS,52485167,52461615,53510447,34,0,-1,-1,0,0,0,0,0,0,GLOBAL_POSITION_INT,6706536,0,0,-2490,-2495,0,0,-1,5864,RAW_IMU,2411569430,20,11,-992,-6,0,1,266,-449,251,0,4308,BATTERY_STATUS,0,0,0,32767,[65535, 65535, 65535, 65535, 65535, 65535, 65535, 65535, 65535, 65535],-1,-1,-1,100,0,0,[0, 0, 0, 0],0,0,HEARTBEAT,10,3,193,0,4,3
1.3588464260101318,24.140625,VFR_HUD,0.0,0.0055467188358306885,58,0,-2.490000009536743,0.010287434794008732,,,,,,,,,,,,,,,,AHRS,0.006871393881738186,0.0006538807647302747,-0.0022089642006903887,0.0,0.0,0.00039068766636773944,0.0035873318556696177,GPS_RAW_INT,0,1,0,0,-17000,9999,9999,0,0,0,0,4294967295,4294967295,1000000,0,0,RC_CHANNELS,6706536,16,1501,1499,1004,1501,1001,1000,1500,1500,0,0,0,0,0,0,0,0,0,0,0,MISSION_CURRENT,0,SYS_STATUS,52485167,52461615,53510447,34,0,-1,-1,0,0,0,0,0,0,GLOBAL_POSITION_INT,6706536,0,0,-2490,-2495,0,0,-1,5864,RAW_IMU,2411569430,20,11,-992,-6,0,1,266,-449,251,0,4308,BATTERY_STATUS,0,0,0,32767,[65535, 65535, 65535, 65535, 65535, 65535, 65535, 65535, 65535, 65535],-1,-1,-1,100,0,0,[0, 0, 0, 0],0,0,HEARTBEAT,10,3,193,0,4,3
1.4097840785980225,24.140625,VFR_HUD,0.0,0.0055467188358306885,58,0,-2.490000009536743,0.010287434794008732,,,,,,,,,,,,,,,,AHRS,0.006871393881738186,0.0006538807647302747,-0.0022089642006903887,0.0,0.0,0.00039068766636773944,0.0035873318556696177,GPS_RAW_INT,0,1,0,0,-17000,9999,9999,0,0,0,0,4294967295,4294967295,1000000,0,0,RC_CHANNELS,6706536,16,1501,1499,1004,1501,1001,1000,1500,1500,0,0,0,0,0,0,0,0,0,0,0,MISSION_CURRENT,0,SYS_STATUS,52485167,52461615,53510447,34,0,-1,-1,0,0,0,0,0,0,GLOBAL_POSITION_INT,6706536,0,0,-2490,-2495,0,0,-1,5864,RAW_IMU,2411569430,20,11,-992,-6,0,1,266,-449,251,0,4308,BATTERY_STATUS,0,0,0,32767,[65535, 65535, 65535, 65535, 65535, 65535, 65535, 65535, 65535, 65535],-1,-1,-1,100,0,0,[0, 0, 0, 0],0,0,HEARTBEAT,6,8,0,0,0,3
1.460958480834961,24.140625,VFR_HUD,0.0,0.0055467188358306885,58,0,-2.490000009536743,0.010287434794008732,,,,,,,,,,,,,,,,AHRS,0.006871393881738186,0.0006538807647302747,-0.0022089642006903887,0.0,0.0,0.00039068766636773944,0.0035873318556696177,GPS_RAW_INT,0,1,0,0,-17000,9999,9999,0,0,0,0,4294967295,4294967295,1000000,0,0,RC_CHANNELS,6706536,16,1501,1499,1004,1501,1001,1000,1500,1500,0,0,0,0,0,0,0,0,0,0,0,MISSION_CURRENT,0,SYS_STATUS,52485167,52461615,53510447,34,0,-1,-1,0,0,0,0,0,0,GLOBAL_POSITION_INT,6706536,0,0,-2490,-2495,0,0,-1,5864,RAW_IMU,2411569430,20,11,-992,-6,0,1,266,-449,251,0,4308,BATTERY_STATUS,0,0,0,32767,[65535, 65535, 65535, 65535, 65535, 65535, 65535, 65535, 65535, 65535],-1,-1,-1,100,0,0,[0, 0, 0, 0],0,0,HEARTBEAT,6,8,0,0,0,3
1.511756420135498,24.140625,VFR_HUD,0.0,0.0055467188358306885,58,0,-2.490000009536743,0.010287434794008732,,,,,,,,,,,,,,,,AHRS,0.006871393881738186,0.0006538807647302747,-0.0022089642006903887,0.0,0.0,0.00039068766636773944,0.0035873318556696177,GPS_RAW_INT,0,1,0,0,-17000,9999,9999,0,0,0,0,4294967295,4294967295,1000000,0,0,RC_CHANNELS,6706536,16,1501,1499,1004,1501,1001,1000,1500,1500,0,0,0,0,0,0,0,0,0,0,0,MISSION_CURRENT,0,SYS_STATUS,52485167,52461615,53510447,34,0,-1,-1,0,0,0,0,0,0,GLOBAL_POSITION_INT,6706536,0,0,-2490,-2495,0,0,-1,5864,RAW_IMU,2411569430,20,11,-992,-6,0,1,266,-449,251,0,4308,BATTERY_STATUS,0,0,0,32767,[65535, 65535, 65535, 65535, 65535, 65535, 65535, 65535, 65535, 65535],-1,-1,-1,100,0,0,[0, 0, 0, 0],0,0,HEARTBEAT,6,8,0,0,0,3
1.5628061294555664,24.140625,VFR_HUD,0.0,0.0055467188358306885,58,0,-2.490000009536743,0.010287434794008732,,,,,,,,,,,,,,,,AHRS,0.006871393881738186,0.0006538807647302747,-0.0022089642006903887,0.0,0.0,0.00039068766636773944,0.0035873318556696177,GPS_RAW_INT,0,1,0,0,-17000,9999,9999,0,0,0,0,4294967295,4294967295,1000000,0,0,RC_CHANNELS,6706536,16,1501,1499,1004,1501,1001,1000,1500,1500,0,0,0,0,0,0,0,0,0,0,0,MISSION_CURRENT,0,SYS_STATUS,52485167,52461615,53510447,34,0,-1,-1,0,0,0,0,0,0,GLOBAL_POSITION_INT,6706536,0,0,-2490,-2495,0,0,-1,5864,RAW_IMU,2411569430,20,11,-992,-6,0,1,266,-449,251,0,4308,BATTERY_STATUS,0,0,0,32767,[65535, 65535, 65535, 65535, 65535, 65535, 65535, 65535, 65535, 65535],-1,-1,-1,100,0,0,[0, 0, 0, 0],0,0,HEARTBEAT,6,8,0,0,0,3
1.613516092300415,24.140625,VFR_HUD,0.0,0.0055467188358306885,58,0,-2.490000009536743,0.010287434794008732,,,,,,,,,,,,,,,,AHRS,0.006871393881738186,0.0006538807647302747,-0.0022089642006903887,0.0,0.0,0.00039068766636773944,0.0035873318556696177,GPS_RAW_INT,0,1,0,0,-17000,9999,9999,0,0,0,0,4294967295,4294967295,1000000,0,0,RC_CHANNELS,6706536,16,1501,1499,1004,1501,1001,1000,1500,1500,0,0,0,0,0,0,0,0,0,0,0,MISSION_CURRENT,0,SYS_STATUS,52485167,52461615,53510447,34,0,-1,-1,0,0,0,0,0,0,GLOBAL_POSITION_INT,6706536,0,0,-2490,-2495,0,0,-1,5864,RAW_IMU,2411569430,20,11,-992,-6,0,1,266,-449,251,0,4308,BATTERY_STATUS,0,0,0,32767,[65535, 65535, 65535, 65535, 65535, 65535, 65535, 65535, 65535, 65535],-1,-1,-1,100,0,0,[0, 0, 0, 0],0,0,HEARTBEAT,6,8,0,0,0,3
1.6642606258392334,24.140625,VFR_HUD,0.0,0.0055467188358306885,58,0,-2.490000009536743,0.010287434794008732,,,,,,,,,,,,,,,,AHRS,0.006871393881738186,0.0006538807647302747,-0.0022089642006903887,0.0,0.0,0.00039068766636773944,0.0035873318556696177,GPS_RAW_INT,0,1,0,0,-17000,9999,9999,0,0,0,0,4294967295,4294967295,1000000,0,0,RC_CHANNELS,6706536,16,1501,1499,1004,1501,1001,1000,1500,1500,0,0,0,0,0,0,0,0,0,0,0,MISSION_CURRENT,0,SYS_STATUS,52485167,52461615,53510447,34,0,-1,-1,0,0,0,0,0,0,GLOBAL_POSITION_INT,6706536,0,0,-2490,-2495,0,0,-1,5864,RAW_IMU,2411569430,20,11,-992,-6,0,1,266,-449,251,0,4308,BATTERY_STATUS,0,0,0,32767,[65535, 65535, 65535, 65535, 65535, 65535, 65535, 65535, 65535, 65535],-1,-1,-1,100,0,0,[0, 0, 0, 0],0,0,HEARTBEAT,6,8,0,0,0,3
1.7152855396270752,24.140625,VFR_HUD,0.0,0.0055467188358306885,58,0,-2.490000009536743,0.010287434794008732,,,,,,,,,,,,,,,,AHRS,0.006871393881738186,0.0006538807647302747,-0.0022089642006903887,0.0,0.0,0.00039068766636773944,0.0035873318556696177,GPS_RAW_INT,0,1,0,0,-17000,9999,9999,0,0,0,0,4294967295,4294967295,1000000,0,0,RC_CHANNELS,6706536,16,1501,1499,1004,1501,1001,1000,1500,1500,0,0,0,0,0,0,0,0,0,0,0,MISSION_CURRENT,0,SYS_STATUS,52485167,52461615,53510447,34,0,-1,-1,0,0,0,0,0,0,GLOBAL_POSITION_INT,6706536,0,0,-2490,-2495,0,0,-1,5864,RAW_IMU,2411569430,20,11,-992,-6,0,1,266,-449,251,0,4308,BATTERY_STATUS,0,0,0,32767,[65535, 65535, 65535, 65535, 65535, 65535, 65535, 65535, 65535, 65535],-1,-1,-1,100,0,0,[0, 0, 0, 0],0,0,HEARTBEAT,6,8,0,0,0,3
1.7659671306610107,24.140625,VFR_HUD,0.0,0.0055467188358306885,58,0,-2.490000009536743,0.010287434794008732,,,,,,,,,,,,,,,,AHRS,0.006871393881738186,0.0006538807647302747,-0.0022089642006903887,0.0,0.0,0.00039068766636773944,0.0035873318556696177,GPS_RAW_INT,0,1,0,0,-17000,9999,9999,0,0,0,0,4294967295,4294967295,1000000,0,0,RC_CHANNELS,6706536,16,1501,1499,1004,1501,1001,1000,1500,1500,0,0,0,0,0,0,0,0,0,0,0,MISSION_CURRENT,0,SYS_STATUS,52485167,52461615,53510447,34,0,-1,-1,0,0,0,0,0,0,GLOBAL_POSITION_INT,6706536,0,0,-2490,-2495,0,0,-1,5864,RAW_IMU,2411569430,20,11,-992,-6,0,1,266,-449,251,0,4308,BATTERY_STATUS,0,0,0,32767,[65535, 65535, 65535, 65535, 65535, 65535, 65535, 65535, 65535, 65535],-1,-1,-1,100,0,0,[0, 0, 0, 0],0,0,HEARTBEAT,6,8,0,0,0,3
1.816988229751587,24.140625,VFR_HUD,0.0,0.0055467188358306885,58,0,-2.490000009536743,0.010287434794008732,,,,,,,,,,,,,,,,AHRS,0.006871393881738186,0.0006538807647302747,-0.0022089642006903887,0.0,0.0,0.00039068766636773944,0.0035873318556696177,GPS_RAW_INT,0,1,0,0,-17000,9999,9999,0,0,0,0,4294967295,4294967295,1000000,0,0,RC_CHANNELS,6706536,16,1501,1499,1004,1501,1001,1000,1500,1500,0,0,0,0,0,0,0,0,0,0,0,MISSION_CURRENT,0,SYS_STATUS,52485167,52461615,53510447,34,0,-1,-1,0,0,0,0,0,0,GLOBAL_POSITION_INT,6706536,0,0,-2490,-2495,0,0,-1,5864,RAW_IMU,2411569430,20,11,-992,-6,0,1,266,-449,251,0,4308,BATTERY_STATUS,0,0,0,32767,[65535, 65535, 65535, 65535, 65535, 65535, 65535, 65535, 65535, 65535],-1,-1,-1,100,0,0,[0, 0, 0, 0],0,0,HEARTBEAT,6,8,0,0,0,3
1.8677260875701904,24.140625,VFR_HUD,0.0,0.0055467188358306885,58,0,-2.490000009536743,0.010287434794008732,,,,,,,,,,,,,,,,AHRS,0.006871393881738186,0.0006538807647302747,-0.0022089642006903887,0.0,0.0,0.00039068766636773944,0.0035873318556696177,GPS_RAW_INT,0,1,0,0,-17000,9999,9999,0,0,0,0,4294967295,4294967295,1000000,0,0,RC_CHANNELS,6706536,16,1501,1499,1004,1501,1001,1000,1500,1500,0,0,0,0,0,0,0,0,0,0,0,MISSION_CURRENT,0,SYS_STATUS,52485167,52461615,53510447,34,0,-1,-1,0,0,0,0,0,0,GLOBAL_POSITION_INT,6706536,0,0,-2490,-2495,0,0,-1,5864,RAW_IMU,2411569430,20,11,-992,-6,0,1,266,-449,251,0,4308,BATTERY_STATUS,0,0,0,32767,[65535, 65535, 65535, 65535, 65535, 65535, 65535, 65535, 65535, 65535],-1,-1,-1,100,0,0,[0, 0, 0, 0],0,0,HEARTBEAT,6,8,0,0,0,3
1.9186153411865234,24.140625,VFR_HUD,0.0,0.0055467188358306885,58,0,-2.490000009536743,0.010287434794008732,,,,,,,,,,,,,,,,AHRS,0.006871393881738186,0.0006538807647302747,-0.0022089642006903887,0.0,0.0,0.00039068766636773944,0.0035873318556696177,GPS_RAW_INT,0,1,0,0,-17000,9999,9999,0,0,0,0,4294967295,4294967295,1000000,0,0,RC_CHANNELS,6706536,16,1501,1499,1004,1501,1001,1000,1500,1500,0,0,0,0,0,0,0,0,0,0,0,MISSION_CURRENT,0,SYS_STATUS,52485167,52461615,53510447,34,0,-1,-1,0,0,0,0,0,0,GLOBAL_POSITION_INT,6706536,0,0,-2490,-2495,0,0,-1,5864,RAW_IMU,2411569430,20,11,-992,-6,0,1,266,-449,251,0,4308,BATTERY_STATUS,0,0,0,32767,[65535, 65535, 65535, 65535, 65535, 65535, 65535, 65535, 65535, 65535],-1,-1,-1,100,0,0,[0, 0, 0, 0],0,0,HEARTBEAT,6,8,0,0,0,3
1.969693899154663,24.140625,VFR_HUD,0.0,0.0055467188358306885,58,0,-2.490000009536743,0.010287434794008732,,,,,,,,,,,,,,,,AHRS,0.006871393881738186,0.0006538807647302747,-0.0022089642006903887,0.0,0.0,0.00039068766636773944,0.0035873318556696177,GPS_RAW_INT,0,1,0,0,-17000,9999,9999,0,0,0,0,4294967295,4294967295,1000000,0,0,RC_CHANNELS,6706536,16,1501,1499,1004,1501,1001,1000,1500,1500,0,0,0,0,0,0,0,0,0,0,0,MISSION_CURRENT,0,SYS_STATUS,52485167,52461615,53510447,34,0,-1,-1,0,0,0,0,0,0,GLOBAL_POSITION_INT,6706536,0,0,-2490,-2495,0,0,-1,5864,RAW_IMU,2411569430,20,11,-992,-6,0,1,266,-449,251,0,4308,BATTERY_STATUS,0,0,0,32767,[65535, 65535, 65535, 65535, 65535, 65535, 65535, 65535, 65535, 65535],-1,-1,-1,100,0,0,[0, 0, 0, 0],0,0,HEARTBEAT,6,8,0,0,0,3
2.0204341411590576,24.140625,VFR_HUD,0.0,0.0055467188358306885,58,0,-2.490000009536743,0.010287434794008732,,,,,,,,,,,,,,,,AHRS,0.006871393881738186,0.0006538807647302747,-0.0022089642006903887,0.0,0.0,0.00039068766636773944,0.0035873318556696177,GPS_RAW_INT,0,1,0,0,-17000,9999,9999,0,0,0,0,4294967295,4294967295,1000000,0,0,RC_CHANNELS,6706536,16,1501,1499,1004,1501,1001,1000,1500,1500,0,0,0,0,0,0,0,0,0,0,0,MISSION_CURRENT,0,SYS_STATUS,52485167,52461615,53510447,34,0,-1,-1,0,0,0,0,0,0,GLOBAL_POSITION_INT,6706536,0,0,-2490,-2495,0,0,-1,5864,RAW_IMU,2411569430,20,11,-992,-6,0,1,266,-449,251,0,4308,BATTERY_STATUS,0,0,0,32767,[65535, 65535, 65535, 65535, 65535, 65535, 65535, 65535, 65535, 65535],-1,-1,-1,100,0,0,[0, 0, 0, 0],0,0,HEARTBEAT,6,8,0,0,0,3
2.071758985519409,24.140625,VFR_HUD,0.0,0.0055467188358306885,58,0,-2.490000009536743,0.010287434794008732,,,,,,,,,,,,,,,,AHRS,0.006871393881738186,0.0006538807647302747,-0.0022089642006903887,0.0,0.0,0.00039068766636773944,0.0035873318556696177,GPS_RAW_INT,0,1,0,0,-17000,9999,9999,0,0,0,0,4294967295,4294967295,1000000,0,0,RC_CHANNELS,6706536,16,1501,1499,1004,1501,1001,1000,1500,1500,0,0,0,0,0,0,0,0,0,0,0,MISSION_CURRENT,0,SYS_STATUS,52485167,52461615,53510447,34,0,-1,-1,0,0,0,0,0,0,GLOBAL_POSITION_INT,6706536,0,0,-2490,-2495,0,0,-1,5864,RAW_IMU,2411569430,20,11,-992,-6,0,1,266,-449,251,0,4308,BATTERY_STATUS,0,0,0,32767,[65535, 65535, 65535, 65535, 65535, 65535, 65535, 65535, 65535, 65535],-1,-1,-1,100,0,0,[0, 0, 0, 0],0,0,HEARTBEAT,6,8,0,0,0,3
2.122462272644043,24.140625,VFR_HUD,0.0,0.0055467188358306885,58,0,-2.490000009536743,0.010287434794008732,,,,,,,,,,,,,,,,AHRS,0.006871393881738186,0.0006538807647302747,-0.0022089642006903887,0.0,0.0,0.00039068766636773944,0.0035873318556696177,GPS_RAW_INT,0,1,0,0,-17000,9999,9999,0,0,0,0,4294967295,4294967295,1000000,0,0,RC_CHANNELS,6706536,16,1501,1499,1004,1501,1001,1000,1500,1500,0,0,0,0,0,0,0,0,0,0,0,MISSION_CURRENT,0,SYS_STATUS,52485167,52461615,53510447,34,0,-1,-1,0,0,0,0,0,0,GLOBAL_POSITION_INT,6706536,0,0,-2490,-2495,0,0,-1,5864,RAW_IMU,2411569430,20,11,-992,-6,0,1,266,-449,251,0,4308,BATTERY_STATUS,0,0,0,32767,[65535, 65535, 65535, 65535, 65535, 65535, 65535, 65535, 65535, 65535],-1,-1,-1,100,0,0,[0, 0, 0, 0],0,0,HEARTBEAT,6,8,0,0,0,3
2.1735804080963135,24.140625,VFR_HUD,0.0,0.0055467188358306885,58,0,-2.490000009536743,0.010287434794008732,,,,,,,,,,,,,,,,AHRS,0.006871393881738186,0.0006538807647302747,-0.0022089642006903887,0.0,0.0,0.00039068766636773944,0.0035873318556696177,GPS_RAW_INT,0,1,0,0,-17000,9999,9999,0,0,0,0,4294967295,4294967295,1000000,0,0,RC_CHANNELS,6706536,16,1501,1499,1004,1501,1001,1000,1500,1500,0,0,0,0,0,0,0,0,0,0,0,MISSION_CURRENT,0,SYS_STATUS,52485167,52461615,53510447,34,0,-1,-1,0,0,0,0,0,0,GLOBAL_POSITION_INT,6706536,0,0,-2490,-2495,0,0,-1,5864,RAW_IMU,2411569430,20,11,-992,-6,0,1,266,-449,251,0,4308,BATTERY_STATUS,0,0,0,32767,[65535, 65535, 65535, 65535, 65535, 65535, 65535, 65535, 65535, 65535],-1,-1,-1,100,0,0,[0, 0, 0, 0],0,0,HEARTBEAT,6,8,0,0,0,3
2.2252371311187744,24.140625,VFR_HUD,0.0,0.0055467188358306885,58,0,-2.490000009536743,0.010287434794008732,,,,,,,,,,,,,,,,AHRS,0.006871393881738186,0.0006538807647302747,-0.0022089642006903887,0.0,0.0,0.00039068766636773944,0.0035873318556696177,GPS_RAW_INT,0,1,0,0,-17000,9999,9999,0,0,0,0,4294967295,4294967295,1000000,0,0,RC_CHANNELS,6706536,16,1501,1499,1004,1501,1001,1000,1500,1500,0,0,0,0,0,0,0,0,0,0,0,MISSION_CURRENT,0,SYS_STATUS,52485167,52461615,53510447,34,0,-1,-1,0,0,0,0,0,0,GLOBAL_POSITION_INT,6706536,0,0,-2490,-2495,0,0,-1,5864,RAW_IMU,2411569430,20,11,-992,-6,0,1,266,-449,251,0,4308,BATTERY_STATUS,0,0,0,32767,[65535, 65535, 65535, 65535, 65535, 65535, 65535, 65535, 65535, 65535],-1,-1,-1,100,0,0,[0, 0, 0, 0],0,0,HEARTBEAT,6,8,0,0,0,3
2.27603816986084,24.140625,VFR_HUD,0.0,0.0055467188358306885,58,0,-2.490000009536743,0.010287434794008732,,,,,,,,,,,,,,,,AHRS,0.006871393881738186,0.0006538807647302747,-0.0022089642006903887,0.0,0.0,0.00039068766636773944,0.0035873318556696177,GPS_RAW_INT,0,1,0,0,-17000,9999,9999,0,0,0,0,4294967295,4294967295,1000000,0,0,RC_CHANNELS,6706536,16,1501,1499,1004,1501,1001,1000,1500,1500,0,0,0,0,0,0,0,0,0,0,0,MISSION_CURRENT,0,SYS_STATUS,52485167,52461615,53510447,34,0,-1,-1,0,0,0,0,0,0,GLOBAL_POSITION_INT,6707536,0,0,-2740,-2742,0,0,0,5863,RAW_IMU,2411569430,20,11,-992,-6,0,1,266,-449,251,0,4308,BATTERY_STATUS,0,0,0,32767,[65535, 65535, 65535, 65535, 65535, 65535, 65535, 65535, 65535, 65535],-1,-1,-1,100,0,0,[0, 0, 0, 0],0,0,HEARTBEAT,10,3,193,0,4,3
2.3274316787719727,24.140625,VFR_HUD,0.0,0.008670887909829617,58,0,-2.740000009536743,-0.0012184437364339828,,,,,,,,,,,,,,,,AHRS,0.006871393881738186,0.0006538807647302747,-0.0022089642006903887,0.0,0.0,0.00039068766636773944,0.0035873318556696177,GPS_RAW_INT,0,1,0,0,-17000,9999,9999,0,0,0,0,4294967295,4294967295,1000000,0,0,RC_CHANNELS,6707536,16,1501,1499,1004,1501,1001,1000,1500,1500,0,0,0,0,0,0,0,0,0,0,0,MISSION_CURRENT,0,SYS_STATUS,52485167,52461615,53510447,34,0,-1,-1,0,0,0,0,0,0,GLOBAL_POSITION_INT,6707536,0,0,-2740,-2742,0,0,0,5863,RAW_IMU,2412569457,20,11,-992,-6,0,1,265,-452,246,0,4308,BATTERY_STATUS,0,0,0,32767,[65535, 65535, 65535, 65535, 65535, 65535, 65535, 65535, 65535, 65535],-1,-1,-1,100,0,0,[0, 0, 0, 0],0,0,HEARTBEAT,10,3,193,0,4,3
2.3783628940582275,24.140625,VFR_HUD,0.0,0.008670887909829617,58,0,-2.740000009536743,-0.0012184437364339828,,,,,,,,,,,,,,,,AHRS,0.00686888862401247,0.0006536532891914248,-0.002207942306995392,0.0,0.0,0.00026733498089015484,0.004394175484776497,GPS_RAW_INT,0,1,0,0,-17000,9999,9999,0,0,0,0,4294967295,4294967295,1000000,0,0,RC_CHANNELS,6707536,16,1501,1499,1004,1501,1001,1000,1500,1500,0,0,0,0,0,0,0,0,0,0,0,MISSION_CURRENT,0,SYS_STATUS,52485167,52461615,53510447,34,0,-1,-1,0,0,0,0,0,0,GLOBAL_POSITION_INT,6707536,0,0,-2740,-2742,0,0,0,5863,RAW_IMU,2412569457,20,11,-992,-6,0,1,265,-452,246,0,4308,BATTERY_STATUS,0,0,0,32767,[65535, 65535, 65535, 65535, 65535, 65535, 65535, 65535, 65535, 65535],-1,-1,-1,100,0,0,[0, 0, 0, 0],0,0,HEARTBEAT,6,8,0,0,0,3
2.430060386657715,24.140625,VFR_HUD,0.0,0.008670887909829617,58,0,-2.740000009536743,-0.0012184437364339828,,,,,,,,,,,,,,,,AHRS,0.00686888862401247,0.0006536532891914248,-0.002207942306995392,0.0,0.0,0.00026733498089015484,0.004394175484776497,GPS_RAW_INT,0,1,0,0,-17000,9999,9999,0,0,0,0,4294967295,4294967295,1000000,0,0,RC_CHANNELS,6707536,16,1501,1499,1004,1501,1001,1000,1500,1500,0,0,0,0,0,0,0,0,0,0,0,MISSION_CURRENT,0,SYS_STATUS,52485167,52461615,53510447,34,0,-1,-1,0,0,0,0,0,0,GLOBAL_POSITION_INT,6707536,0,0,-2740,-2742,0,0,0,5863,RAW_IMU,2412569457,20,11,-992,-6,0,1,265,-452,246,0,4308,BATTERY_STATUS,0,0,0,32767,[65535, 65535, 65535, 65535, 65535, 65535, 65535, 65535, 65535, 65535],-1,-1,-1,100,0,0,[0, 0, 0, 0],0,0,HEARTBEAT,6,8,0,0,0,3
2.4808359146118164,24.140625,VFR_HUD,0.0,0.008670887909829617,58,0,-2.740000009536743,-0.0012184437364339828,,,,,,,,,,,,,,,,AHRS,0.00686888862401247,0.0006536532891914248,-0.002207942306995392,0.0,0.0,0.00026733498089015484,0.004394175484776497,GPS_RAW_INT,0,1,0,0,-17000,9999,9999,0,0,0,0,4294967295,4294967295,1000000,0,0,RC_CHANNELS,6707536,16,1501,1499,1004,1501,1001,1000,1500,1500,0,0,0,0,0,0,0,0,0,0,0,MISSION_CURRENT,0,SYS_STATUS,52485167,52461615,53510447,34,0,-1,-1,0,0,0,0,0,0,GLOBAL_POSITION_INT,6707536,0,0,-2740,-2742,0,0,0,5863,RAW_IMU,2412569457,20,11,-992,-6,0,1,265,-452,246,0,4308,BATTERY_STATUS,0,0,0,32767,[65535, 65535, 65535, 65535, 65535, 65535, 65535, 65535, 65535, 65535],-1,-1,-1,100,0,0,[0, 0, 0, 0],0,0,HEARTBEAT,6,8,0,0,0,3
2.5329768657684326,24.1484375,VFR_HUD,0.0,0.008670887909829617,58,0,-2.740000009536743,-0.0012184437364339828,,,,,,,,,,,,,,,,AHRS,0.00686888862401247,0.0006536532891914248,-0.002207942306995392,0.0,0.0,0.00026733498089015484,0.004394175484776497,GPS_RAW_INT,0,1,0,0,-17000,9999,9999,0,0,0,0,4294967295,4294967295,1000000,0,0,RC_CHANNELS,6707536,16,1501,1499,1004,1501,1001,1000,1500,1500,0,0,0,0,0,0,0,0,0,0,0,MISSION_CURRENT,0,SYS_STATUS,52485167,52461615,53510447,34,0,-1,-1,0,0,0,0,0,0,GLOBAL_POSITION_INT,6707536,0,0,-2740,-2742,0,0,0,5863,RAW_IMU,2412569457,20,11,-992,-6,0,1,265,-452,246,0,4308,BATTERY_STATUS,0,0,0,32767,[65535, 65535, 65535, 65535, 65535, 65535, 65535, 65535, 65535, 65535],-1,-1,-1,100,0,0,[0, 0, 0, 0],0,0,HEARTBEAT,6,8,0,0,0,3
2.586524724960327,24.1484375,VFR_HUD,0.0,0.008670887909829617,58,0,-2.740000009536743,-0.0012184437364339828,,,,,,,,,,,,,,,,AHRS,0.00686888862401247,0.0006536532891914248,-0.002207942306995392,0.0,0.0,0.00026733498089015484,0.004394175484776497,GPS_RAW_INT,0,1,0,0,-17000,9999,9999,0,0,0,0,4294967295,4294967295,1000000,0,0,RC_CHANNELS,6707536,16,1501,1499,1004,1501,1001,1000,1500,1500,0,0,0,0,0,0,0,0,0,0,0,MISSION_CURRENT,0,SYS_STATUS,52485167,52461615,53510447,34,0,-1,-1,0,0,0,0,0,0,GLOBAL_POSITION_INT,6707536,0,0,-2740,-2742,0,0,0,5863,RAW_IMU,2412569457,20,11,-992,-6,0,1,265,-452,246,0,4308,BATTERY_STATUS,0,0,0,32767,[65535, 65535, 65535, 65535, 65535, 65535, 65535, 65535, 65535, 65535],-1,-1,-1,100,0,0,[0, 0, 0, 0],0,0,HEARTBEAT,6,8,0,0,0,3
2.6384012699127197,24.140625,VFR_HUD,0.0,0.008670887909829617,58,0,-2.740000009536743,-0.0012184437364339828,,,,,,,,,,,,,,,,AHRS,0.00686888862401247,0.0006536532891914248,-0.002207942306995392,0.0,0.0,0.00026733498089015484,0.004394175484776497,GPS_RAW_INT,0,1,0,0,-17000,9999,9999,0,0,0,0,4294967295,4294967295,1000000,0,0,RC_CHANNELS,6707536,16,1501,1499,1004,1501,1001,1000,1500,1500,0,0,0,0,0,0,0,0,0,0,0,MISSION_CURRENT,0,SYS_STATUS,52485167,52461615,53510447,34,0,-1,-1,0,0,0,0,0,0,GLOBAL_POSITION_INT,6707536,0,0,-2740,-2742,0,0,0,5863,RAW_IMU,2412569457,20,11,-992,-6,0,1,265,-452,246,0,4308,BATTERY_STATUS,0,0,0,32767,[65535, 65535, 65535, 65535, 65535, 65535, 65535, 65535, 65535, 65535],-1,-1,-1,100,0,0,[0, 0, 0, 0],0,0,HEARTBEAT,6,8,0,0,0,3
2.6901605129241943,24.140625,VFR_HUD,0.0,0.008670887909829617,58,0,-2.740000009536743,-0.0012184437364339828,,,,,,,,,,,,,,,,AHRS,0.00686888862401247,0.0006536532891914248,-0.002207942306995392,0.0,0.0,0.00026733498089015484,0.004394175484776497,GPS_RAW_INT,0,1,0,0,-17000,9999,9999,0,0,0,0,4294967295,4294967295,1000000,0,0,RC_CHANNELS,6707536,16,1501,1499,1004,1501,1001,1000,1500,1500,0,0,0,0,0,0,0,0,0,0,0,MISSION_CURRENT,0,SYS_STATUS,52485167,52461615,53510447,34,0,-1,-1,0,0,0,0,0,0,GLOBAL_POSITION_INT,6707536,0,0,-2740,-2742,0,0,0,5863,RAW_IMU,2412569457,20,11,-992,-6,0,1,265,-452,246,0,4308,BATTERY_STATUS,0,0,0,32767,[65535, 65535, 65535, 65535, 65535, 65535, 65535, 65535, 65535, 65535],-1,-1,-1,100,0,0,[0, 0, 0, 0],0,0,HEARTBEAT,6,8,0,0,0,3
2.7419707775115967,24.140625,VFR_HUD,0.0,0.008670887909829617,58,0,-2.740000009536743,-0.0012184437364339828,,,,,,,,,,,,,,,,AHRS,0.00686888862401247,0.0006536532891914248,-0.002207942306995392,0.0,0.0,0.00026733498089015484,0.004394175484776497,GPS_RAW_INT,0,1,0,0,-17000,9999,9999,0,0,0,0,4294967295,4294967295,1000000,0,0,RC_CHANNELS,6707536,16,1501,1499,1004,1501,1001,1000,1500,1500,0,0,0,0,0,0,0,0,0,0,0,MISSION_CURRENT,0,SYS_STATUS,52485167,52461615,53510447,34,0,-1,-1,0,0,0,0,0,0,GLOBAL_POSITION_INT,6707536,0,0,-2740,-2742,0,0,0,5863,RAW_IMU,2412569457,20,11,-992,-6,0,1,265,-452,246,0,4308,BATTERY_STATUS,0,0,0,32767,[65535, 65535, 65535, 65535, 65535, 65535, 65535, 65535, 65535, 65535],-1,-1,-1,100,0,0,[0, 0, 0, 0],0,0,HEARTBEAT,6,8,0,0,0,3
2.7938647270202637,24.140625,VFR_HUD,0.0,0.008670887909829617,58,0,-2.740000009536743,-0.0012184437364339828,,,,,,,,,,,,,,,,AHRS,0.00686888862401247,0.0006536532891914248,-0.002207942306995392,0.0,0.0,0.00026733498089015484,0.004394175484776497,GPS_RAW_INT,0,1,0,0,-17000,9999,9999,0,0,0,0,4294967295,4294967295,1000000,0,0,RC_CHANNELS,6707536,16,1501,1499,1004,1501,1001,1000,1500,1500,0,0,0,0,0,0,0,0,0,0,0,MISSION_CURRENT,0,SYS_STATUS,52485167,52461615,53510447,34,0,-1,-1,0,0,0,0,0,0,GLOBAL_POSITION_INT,6707536,0,0,-2740,-2742,0,0,0,5863,RAW_IMU,2412569457,20,11,-992,-6,0,1,265,-452,246,0,4308,BATTERY_STATUS,0,0,0,32767,[65535, 65535, 65535, 65535, 65535, 65535, 65535, 65535, 65535, 65535],-1,-1,-1,100,0,0,[0, 0, 0, 0],0,0,HEARTBEAT,6,8,0,0,0,3
2.8460705280303955,24.140625,VFR_HUD,0.0,0.008670887909829617,58,0,-2.740000009536743,-0.0012184437364339828,,,,,,,,,,,,,,,,AHRS,0.00686888862401247,0.0006536532891914248,-0.002207942306995392,0.0,0.0,0.00026733498089015484,0.004394175484776497,GPS_RAW_INT,0,1,0,0,-17000,9999,9999,0,0,0,0,4294967295,4294967295,1000000,0,0,RC_CHANNELS,6707536,16,1501,1499,1004,1501,1001,1000,1500,1500,0,0,0,0,0,0,0,0,0,0,0,MISSION_CURRENT,0,SYS_STATUS,52485167,52461615,53510447,34,0,-1,-1,0,0,0,0,0,0,GLOBAL_POSITION_INT,6707536,0,0,-2740,-2742,0,0,0,5863,RAW_IMU,2412569457,20,11,-992,-6,0,1,265,-452,246,0,4308,BATTERY_STATUS,0,0,0,32767,[65535, 65535, 65535, 65535, 65535, 65535, 65535, 65535, 65535, 65535],-1,-1,-1,100,0,0,[0, 0, 0, 0],0,0,HEARTBEAT,6,8,0,0,0,3
2.897819995880127,24.140625,VFR_HUD,0.0,0.008670887909829617,58,0,-2.740000009536743,-0.0012184437364339828,,,,,,,,,,,,,,,,AHRS,0.00686888862401247,0.0006536532891914248,-0.002207942306995392,0.0,0.0,0.00026733498089015484,0.004394175484776497,GPS_RAW_INT,0,1,0,0,-17000,9999,9999,0,0,0,0,4294967295,4294967295,1000000,0,0,RC_CHANNELS,6707536,16,1501,1499,1004,1501,1001,1000,1500,1500,0,0,0,0,0,0,0,0,0,0,0,MISSION_CURRENT,0,SYS_STATUS,52485167,52461615,53510447,34,0,-1,-1,0,0,0,0,0,0,GLOBAL_POSITION_INT,6707536,0,0,-2740,-2742,0,0,0,5863,RAW_IMU,2412569457,20,11,-992,-6,0,1,265,-452,246,0,4308,BATTERY_STATUS,0,0,0,32767,[65535, 65535, 65535, 65535, 65535, 65535, 65535, 65535, 65535, 65535],-1,-1,-1,100,0,0,[0, 0, 0, 0],0,0,HEARTBEAT,6,8,0,0,0,3
2.949333429336548,24.140625,VFR_HUD,0.0,0.008670887909829617,58,0,-2.740000009536743,-0.0012184437364339828,,,,,,,,,,,,,,,,AHRS,0.00686888862401247,0.0006536532891914248,-0.002207942306995392,0.0,0.0,0.00026733498089015484,0.004394175484776497,GPS_RAW_INT,0,1,0,0,-17000,9999,9999,0,0,0,0,4294967295,4294967295,1000000,0,0,RC_CHANNELS,6707536,16,1501,1499,1004,1501,1001,1000,1500,1500,0,0,0,0,0,0,0,0,0,0,0,MISSION_CURRENT,0,SYS_STATUS,52485167,52461615,53510447,34,0,-1,-1,0,0,0,0,0,0,GLOBAL_POSITION_INT,6707536,0,0,-2740,-2742,0,0,0,5863,RAW_IMU,2412569457,20,11,-992,-6,0,1,265,-452,246,0,4308,BATTERY_STATUS,0,0,0,32767,[65535, 65535, 65535, 65535, 65535, 65535, 65535, 65535, 65535, 65535],-1,-1,-1,100,0,0,[0, 0, 0, 0],0,0,HEARTBEAT,6,8,0,0,0,3
3.0009987354278564,24.1484375,VFR_HUD,0.0,0.008670887909829617,58,0,-2.740000009536743,-0.0012184437364339828,,,,,,,,,,,,,,,,AHRS,0.00686888862401247,0.0006536532891914248,-0.002207942306995392,0.0,0.0,0.00026733498089015484,0.004394175484776497,GPS_RAW_INT,0,1,0,0,-17000,9999,9999,0,0,0,0,4294967295,4294967295,1000000,0,0,RC_CHANNELS,6707536,16,1501,1499,1004,1501,1001,1000,1500,1500,0,0,0,0,0,0,0,0,0,0,0,MISSION_CURRENT,0,SYS_STATUS,52485167,52461615,53510447,34,0,-1,-1,0,0,0,0,0,0,GLOBAL_POSITION_INT,6707536,0,0,-2740,-2742,0,0,0,5863,RAW_IMU,2412569457,20,11,-992,-6,0,1,265,-452,246,0,4308,BATTERY_STATUS,0,0,0,32767,[65535, 65535, 65535, 65535, 65535, 65535, 65535, 65535, 65535, 65535],-1,-1,-1,100,0,0,[0, 0, 0, 0],0,0,HEARTBEAT,6,8,0,0,0,3
3.0526959896087646,24.1484375,VFR_HUD,0.0,0.008670887909829617,58,0,-2.740000009536743,-0.0012184437364339828,,,,,,,,,,,,,,,,AHRS,0.00686888862401247,0.0006536532891914248,-0.002207942306995392,0.0,0.0,0.00026733498089015484,0.004394175484776497,GPS_RAW_INT,0,1,0,0,-17000,9999,9999,0,0,0,0,4294967295,4294967295,1000000,0,0,RC_CHANNELS,6707536,16,1501,1499,1004,1501,1001,1000,1500,1500,0,0,0,0,0,0,0,0,0,0,0,MISSION_CURRENT,0,SYS_STATUS,52485167,52461615,53510447,34,0,-1,-1,0,0,0,0,0,0,GLOBAL_POSITION_INT,6707536,0,0,-2740,-2742,0,0,0,5863,RAW_IMU,2412569457,20,11,-992,-6,0,1,265,-452,246,0,4308,BATTERY_STATUS,0,0,0,32767,[65535, 65535, 65535, 65535, 65535, 65535, 65535, 65535, 65535, 65535],-1,-1,-1,100,0,0,[0, 0, 0, 0],0,0,HEARTBEAT,6,8,0,0,0,3
3.103377103805542,24.140625,VFR_HUD,0.0,0.008670887909829617,58,0,-2.740000009536743,-0.0012184437364339828,,,,,,,,,,,,,,,,AHRS,0.00686888862401247,0.0006536532891914248,-0.002207942306995392,0.0,0.0,0.00026733498089015484,0.004394175484776497,GPS_RAW_INT,0,1,0,0,-17000,9999,9999,0,0,0,0,4294967295,4294967295,1000000,0,0,RC_CHANNELS,6707536,16,1501,1499,1004,1501,1001,1000,1500,1500,0,0,0,0,0,0,0,0,0,0,0,MISSION_CURRENT,0,SYS_STATUS,52485167,52461615,53510447,34,0,-1,-1,0,0,0,0,0,0,GLOBAL_POSITION_INT,6707536,0,0,-2740,-2742,0,0,0,5863,RAW_IMU,2412569457,20,11,-992,-6,0,1,265,-452,246,0,4308,BATTERY_STATUS,0,0,0,32767,[65535, 65535, 65535, 65535, 65535, 65535, 65535, 65535, 65535, 65535],-1,-1,-1,100,0,0,[0, 0, 0, 0],0,0,HEARTBEAT,6,8,0,0,0,3
3.1571011543273926,24.140625,VFR_HUD,0.0,0.008670887909829617,58,0,-2.740000009536743,-0.0012184437364339828,,,,,,,,,,,,,,,,AHRS,0.00686888862401247,0.0006536532891914248,-0.002207942306995392,0.0,0.0,0.00026733498089015484,0.004394175484776497,GPS_RAW_INT,0,1,0,0,-17000,9999,9999,0,0,0,0,4294967295,4294967295,1000000,0,0,RC_CHANNELS,6707536,16,1501,1499,1004,1501,1001,1000,1500,1500,0,0,0,0,0,0,0,0,0,0,0,MISSION_CURRENT,0,SYS_STATUS,52485167,52461615,53510447,34,0,-1,-1,0,0,0,0,0,0,GLOBAL_POSITION_INT,6707536,0,0,-2740,-2742,0,0,0,5863,RAW_IMU,2412569457,20,11,-992,-6,0,1,265,-452,246,0,4308,BATTERY_STATUS,0,0,0,32767,[65535, 65535, 65535, 65535, 65535, 65535, 65535, 65535, 65535, 65535],-1,-1,-1,100,0,0,[0, 0, 0, 0],0,0,HEARTBEAT,6,8,0,0,0,3
3.209036350250244,24.140625,VFR_HUD,0.0,0.008670887909829617,58,0,-2.740000009536743,-0.0012184437364339828,,,,,,,,,,,,,,,,AHRS,0.00686888862401247,0.0006536532891914248,-0.002207942306995392,0.0,0.0,0.00026733498089015484,0.004394175484776497,GPS_RAW_INT,0,1,0,0,-17000,9999,9999,0,0,0,0,4294967295,4294967295,1000000,0,0,RC_CHANNELS,6707536,16,1501,1499,1004,1501,1001,1000,1500,1500,0,0,0,0,0,0,0,0,0,0,0,MISSION_CURRENT,0,SYS_STATUS,52485167,52461615,53510447,34,0,-1,-1,0,0,0,0,0,0,GLOBAL_POSITION_INT,6707536,0,0,-2740,-2742,0,0,0,5863,RAW_IMU,2412569457,20,11,-992,-6,0,1,265,-452,246,0,4308,BATTERY_STATUS,0,0,0,32767,[65535, 65535, 65535, 65535, 65535, 65535, 65535, 65535, 65535, 65535],-1,-1,-1,100,0,0,[0, 0, 0, 0],0,0,HEARTBEAT,6,8,0,0,0,3
3.261197805404663,24.140625,VFR_HUD,0.0,0.008670887909829617,58,0,-2.740000009536743,-0.0012184437364339828,,,,,,,,,,,,,,,,AHRS,0.00686888862401247,0.0006536532891914248,-0.002207942306995392,0.0,0.0,0.00026733498089015484,0.004394175484776497,GPS_RAW_INT,0,1,0,0,-17000,9999,9999,0,0,0,0,4294967295,4294967295,1000000,0,0,RC_CHANNELS,6707536,16,1501,1499,1004,1501,1001,1000,1500,1500,0,0,0,0,0,0,0,0,0,0,0,MISSION_CURRENT,0,SYS_STATUS,52485167,52461615,53510447,34,0,-1,-1,0,0,0,0,0,0,GLOBAL_POSITION_INT,6707536,0,0,-2740,-2742,0,0,0,5863,RAW_IMU,2412569457,20,11,-992,-6,0,1,265,-452,246,0,4308,BATTERY_STATUS,0,0,0,32767,[65535, 65535, 65535, 65535, 65535, 65535, 65535, 65535, 65535, 65535],-1,-1,-1,100,0,0,[0, 0, 0, 0],0,0,HEARTBEAT,6,8,0,0,0,3
3.3130650520324707,24.140625,VFR_HUD,0.0,0.008670887909829617,58,0,-2.740000009536743,-0.0012184437364339828,,,,,,,,,,,,,,,,AHRS,0.00686888862401247,0.0006536532891914248,-0.002207942306995392,0.0,0.0,0.00026733498089015484,0.004394175484776497,GPS_RAW_INT,0,1,0,0,-17000,9999,9999,0,0,0,0,4294967295,4294967295,1000000,0,0,RC_CHANNELS,6707536,16,1501,1499,1004,1501,1001,1000,1500,1500,0,0,0,0,0,0,0,0,0,0,0,MISSION_CURRENT,0,SYS_STATUS,52485167,52461615,53510447,34,0,-1,-1,0,0,0,0,0,0,GLOBAL_POSITION_INT,6707536,0,0,-2740,-2742,0,0,0,5863,RAW_IMU,2412569457,20,11,-992,-6,0,1,265,-452,246,0,4308,BATTERY_STATUS,0,0,0,32767,[65535, 65535, 65535, 65535, 65535, 65535, 65535, 65535, 65535, 65535],-1,-1,-1,100,0,0,[0, 0, 0, 0],0,0,HEARTBEAT,6,8,0,0,0,3
3.364863157272339,24.140625,VFR_HUD,0.0,0.008670887909829617,58,0,-2.740000009536743,-0.0012184437364339828,,,,,,,,,,,,,,,,AHRS,0.00686888862401247,0.0006536532891914248,-0.002207942306995392,0.0,0.0,0.00026733498089015484,0.004394175484776497,GPS_RAW_INT,0,1,0,0,-17000,9999,9999,0,0,0,0,4294967295,4294967295,1000000,0,0,RC_CHANNELS,6707536,16,1501,1499,1004,1501,1001,1000,1500,1500,0,0,0,0,0,0,0,0,0,0,0,MISSION_CURRENT,0,SYS_STATUS,52485167,52461615,53510447,34,0,-1,-1,0,0,0,0,0,0,GLOBAL_POSITION_INT,6707536,0,0,-2740,-2742,0,0,0,5863,RAW_IMU,2412569457,20,11,-992,-6,0,1,265,-452,246,0,4308,BATTERY_STATUS,0,0,0,32767,[65535, 65535, 65535, 65535, 65535, 65535, 65535, 65535, 65535, 65535],-1,-1,-1,100,0,0,[0, 0, 0, 0],0,0,HEARTBEAT,6,8,0,0,0,3
3.416612386703491,24.140625,VFR_HUD,0.0,0.008670887909829617,58,0,-2.740000009536743,-0.0012184437364339828,,,,,,,,,,,,,,,,AHRS,0.00686888862401247,0.0006536532891914248,-0.002207942306995392,0.0,0.0,0.00026733498089015484,0.004394175484776497,GPS_RAW_INT,0,1,0,0,-17000,9999,9999,0,0,0,0,4294967295,4294967295,1000000,0,0,RC_CHANNELS,6707536,16,1501,1499,1004,1501,1001,1000,1500,1500,0,0,0,0,0,0,0,0,0,0,0,MISSION_CURRENT,0,SYS_STATUS,52485167,52461615,53510447,34,0,-1,-1,0,0,0,0,0,0,GLOBAL_POSITION_INT,6707536,0,0,-2740,-2742,0,0,0,5863,RAW_IMU,2412569457,20,11,-992,-6,0,1,265,-452,246,0,4308,BATTERY_STATUS,0,0,0,32767,[65535, 65535, 65535, 65535, 65535, 65535, 65535, 65535, 65535, 65535],-1,-1,-1,100,0,0,[0, 0, 0, 0],0,0,HEARTBEAT,6,8,0,0,0,3
3.468414545059204,24.1484375,VFR_HUD,0.0,0.008670887909829617,58,0,-2.740000009536743,-0.0012184437364339828,,,,,,,,,,,,,,,,AHRS,0.00686888862401247,0.0006536532891914248,-0.002207942306995392,0.0,0.0,0.00026733498089015484,0.004394175484776497,GPS_RAW_INT,0,1,0,0,-17000,9999,9999,0,0,0,0,4294967295,4294967295,1000000,0,0,RC_CHANNELS,6707536,16,1501,1499,1004,1501,1001,1000,1500,1500,0,0,0,0,0,0,0,0,0,0,0,MISSION_CURRENT,0,SYS_STATUS,52485167,52461615,53510447,33,0,-1,-1,0,0,0,0,0,0,GLOBAL_POSITION_INT,6708536,0,0,-2610,-2613,0,1,3,5864,RAW_IMU,2412569457,20,11,-992,-6,0,1,265,-452,246,0,4308,BATTERY_STATUS,0,0,0,32767,[65535, 65535, 65535, 65535, 65535, 65535, 65535, 65535, 65535, 65535],-1,-1,-1,100,0,0,[0, 0, 0, 0],0,0,HEARTBEAT,10,3,193,0,4,3
3.5200753211975098,24.1484375,VFR_HUD,0.0,0.011996043846011162,58,0,-2.609999895095825,-0.03712580353021622,,,,,,,,,,,,,,,,AHRS,0.006872108206152916,0.0006539931637234986,-0.00220877630636096,0.0,0.0,0.00031338693224824965,0.00389936869032681,GPS_RAW_INT,0,1,0,0,-17000,9999,9999,0,0,0,0,4294967295,4294967295,1000000,0,0,RC_CHANNELS,6708536,16,1501,1500,1004,1501,1000,1000,1500,1501,0,0,0,0,0,0,0,0,0,0,0,MISSION_CURRENT,0,SYS_STATUS,52485167,52461615,53510447,33,0,-1,-1,0,0,0,0,0,0,GLOBAL_POSITION_INT,6708536,0,0,-2610,-2613,0,1,3,5864,RAW_IMU,2413569440,20,11,-991,-6,0,2,268,-446,246,0,4308,BATTERY_STATUS,0,0,0,32767,[65535, 65535, 65535, 65535, 65535, 65535, 65535, 65535, 65535, 65535],-1,-1,-1,100,0,0,[0, 0, 0, 0],0,0,HEARTBEAT,10,3,193,0,4,3
3.571795701980591,24.1484375,VFR_HUD,0.0,0.011996043846011162,58,0,-2.609999895095825,-0.03712580353021622,,,,,,,,,,,,,,,,AHRS,0.006872108206152916,0.0006539931637234986,-0.00220877630636096,0.0,0.0,0.00031338693224824965,0.00389936869032681,GPS_RAW_INT,0,1,0,0,-17000,9999,9999,0,0,0,0,4294967295,4294967295,1000000,0,0,RC_CHANNELS,6708536,16,1501,1500,1004,1501,1000,1000,1500,1501,0,0,0,0,0,0,0,0,0,0,0,MISSION_CURRENT,0,SYS_STATUS,52485167,52461615,53510447,33,0,-1,-1,0,0,0,0,0,0,GLOBAL_POSITION_INT,6708536,0,0,-2610,-2613,0,1,3,5864,RAW_IMU,2413569440,20,11,-991,-6,0,2,268,-446,246,0,4308,BATTERY_STATUS,0,0,0,32767,[65535, 65535, 65535, 65535, 65535, 65535, 65535, 65535, 65535, 65535],-1,-1,-1,100,0,0,[0, 0, 0, 0],0,0,HEARTBEAT,10,3,193,0,4,3
3.622500419616699,24.140625,VFR_HUD,0.0,0.011996043846011162,58,0,-2.609999895095825,-0.03712580353021622,,,,,,,,,,,,,,,,AHRS,0.006872108206152916,0.0006539931637234986,-0.00220877630636096,0.0,0.0,0.00031338693224824965,0.00389936869032681,GPS_RAW_INT,0,1,0,0,-17000,9999,9999,0,0,0,0,4294967295,4294967295,1000000,0,0,RC_CHANNELS,6708536,16,1501,1500,1004,1501,1000,1000,1500,1501,0,0,0,0,0,0,0,0,0,0,0,MISSION_CURRENT,0,SYS_STATUS,52485167,52461615,53510447,33,0,-1,-1,0,0,0,0,0,0,GLOBAL_POSITION_INT,6708536,0,0,-2610,-2613,0,1,3,5864,RAW_IMU,2413569440,20,11,-991,-6,0,2,268,-446,246,0,4308,BATTERY_STATUS,0,0,0,32767,[65535, 65535, 65535, 65535, 65535, 65535, 65535, 65535, 65535, 65535],-1,-1,-1,100,0,0,[0, 0, 0, 0],0,0,HEARTBEAT,10,3,193,0,4,3
3.6752777099609375,24.140625,VFR_HUD,0.0,0.011996043846011162,58,0,-2.609999895095825,-0.03712580353021622,,,,,,,,,,,,,,,,AHRS,0.006872108206152916,0.0006539931637234986,-0.00220877630636096,0.0,0.0,0.00031338693224824965,0.00389936869032681,GPS_RAW_INT,0,1,0,0,-17000,9999,9999,0,0,0,0,4294967295,4294967295,1000000,0,0,RC_CHANNELS,6708536,16,1501,1500,1004,1501,1000,1000,1500,1501,0,0,0,0,0,0,0,0,0,0,0,MISSION_CURRENT,0,SYS_STATUS,52485167,52461615,53510447,33,0,-1,-1,0,0,0,0,0,0,GLOBAL_POSITION_INT,6708536,0,0,-2610,-2613,0,1,3,5864,RAW_IMU,2413569440,20,11,-991,-6,0,2,268,-446,246,0,4308,BATTERY_STATUS,0,0,0,32767,[65535, 65535, 65535, 65535, 65535, 65535, 65535, 65535, 65535, 65535],-1,-1,-1,100,0,0,[0, 0, 0, 0],0,0,HEARTBEAT,10,3,193,0,4,3
3.727141857147217,24.140625,VFR_HUD,0.0,0.011996043846011162,58,0,-2.609999895095825,-0.03712580353021622,,,,,,,,,,,,,,,,AHRS,0.006872108206152916,0.0006539931637234986,-0.00220877630636096,0.0,0.0,0.00031338693224824965,0.00389936869032681,GPS_RAW_INT,0,1,0,0,-17000,9999,9999,0,0,0,0,4294967295,4294967295,1000000,0,0,RC_CHANNELS,6708536,16,1501,1500,1004,1501,1000,1000,1500,1501,0,0,0,0,0,0,0,0,0,0,0,MISSION_CURRENT,0,SYS_STATUS,52485167,52461615,53510447,33,0,-1,-1,0,0,0,0,0,0,GLOBAL_POSITION_INT,6708536,0,0,-2610,-2613,0,1,3,5864,RAW_IMU,2413569440,20,11,-991,-6,0,2,268,-446,246,0,4308,BATTERY_STATUS,0,0,0,32767,[65535, 65535, 65535, 65535, 65535, 65535, 65535, 65535, 65535, 65535],-1,-1,-1,100,0,0,[0, 0, 0, 0],0,0,HEARTBEAT,6,8,0,0,0,3
3.7788562774658203,24.140625,VFR_HUD,0.0,0.011996043846011162,58,0,-2.609999895095825,-0.03712580353021622,,,,,,,,,,,,,,,,AHRS,0.006872108206152916,0.0006539931637234986,-0.00220877630636096,0.0,0.0,0.00031338693224824965,0.00389936869032681,GPS_RAW_INT,0,1,0,0,-17000,9999,9999,0,0,0,0,4294967295,4294967295,1000000,0,0,RC_CHANNELS,6708536,16,1501,1500,1004,1501,1000,1000,1500,1501,0,0,0,0,0,0,0,0,0,0,0,MISSION_CURRENT,0,SYS_STATUS,52485167,52461615,53510447,33,0,-1,-1,0,0,0,0,0,0,GLOBAL_POSITION_INT,6708536,0,0,-2610,-2613,0,1,3,5864,RAW_IMU,2413569440,20,11,-991,-6,0,2,268,-446,246,0,4308,BATTERY_STATUS,0,0,0,32767,[65535, 65535, 65535, 65535, 65535, 65535, 65535, 65535, 65535, 65535],-1,-1,-1,100,0,0,[0, 0, 0, 0],0,0,HEARTBEAT,6,8,0,0,0,3
3.829629421234131,24.140625,VFR_HUD,0.0,0.011996043846011162,58,0,-2.609999895095825,-0.03712580353021622,,,,,,,,,,,,,,,,AHRS,0.006872108206152916,0.0006539931637234986,-0.00220877630636096,0.0,0.0,0.00031338693224824965,0.00389936869032681,GPS_RAW_INT,0,1,0,0,-17000,9999,9999,0,0,0,0,4294967295,4294967295,1000000,0,0,RC_CHANNELS,6708536,16,1501,1500,1004,1501,1000,1000,1500,1501,0,0,0,0,0,0,0,0,0,0,0,MISSION_CURRENT,0,SYS_STATUS,52485167,52461615,53510447,33,0,-1,-1,0,0,0,0,0,0,GLOBAL_POSITION_INT,6708536,0,0,-2610,-2613,0,1,3,5864,RAW_IMU,2413569440,20,11,-991,-6,0,2,268,-446,246,0,4308,BATTERY_STATUS,0,0,0,32767,[65535, 65535, 65535, 65535, 65535, 65535, 65535, 65535, 65535, 65535],-1,-1,-1,100,0,0,[0, 0, 0, 0],0,0,HEARTBEAT,6,8,0,0,0,3
3.8830389976501465,24.140625,VFR_HUD,0.0,0.011996043846011162,58,0,-2.609999895095825,-0.03712580353021622,,,,,,,,,,,,,,,,AHRS,0.006872108206152916,0.0006539931637234986,-0.00220877630636096,0.0,0.0,0.00031338693224824965,0.00389936869032681,GPS_RAW_INT,0,1,0,0,-17000,9999,9999,0,0,0,0,4294967295,4294967295,1000000,0,0,RC_CHANNELS,6708536,16,1501,1500,1004,1501,1000,1000,1500,1501,0,0,0,0,0,0,0,0,0,0,0,MISSION_CURRENT,0,SYS_STATUS,52485167,52461615,53510447,33,0,-1,-1,0,0,0,0,0,0,GLOBAL_POSITION_INT,6708536,0,0,-2610,-2613,0,1,3,5864,RAW_IMU,2413569440,20,11,-991,-6,0,2,268,-446,246,0,4308,BATTERY_STATUS,0,0,0,32767,[65535, 65535, 65535, 65535, 65535, 65535, 65535, 65535, 65535, 65535],-1,-1,-1,100,0,0,[0, 0, 0, 0],0,0,HEARTBEAT,6,8,0,0,0,3
3.9337997436523438,24.140625,VFR_HUD,0.0,0.011996043846011162,58,0,-2.609999895095825,-0.03712580353021622,,,,,,,,,,,,,,,,AHRS,0.006872108206152916,0.0006539931637234986,-0.00220877630636096,0.0,0.0,0.00031338693224824965,0.00389936869032681,GPS_RAW_INT,0,1,0,0,-17000,9999,9999,0,0,0,0,4294967295,4294967295,1000000,0,0,RC_CHANNELS,6708536,16,1501,1500,1004,1501,1000,1000,1500,1501,0,0,0,0,0,0,0,0,0,0,0,MISSION_CURRENT,0,SYS_STATUS,52485167,52461615,53510447,33,0,-1,-1,0,0,0,0,0,0,GLOBAL_POSITION_INT,6708536,0,0,-2610,-2613,0,1,3,5864,RAW_IMU,2413569440,20,11,-991,-6,0,2,268,-446,246,0,4308,BATTERY_STATUS,0,0,0,32767,[65535, 65535, 65535, 65535, 65535, 65535, 65535, 65535, 65535, 65535],-1,-1,-1,100,0,0,[0, 0, 0, 0],0,0,HEARTBEAT,6,8,0,0,0,3
3.9854238033294678,24.140625,VFR_HUD,0.0,0.011996043846011162,58,0,-2.609999895095825,-0.03712580353021622,,,,,,,,,,,,,,,,AHRS,0.006872108206152916,0.0006539931637234986,-0.00220877630636096,0.0,0.0,0.00031338693224824965,0.00389936869032681,GPS_RAW_INT,0,1,0,0,-17000,9999,9999,0,0,0,0,4294967295,4294967295,1000000,0,0,RC_CHANNELS,6708536,16,1501,1500,1004,1501,1000,1000,1500,1501,0,0,0,0,0,0,0,0,0,0,0,MISSION_CURRENT,0,SYS_STATUS,52485167,52461615,53510447,33,0,-1,-1,0,0,0,0,0,0,GLOBAL_POSITION_INT,6708536,0,0,-2610,-2613,0,1,3,5864,RAW_IMU,2413569440,20,11,-991,-6,0,2,268,-446,246,0,4308,BATTERY_STATUS,0,0,0,32767,[65535, 65535, 65535, 65535, 65535, 65535, 65535, 65535, 65535, 65535],-1,-1,-1,100,0,0,[0, 0, 0, 0],0,0,HEARTBEAT,6,8,0,0,0,3
