31.5398690700531,22.421875,VFR_HUD,0.0,0.0,58,0,-2.429999828338623,-0.0,,,,,,,,,,,,,,,,AHRS,0.006844768300652504,0.0008157839183695614,-0.002338015241548419,0.0,0.0,0.0002805314725264907,0.0022986324038356543,GPS_RAW_INT,0,1,0,0,-17000,9999,9999,0,0,0,0,4294967295,4294967295,1000000,0,0,RC_CHANNELS,6686536,16,1502,1499,1004,1501,1000,1000,1500,1501,0,0,0,0,0,0,0,0,0,0,0,MISSION_CURRENT,0,SYS_STATUS,52485167,35684399,51413295,32,0,-1,-1,0,0,0,0,0,0,GLOBAL_POSITION_INT,6686536,0,0,-2430,-2431,0,0,0,5841,RAW_IMU,2391569439,19,12,-991,-7,0,2,271,-448,249,0,4308,BATTERY_STATUS,0,0,0,32767,[65535, 65535, 65535, 65535, 65535, 65535, 65535, 65535, 65535, 65535],-1,-1,-1,100,0,0,[0, 0, 0, 0],0,0,HEARTBEAT,10,3,193,0,4,3
0.031225204467773438,22.421875,VFR_HUD,0.0,0.0,58,0,-2.429999828338623,-0.0,,,,,,,,,,,,,,,,AHRS,0.006844768300652504,0.0008157839183695614,-0.002338015241548419,0.0,0.0,0.0002805314725264907,0.0022986324038356543,GPS_RAW_INT,0,1,0,0,-17000,9999,9999,0,0,0,0,4294967295,4294967295,1000000,0,0,RC_CHANNELS,6686536,16,1502,1499,1004,1501,1000,1000,1500,1501,0,0,0,0,0,0,0,0,0,0,0,MISSION_CURRENT,0,SYS_STATUS,52485167,35684399,51413295,32,0,-1,-1,0,0,0,0,0,0,GLOBAL_POSITION_INT,6686536,0,0,-2430,-2431,0,0,0,5841,RAW_IMU,2391569439,19,12,-991,-7,0,2,271,-448,249,0,4308,BATTERY_STATUS,0,0,0,32767,[65535, 65535, 65535, 65535, 65535, 65535, 65535, 65535, 65535, 65535],-1,-1,-1,100,0,0,[0, 0, 0, 0],0,0,HEARTBEAT,10,3,193,0,4,3
0.08190798759460449,22.4140625,VFR_HUD,0.0,0.0,58,0,-2.429999828338623,-0.0,,,,,,,,,,,,,,,,AHRS,0.006844768300652504,0.0008157839183695614,-0.002338015241548419,0.0,0.0,0.0002805314725264907,0.0022986324038356543,GPS_RAW_INT,0,1,0,0,-17000,9999,9999,0,0,0,0,4294967295,4294967295,1000000,0,0,RC_CHANNELS,6686536,16,1502,1499,1004,1501,1000,1000,1500,1501,0,0,0,0,0,0,0,0,0,0,0,MISSION_CURRENT,0,SYS_STATUS,52485167,35684399,51413295,32,0,-1,-1,0,0,0,0,0,0,GLOBAL_POSITION_INT,6686536,0,0,-2430,-2431,0,0,0,5841,RAW_IMU,2391569439,19,12,-991,-7,0,2,271,-448,249,0,4308,BATTERY_STATUS,0,0,0,32767,[65535, 65535, 65535, 65535, 65535, 65535, 65535, 65535, 65535, 65535],-1,-1,-1,100,0,0,[0, 0, 0, 0],0,0,HEARTBEAT,10,3,193,0,4,3
0.13398408889770508,22.4140625,VFR_HUD,0.0,0.0,58,0,-2.429999828338623,-0.0,,,,,,,,,,,,,,,,AHRS,0.006844768300652504,0.0008157839183695614,-0.002338015241548419,0.0,0.0,0.0002805314725264907,0.0022986324038356543,GPS_RAW_INT,0,1,0,0,-17000,9999,9999,0,0,0,0,4294967295,4294967295,1000000,0,0,RC_CHANNELS,6686536,16,1502,1499,1004,1501,1000,1000,1500,1501,0,0,0,0,0,0,0,0,0,0,0,MISSION_CURRENT,0,SYS_STATUS,52485167,52461615,53510447,50,0,-1,-1,0,0,0,0,0,0,GLOBAL_POSITION_INT,6687536,0,0,-2420,-2420,0,0,0,5859,RAW_IMU,2391569439,19,12,-991,-7,0,2,271,-448,249,0,4308,BATTERY_STATUS,0,0,0,32767,[65535, 65535, 65535, 65535, 65535, 65535, 65535, 65535, 65535, 65535],-1,-1,-1,100,0,0,[0, 0, 0, 0],0,0,HEARTBEAT,10,3,193,0,4,3
0.18457651138305664,22.4140625,VFR_HUD,0.0,0.002430924214422703,58,0,-2.419999837875366,-0.00899453368037939,,,,,,,,,,,,,,,,AHRS,0.006844768300652504,0.0008157839183695614,-0.002338015241548419,0.0,0.0,0.0002805314725264907,0.0022986324038356543,GPS_RAW_INT,0,1,0,0,-17000,9999,9999,0,0,0,0,4294967295,4294967295,1000000,0,0,RC_CHANNELS,6687536,16,1501,1499,1004,1502,1000,1000,1500,1500,0,0,0,0,0,0,0,0,0,0,0,MISSION_CURRENT,0,SYS_STATUS,52485167,52461615,53510447,50,0,-1,-1,0,0,0,0,0,0,GLOBAL_POSITION_INT,6687536,0,0,-2420,-2420,0,0,0,5859,RAW_IMU,2392569626,20,12,-991,-6,0,2,269,-448,247,0,4308,BATTERY_STATUS,0,0,0,32767,[65535, 65535, 65535, 65535, 65535, 65535, 65535, 65535, 65535, 65535],-1,-1,-1,100,0,0,[0, 0, 0, 0],0,0,HEARTBEAT,10,3,193,0,4,3
0.23522353172302246,22.4140625,VFR_HUD,0.0,0.002430924214422703,58,0,-2.419999837875366,-0.00899453368037939,,,,,,,,,,,,,,,,AHRS,0.00686626834794879,0.000653804570902139,-0.0022098093759268522,0.0,0.0,0.0003749737225007266,0.004246500786393881,GPS_RAW_INT,0,1,0,0,-17000,9999,9999,0,0,0,0,4294967295,4294967295,1000000,0,0,RC_CHANNELS,6687536,16,1501,1499,1004,1502,1000,1000,1500,1500,0,0,0,0,0,0,0,0,0,0,0,MISSION_CURRENT,0,SYS_STATUS,52485167,52461615,53510447,50,0,-1,-1,0,0,0,0,0,0,GLOBAL_POSITION_INT,6687536,0,0,-2420,-2420,0,0,0,5859,RAW_IMU,2392569626,20,12,-991,-6,0,2,269,-448,247,0,4308,BATTERY_STATUS,0,0,0,32767,[65535, 65535, 65535, 65535, 65535, 65535, 65535, 65535, 65535, 65535],-1,-1,-1,100,0,0,[0, 0, 0, 0],0,0,HEARTBEAT,10,3,193,0,4,3
0.28637242317199707,22.4140625,VFR_HUD,0.0,0.002430924214422703,58,0,-2.419999837875366,-0.00899453368037939,,,,,,,,,,,,,,,,AHRS,0.00686626834794879,0.000653804570902139,-0.0022098093759268522,0.0,0.0,0.0003749737225007266,0.004246500786393881,GPS_RAW_INT,0,1,0,0,-17000,9999,9999,0,0,0,0,4294967295,4294967295,1000000,0,0,RC_CHANNELS,6687536,16,1501,1499,1004,1502,1000,1000,1500,1500,0,0,0,0,0,0,0,0,0,0,0,MISSION_CURRENT,0,SYS_STATUS,52485167,52461615,53510447,50,0,-1,-1,0,0,0,0,0,0,GLOBAL_POSITION_INT,6687536,0,0,-2420,-2420,0,0,0,5859,RAW_IMU,2392569626,20,12,-991,-6,0,2,269,-448,247,0,4308,BATTERY_STATUS,0,0,0,32767,[65535, 65535, 65535, 65535, 65535, 65535, 65535, 65535, 65535, 65535],-1,-1,-1,100,0,0,[0, 0, 0, 0],0,0,HEARTBEAT,10,3,193,0,4,3
0.3369863033294678,22.4140625,VFR_HUD,0.0,0.002430924214422703,58,0,-2.419999837875366,-0.00899453368037939,,,,,,,,,,,,,,,,AHRS,0.00686626834794879,0.000653804570902139,-0.0022098093759268522,0.0,0.0,0.0003749737225007266,0.004246500786393881,GPS_RAW_INT,0,1,0,0,-17000,9999,9999,0,0,0,0,4294967295,4294967295,1000000,0,0,RC_CHANNELS,6687536,16,1501,1499,1004,1502,1000,1000,1500,1500,0,0,0,0,0,0,0,0,0,0,0,MISSION_CURRENT,0,SYS_STATUS,52485167,52461615,53510447,50,0,-1,-1,0,0,0,0,0,0,GLOBAL_POSITION_INT,6687536,0,0,-2420,-2420,0,0,0,5859,RAW_IMU,2392569626,20,12,-991,-6,0,2,269,-448,247,0,4308,BATTERY_STATUS,0,0,0,32767,[65535, 65535, 65535, 65535, 65535, 65535, 65535, 65535, 65535, 65535],-1,-1,-1,100,0,0,[0, 0, 0, 0],0,0,HEARTBEAT,10,3,193,0,4,3
0.3879544734954834,22.4140625,VFR_HUD,0.0,0.002430924214422703,58,0,-2.419999837875366,-0.00899453368037939,,,,,,,,,,,,,,,,AHRS,0.00686626834794879,0.000653804570902139,-0.0022098093759268522,0.0,0.0,0.0003749737225007266,0.004246500786393881,GPS_RAW_INT,0,1,0,0,-17000,9999,9999,0,0,0,0,4294967295,4294967295,1000000,0,0,RC_CHANNELS,6687536,16,1501,1499,1004,1502,1000,1000,1500,1500,0,0,0,0,0,0,0,0,0,0,0,MISSION_CURRENT,0,SYS_STATUS,52485167,52461615,53510447,50,0,-1,-1,0,0,0,0,0,0,GLOBAL_POSITION_INT,6687536,0,0,-2420,-2420,0,0,0,5859,RAW_IMU,2392569626,20,12,-991,-6,0,2,269,-448,247,0,4308,BATTERY_STATUS,0,0,0,32767,[65535, 65535, 65535, 65535, 65535, 65535, 65535, 65535, 65535, 65535],-1,-1,-1,100,0,0,[0, 0, 0, 0],0,0,HEARTBEAT,6,8,0,0,0,3
0.4387960433959961,22.4140625,VFR_HUD,0.0,0.002430924214422703,58,0,-2.419999837875366,-0.00899453368037939,,,,,,,,,,,,,,,,AHRS,0.00686626834794879,0.000653804570902139,-0.0022098093759268522,0.0,0.0,0.0003749737225007266,0.004246500786393881,GPS_RAW_INT,0,1,0,0,-17000,9999,9999,0,0,0,0,4294967295,4294967295,1000000,0,0,RC_CHANNELS,6687536,16,1501,1499,1004,1502,1000,1000,1500,1500,0,0,0,0,0,0,0,0,0,0,0,MISSION_CURRENT,0,SYS_STATUS,52485167,52461615,53510447,50,0,-1,-1,0,0,0,0,0,0,GLOBAL_POSITION_INT,6687536,0,0,-2420,-2420,0,0,0,5859,RAW_IMU,2392569626,20,12,-991,-6,0,2,269,-448,247,0,4308,BATTERY_STATUS,0,0,0,32767,[65535, 65535, 65535, 65535, 65535, 65535, 65535, 65535, 65535, 65535],-1,-1,-1,100,0,0,[0, 0, 0, 0],0,0,HEARTBEAT,6,8,0,0,0,3
0.4894275665283203,22.40625,VFR_HUD,0.0,0.002430924214422703,58,0,-2.419999837875366,-0.00899453368037939,,,,,,,,,,,,,,,,AHRS,0.00686626834794879,0.000653804570902139,-0.0022098093759268522,0.0,0.0,0.0003749737225007266,0.004246500786393881,GPS_RAW_INT,0,1,0,0,-17000,9999,9999,0,0,0,0,4294967295,4294967295,1000000,0,0,RC_CHANNELS,6687536,16,1501,1499,1004,1502,1000,1000,1500,1500,0,0,0,0,0,0,0,0,0,0,0,MISSION_CURRENT,0,SYS_STATUS,52485167,52461615,53510447,50,0,-1,-1,0,0,0,0,0,0,GLOBAL_POSITION_INT,6687536,0,0,-2420,-2420,0,0,0,5859,RAW_IMU,2392569626,20,12,-991,-6,0,2,269,-448,247,0,4308,BATTERY_STATUS,0,0,0,32767,[65535, 65535, 65535, 65535, 65535, 65535, 65535, 65535, 65535, 65535],-1,-1,-1,100,0,0,[0, 0, 0, 0],0,0,HEARTBEAT,6,8,0,0,0,3
0.5403652191162109,22.40625,VFR_HUD,0.0,0.002430924214422703,58,0,-2.419999837875366,-0.00899453368037939,,,,,,,,,,,,,,,,AHRS,0.00686626834794879,0.000653804570902139,-0.0022098093759268522,0.0,0.0,0.0003749737225007266,0.004246500786393881,GPS_RAW_INT,0,1,0,0,-17000,9999,9999,0,0,0,0,4294967295,4294967295,1000000,0,0,RC_CHANNELS,6687536,16,1501,1499,1004,1502,1000,1000,1500,1500,0,0,0,0,0,0,0,0,0,0,0,MISSION_CURRENT,0,SYS_STATUS,52485167,52461615,53510447,50,0,-1,-1,0,0,0,0,0,0,GLOBAL_POSITION_INT,6687536,0,0,-2420,-2420,0,0,0,5859,RAW_IMU,2392569626,20,12,-991,-6,0,2,269,-448,247,0,4308,BATTERY_STATUS,0,0,0,32767,[65535, 65535, 65535, 65535, 65535, 65535, 65535, 65535, 65535, 65535],-1,-1,-1,100,0,0,[0, 0, 0, 0],0,0,HEARTBEAT,6,8,0,0,0,3
0.5910534858703613,22.4140625,VFR_HUD,0.0,0.002430924214422703,58,0,-2.419999837875366,-0.00899453368037939,,,,,,,,,,,,,,,,AHRS,0.00686626834794879,0.000653804570902139,-0.0022098093759268522,0.0,0.0,0.0003749737225007266,0.004246500786393881,GPS_RAW_INT,0,1,0,0,-17000,9999,9999,0,0,0,0,4294967295,4294967295,1000000,0,0,RC_CHANNELS,6687536,16,1501,1499,1004,1502,1000,1000,1500,1500,0,0,0,0,0,0,0,0,0,0,0,MISSION_CURRENT,0,SYS_STATUS,52485167,52461615,53510447,50,0,-1,-1,0,0,0,0,0,0,GLOBAL_POSITION_INT,6687536,0,0,-2420,-2420,0,0,0,5859,RAW_IMU,2392569626,20,12,-991,-6,0,2,269,-448,247,0,4308,BATTERY_STATUS,0,0,0,32767,[65535, 65535, 65535, 65535, 65535, 65535, 65535, 65535, 65535, 65535],-1,-1,-1,100,0,0,[0, 0, 0, 0],0,0,HEARTBEAT,6,8,0,0,0,3
0.6430740356445312,22.4140625,VFR_HUD,0.0,0.002430924214422703,58,0,-2.419999837875366,-0.00899453368037939,,,,,,,,,,,,,,,,AHRS,0.00686626834794879,0.000653804570902139,-0.0022098093759268522,0.0,0.0,0.0003749737225007266,0.004246500786393881,GPS_RAW_INT,0,1,0,0,-17000,9999,9999,0,0,0,0,4294967295,4294967295,1000000,0,0,RC_CHANNELS,6687536,16,1501,1499,1004,1502,1000,1000,1500,1500,0,0,0,0,0,0,0,0,0,0,0,MISSION_CURRENT,0,SYS_STATUS,52485167,52461615,53510447,50,0,-1,-1,0,0,0,0,0,0,GLOBAL_POSITION_INT,6687536,0,0,-2420,-2420,0,0,0,5859,RAW_IMU,2392569626,20,12,-991,-6,0,2,269,-448,247,0,4308,BATTERY_STATUS,0,0,0,32767,[65535, 65535, 65535, 65535, 65535, 65535, 65535, 65535, 65535, 65535],-1,-1,-1,100,0,0,[0, 0, 0, 0],0,0,HEARTBEAT,6,8,0,0,0,3
0.6936466693878174,22.40625,VFR_HUD,0.0,0.002430924214422703,58,0,-2.419999837875366,-0.00899453368037939,,,,,,,,,,,,,,,,AHRS,0.00686626834794879,0.000653804570902139,-0.0022098093759268522,0.0,0.0,0.0003749737225007266,0.004246500786393881,GPS_RAW_INT,0,1,0,0,-17000,9999,9999,0,0,0,0,4294967295,4294967295,1000000,0,0,RC_CHANNELS,6687536,16,1501,1499,1004,1502,1000,1000,1500,1500,0,0,0,0,0,0,0,0,0,0,0,MISSION_CURRENT,0,SYS_STATUS,52485167,52461615,53510447,50,0,-1,-1,0,0,0,0,0,0,GLOBAL_POSITION_INT,6687536,0,0,-2420,-2420,0,0,0,5859,RAW_IMU,2392569626,20,12,-991,-6,0,2,269,-448,247,0,4308,BATTERY_STATUS,0,0,0,32767,[65535, 65535, 65535, 65535, 65535, 65535, 65535, 65535, 65535, 65535],-1,-1,-1,100,0,0,[0, 0, 0, 0],0,0,HEARTBEAT,6,8,0,0,0,3
0.7444701194763184,22.40625,VFR_HUD,0.0,0.002430924214422703,58,0,-2.419999837875366,-0.00899453368037939,,,,,,,,,,,,,,,,AHRS,0.00686626834794879,0.000653804570902139,-0.0022098093759268522,0.0,0.0,0.0003749737225007266,0.004246500786393881,GPS_RAW_INT,0,1,0,0,-17000,9999,9999,0,0,0,0,4294967295,4294967295,1000000,0,0,RC_CHANNELS,6687536,16,1501,1499,1004,1502,1000,1000,1500,1500,0,0,0,0,0,0,0,0,0,0,0,MISSION_CURRENT,0,SYS_STATUS,52485167,52461615,53510447,50,0,-1,-1,0,0,0,0,0,0,GLOBAL_POSITION_INT,6687536,0,0,-2420,-2420,0,0,0,5859,RAW_IMU,2392569626,20,12,-991,-6,0,2,269,-448,247,0,4308,BATTERY_STATUS,0,0,0,32767,[65535, 65535, 65535, 65535, 65535, 65535, 65535, 65535, 65535, 65535],-1,-1,-1,100,0,0,[0, 0, 0, 0],0,0,HEARTBEAT,6,8,0,0,0,3
0.7954738140106201,22.40625,VFR_HUD,0.0,0.002430924214422703,58,0,-2.419999837875366,-0.00899453368037939,,,,,,,,,,,,,,,,AHRS,0.00686626834794879,0.000653804570902139,-0.0022098093759268522,0.0,0.0,0.0003749737225007266,0.004246500786393881,GPS_RAW_INT,0,1,0,0,-17000,9999,9999,0,0,0,0,4294967295,4294967295,1000000,0,0,RC_CHANNELS,6687536,16,1501,1499,1004,1502,1000,1000,1500,1500,0,0,0,0,0,0,0,0,0,0,0,MISSION_CURRENT,0,SYS_STATUS,52485167,52461615,53510447,50,0,-1,-1,0,0,0,0,0,0,GLOBAL_POSITION_INT,6687536,0,0,-2420,-2420,0,0,0,5859,RAW_IMU,2392569626,20,12,-991,-6,0,2,269,-448,247,0,4308,BATTERY_STATUS,0,0,0,32767,[65535, 65535, 65535, 65535, 65535, 65535, 65535, 65535, 65535, 65535],-1,-1,-1,100,0,0,[0, 0, 0, 0],0,0,HEARTBEAT,6,8,0,0,0,3
0.8460724353790283,22.40625,VFR_HUD,0.0,0.002430924214422703,58,0,-2.419999837875366,-0.00899453368037939,,,,,,,,,,,,,,,,AHRS,0.00686626834794879,0.000653804570902139,-0.0022098093759268522,0.0,0.0,0.0003749737225007266,0.004246500786393881,GPS_RAW_INT,0,1,0,0,-17000,9999,9999,0,0,0,0,4294967295,4294967295,1000000,0,0,RC_CHANNELS,6687536,16,1501,1499,1004,1502,1000,1000,1500,1500,0,0,0,0,0,0,0,0,0,0,0,MISSION_CURRENT,0,SYS_STATUS,52485167,52461615,53510447,50,0,-1,-1,0,0,0,0,0,0,GLOBAL_POSITION_INT,6687536,0,0,-2420,-2420,0,0,0,5859,RAW_IMU,2392569626,20,12,-991,-6,0,2,269,-448,247,0,4308,BATTERY_STATUS,0,0,0,32767,[65535, 65535, 65535, 65535, 65535, 65535, 65535, 65535, 65535, 65535],-1,-1,-1,100,0,0,[0, 0, 0, 0],0,0,HEARTBEAT,6,8,0,0,0,3
0.89835524559021,22.40625,VFR_HUD,0.0,0.002430924214422703,58,0,-2.419999837875366,-0.00899453368037939,,,,,,,,,,,,,,,,AHRS,0.00686626834794879,0.000653804570902139,-0.0022098093759268522,0.0,0.0,0.0003749737225007266,0.004246500786393881,GPS_RAW_INT,0,1,0,0,-17000,9999,9999,0,0,0,0,4294967295,4294967295,1000000,0,0,RC_CHANNELS,6687536,16,1501,1499,1004,1502,1000,1000,1500,1500,0,0,0,0,0,0,0,0,0,0,0,MISSION_CURRENT,0,SYS_STATUS,52485167,52461615,53510447,50,0,-1,-1,0,0,0,0,0,0,GLOBAL_POSITION_INT,6687536,0,0,-2420,-2420,0,0,0,5859,RAW_IMU,2392569626,20,12,-991,-6,0,2,269,-448,247,0,4308,BATTERY_STATUS,0,0,0,32767,[65535, 65535, 65535, 65535, 65535, 65535, 65535, 65535, 65535, 65535],-1,-1,-1,100,0,0,[0, 0, 0, 0],0,0,HEARTBEAT,6,8,0,0,0,3
0.9490859508514404,22.40625,VFR_HUD,0.0,0.002430924214422703,58,0,-2.419999837875366,-0.00899453368037939,,,,,,,,,,,,,,,,AHRS,0.00686626834794879,0.000653804570902139,-0.0022098093759268522,0.0,0.0,0.0003749737225007266,0.004246500786393881,GPS_RAW_INT,0,1,0,0,-17000,9999,9999,0,0,0,0,4294967295,4294967295,1000000,0,0,RC_CHANNELS,6687536,16,1501,1499,1004,1502,1000,1000,1500,1500,0,0,0,0,0,0,0,0,0,0,0,MISSION_CURRENT,0,SYS_STATUS,52485167,52461615,53510447,50,0,-1,-1,0,0,0,0,0,0,GLOBAL_POSITION_INT,6687536,0,0,-2420,-2420,0,0,0,5859,RAW_IMU,2392569626,20,12,-991,-6,0,2,269,-448,247,0,4308,BATTERY_STATUS,0,0,0,32767,[65535, 65535, 65535, 65535, 65535, 65535, 65535, 65535, 65535, 65535],-1,-1,-1,100,0,0,[0, 0, 0, 0],0,0,HEARTBEAT,6,8,0,0,0,3
1.0001277923583984,22.40625,VFR_HUD,0.0,0.002430924214422703,58,0,-2.419999837875366,-0.00899453368037939,,,,,,,,,,,,,,,,AHRS,0.00686626834794879,0.000653804570902139,-0.0022098093759268522,0.0,0.0,0.0003749737225007266,0.004246500786393881,GPS_RAW_INT,0,1,0,0,-17000,9999,9999,0,0,0,0,4294967295,4294967295,1000000,0,0,RC_CHANNELS,6687536,16,1501,1499,1004,1502,1000,1000,1500,1500,0,0,0,0,0,0,0,0,0,0,0,MISSION_CURRENT,0,SYS_STATUS,52485167,52461615,53510447,50,0,-1,-1,0,0,0,0,0,0,GLOBAL_POSITION_INT,6687536,0,0,-2420,-2420,0,0,0,5859,RAW_IMU,2392569626,20,12,-991,-6,0,2,269,-448,247,0,4308,BATTERY_STATUS,0,0,0,32767,[65535, 65535, 65535, 65535, 65535, 65535, 65535, 65535, 65535, 65535],-1,-1,-1,100,0,0,[0, 0, 0, 0],0,0,HEARTBEAT,6,8,0,0,0,3
1.0508413314819336,22.40625,VFR_HUD,0.0,0.002430924214422703,58,0,-2.419999837875366,-0.00899453368037939,,,,,,,,,,,,,,,,AHRS,0.00686626834794879,0.000653804570902139,-0.0022098093759268522,0.0,0.0,0.0003749737225007266,0.004246500786393881,GPS_RAW_INT,0,1,0,0,-17000,9999,9999,0,0,0,0,4294967295,4294967295,1000000,0,0,RC_CHANNELS,6687536,16,1501,1499,1004,1502,1000,1000,1500,1500,0,0,0,0,0,0,0,0,0,0,0,MISSION_CURRENT,0,SYS_STATUS,52485167,52461615,53510447,50,0,-1,-1,0,0,0,0,0,0,GLOBAL_POSITION_INT,6687536,0,0,-2420,-2420,0,0,0,5859,RAW_IMU,2392569626,20,12,-991,-6,0,2,269,-448,247,0,4308,BATTERY_STATUS,0,0,0,32767,[65535, 65535, 65535, 65535, 65535, 65535, 65535, 65535, 65535, 65535],-1,-1,-1,100,0,0,[0, 0, 0, 0],0,0,HEARTBEAT,6,8,0,0,0,3
1.102400302886963,22.40625,VFR_HUD,0.0,0.002430924214422703,58,0,-2.419999837875366,-0.00899453368037939,,,,,,,,,,,,,,,,AHRS,0.00686626834794879,0.000653804570902139,-0.0022098093759268522,0.0,0.0,0.0003749737225007266,0.004246500786393881,GPS_RAW_INT,0,1,0,0,-17000,9999,9999,0,0,0,0,4294967295,4294967295,1000000,0,0,RC_CHANNELS,6687536,16,1501,1499,1004,1502,1000,1000,1500,1500,0,0,0,0,0,0,0,0,0,0,0,MISSION_CURRENT,0,SYS_STATUS,52485167,52461615,53510447,50,0,-1,-1,0,0,0,0,0,0,GLOBAL_POSITION_INT,6687536,0,0,-2420,-2420,0,0,0,5859,RAW_IMU,2392569626,20,12,-991,-6,0,2,269,-448,247,0,4308,BATTERY_STATUS,0,0,0,32767,[65535, 65535, 65535, 65535, 65535, 65535, 65535, 65535, 65535, 65535],-1,-1,-1,100,0,0,[0, 0, 0, 0],0,0,HEARTBEAT,6,8,0,0,0,3
1.1534457206726074,22.40625,VFR_HUD,0.0,0.002430924214422703,58,0,-2.419999837875366,-0.00899453368037939,,,,,,,,,,,,,,,,AHRS,0.00686626834794879,0.000653804570902139,-0.0022098093759268522,0.0,0.0,0.0003749737225007266,0.004246500786393881,GPS_RAW_INT,0,1,0,0,-17000,9999,9999,0,0,0,0,4294967295,4294967295,1000000,0,0,RC_CHANNELS,6687536,16,1501,1499,1004,1502,1000,1000,1500,1500,0,0,0,0,0,0,0,0,0,0,0,MISSION_CURRENT,0,SYS_STATUS,52485167,52461615,53510447,50,0,-1,-1,0,0,0,0,0,0,GLOBAL_POSITION_INT,6687536,0,0,-2420,-2420,0,0,0,5859,RAW_IMU,2392569626,20,12,-991,-6,0,2,269,-448,247,0,4308,BATTERY_STATUS,0,0,0,32767,[65535, 65535, 65535, 65535, 65535, 65535, 65535, 65535, 65535, 65535],-1,-1,-1,100,0,0,[0, 0, 0, 0],0,0,HEARTBEAT,6,8,0,0,0,3
1.204052209854126,22.40625,VFR_HUD,0.0,0.002430924214422703,58,0,-2.419999837875366,-0.00899453368037939,,,,,,,,,,,,,,,,AHRS,0.00686626834794879,0.000653804570902139,-0.0022098093759268522,0.0,0.0,0.0003749737225007266,0.004246500786393881,GPS_RAW_INT,0,1,0,0,-17000,9999,9999,0,0,0,0,4294967295,4294967295,1000000,0,0,RC_CHANNELS,6687536,16,1501,1499,1004,1502,1000,1000,1500,1500,0,0,0,0,0,0,0,0,0,0,0,MISSION_CURRENT,0,SYS_STATUS,52485167,52461615,53510447,50,0,-1,-1,0,0,0,0,0,0,GLOBAL_POSITION_INT,6687536,0,0,-2420,-2420,0,0,0,5859,RAW_IMU,2392569626,20,12,-991,-6,0,2,269,-448,247,0,4308,BATTERY_STATUS,0,0,0,32767,[65535, 65535, 65535, 65535, 65535, 65535, 65535, 65535, 65535, 65535],-1,-1,-1,100,0,0,[0, 0, 0, 0],0,0,HEARTBEAT,6,8,0,0,0,3
1.254974603652954,22.40625,VFR_HUD,0.0,0.002430924214422703,58,0,-2.419999837875366,-0.00899453368037939,,,,,,,,,,,,,,,,AHRS,0.00686626834794879,0.000653804570902139,-0.0022098093759268522,0.0,0.0,0.0003749737225007266,0.004246500786393881,GPS_RAW_INT,0,1,0,0,-17000,9999,9999,0,0,0,0,4294967295,4294967295,1000000,0,0,RC_CHANNELS,6687536,16,1501,1499,1004,1502,1000,1000,1500,1500,0,0,0,0,0,0,0,0,0,0,0,MISSION_CURRENT,0,SYS_STATUS,52485167,52461615,53510447,50,0,-1,-1,0,0,0,0,0,0,GLOBAL_POSITION_INT,6687536,0,0,-2420,-2420,0,0,0,5859,RAW_IMU,2392569626,20,12,-991,-6,0,2,269,-448,247,0,4308,BATTERY_STATUS,0,0,0,32767,[65535, 65535, 65535, 65535, 65535, 65535, 65535, 65535, 65535, 65535],-1,-1,-1,100,0,0,[0, 0, 0, 0],0,0,HEARTBEAT,10,3,193,0,4,3
1.3055524826049805,22.4140625,VFR_HUD,0.0,0.005605725105851889,58,0,-2.5299999713897705,-0.0050652106292545795,,,,,,,,,,,,,,,,AHRS,0.00686626834794879,0.000653804570902139,-0.0022098093759268522,0.0,0.0,0.0003749737225007266,0.004246500786393881,GPS_RAW_INT,0,1,0,0,-17000,9999,9999,0,0,0,0,4294967295,4294967295,1000000,0,0,RC_CHANNELS,6687536,16,1501,1499,1004,1502,1000,1000,1500,1500,0,0,0,0,0,0,0,0,0,0,0,MISSION_CURRENT,0,SYS_STATUS,52485167,52461615,53510447,37,0,-1,-1,0,0,0,0,0,0,GLOBAL_POSITION_INT,6688536,0,0,-2530,-2533,0,0,0,5859,RAW_IMU,2392569626,20,12,-991,-6,0,2,269,-448,247,0,4308,BATTERY_STATUS,0,0,0,32767,[65535, 65535, 65535, 65535, 65535, 65535, 65535, 65535, 65535, 65535],-1,-1,-1,100,0,0,[0, 0, 0, 0],0,0,HEARTBEAT,10,3,193,0,4,3
1.3566598892211914,22.4140625,VFR_HUD,0.0,0.005605725105851889,58,0,-2.5299999713897705,-0.0050652106292545795,,,,,,,,,,,,,,,,AHRS,0.0068700858391821384,0.0006541746552102268,-0.0022115332540124655,0.0,0.0,0.00029696268029510975,0.0061173695139586926,GPS_RAW_INT,0,1,0,0,-17000,9999,9999,0,0,0,0,4294967295,4294967295,1000000,0,0,RC_CHANNELS,6688536,16,1502,1499,1004,1501,1000,1000,1501,1500,0,0,0,0,0,0,0,0,0,0,0,MISSION_CURRENT,0,SYS_STATUS,52485167,52461615,53510447,37,0,-1,-1,0,0,0,0,0,0,GLOBAL_POSITION_INT,6688536,0,0,-2530,-2533,0,0,0,5859,RAW_IMU,2393569456,20,11,-993,-7,0,2,267,-447,250,0,4308,BATTERY_STATUS,0,0,0,32767,[65535, 65535, 65535, 65535, 65535, 65535, 65535, 65535, 65535, 65535],-1,-1,-1,100,0,0,[0, 0, 0, 0],0,0,HEARTBEAT,10,3,193,0,4,3
1.4072842597961426,22.4140625,VFR_HUD,0.0,0.005605725105851889,58,0,-2.5299999713897705,-0.0050652106292545795,,,,,,,,,,,,,,,,AHRS,0.0068700858391821384,0.0006541746552102268,-0.0022115332540124655,0.0,0.0,0.00029696268029510975,0.0061173695139586926,GPS_RAW_INT,0,1,0,0,-17000,9999,9999,0,0,0,0,4294967295,4294967295,1000000,0,0,RC_CHANNELS,6688536,16,1502,1499,1004,1501,1000,1000,1501,1500,0,0,0,0,0,0,0,0,0,0,0,MISSION_CURRENT,0,SYS_STATUS,52485167,52461615,53510447,37,0,-1,-1,0,0,0,0,0,0,GLOBAL_POSITION_INT,6688536,0,0,-2530,-2533,0,0,0,5859,RAW_IMU,2393569456,20,11,-993,-7,0,2,267,-447,250,0,4308,BATTERY_STATUS,0,0,0,32767,[65535, 65535, 65535, 65535, 65535, 65535, 65535, 65535, 65535, 65535],-1,-1,-1,100,0,0,[0, 0, 0, 0],0,0,HEARTBEAT,6,8,0,0,0,3
1.4581389427185059,22.4140625,VFR_HUD,0.0,0.005605725105851889,58,0,-2.5299999713897705,-0.0050652106292545795,,,,,,,,,,,,,,,,AHRS,0.0068700858391821384,0.0006541746552102268,-0.0022115332540124655,0.0,0.0,0.00029696268029510975,0.0061173695139586926,GPS_RAW_INT,0,1,0,0,-17000,9999,9999,0,0,0,0,4294967295,4294967295,1000000,0,0,RC_CHANNELS,6688536,16,1502,1499,1004,1501,1000,1000,1501,1500,0,0,0,0,0,0,0,0,0,0,0,MISSION_CURRENT,0,SYS_STATUS,52485167,52461615,53510447,37,0,-1,-1,0,0,0,0,0,0,GLOBAL_POSITION_INT,6688536,0,0,-2530,-2533,0,0,0,5859,RAW_IMU,2393569456,20,11,-993,-7,0,2,267,-447,250,0,4308,BATTERY_STATUS,0,0,0,32767,[65535, 65535, 65535, 65535, 65535, 65535, 65535, 65535, 65535, 65535],-1,-1,-1,100,0,0,[0, 0, 0, 0],0,0,HEARTBEAT,6,8,0,0,0,3
1.509411096572876,22.4140625,VFR_HUD,0.0,0.005605725105851889,58,0,-2.5299999713897705,-0.0050652106292545795,,,,,,,,,,,,,,,,AHRS,0.0068700858391821384,0.0006541746552102268,-0.0022115332540124655,0.0,0.0,0.00029696268029510975,0.0061173695139586926,GPS_RAW_INT,0,1,0,0,-17000,9999,9999,0,0,0,0,4294967295,4294967295,1000000,0,0,RC_CHANNELS,6688536,16,1502,1499,1004,1501,1000,1000,1501,1500,0,0,0,0,0,0,0,0,0,0,0,MISSION_CURRENT,0,SYS_STATUS,52485167,52461615,53510447,37,0,-1,-1,0,0,0,0,0,0,GLOBAL_POSITION_INT,6688536,0,0,-2530,-2533,0,0,0,5859,RAW_IMU,2393569456,20,11,-993,-7,0,2,267,-447,250,0,4308,BATTERY_STATUS,0,0,0,32767,[65535, 65535, 65535, 65535, 65535, 65535, 65535, 65535, 65535, 65535],-1,-1,-1,100,0,0,[0, 0, 0, 0],0,0,HEARTBEAT,6,8,0,0,0,3
1.560014009475708,22.4140625,VFR_HUD,0.0,0.005605725105851889,58,0,-2.5299999713897705,-0.0050652106292545795,,,,,,,,,,,,,,,,AHRS,0.0068700858391821384,0.0006541746552102268,-0.0022115332540124655,0.0,0.0,0.00029696268029510975,0.0061173695139586926,GPS_RAW_INT,0,1,0,0,-17000,9999,9999,0,0,0,0,4294967295,4294967295,1000000,0,0,RC_CHANNELS,6688536,16,1502,1499,1004,1501,1000,1000,1501,1500,0,0,0,0,0,0,0,0,0,0,0,MISSION_CURRENT,0,SYS_STATUS,52485167,52461615,53510447,37,0,-1,-1,0,0,0,0,0,0,GLOBAL_POSITION_INT,6688536,0,0,-2530,-2533,0,0,0,5859,RAW_IMU,2393569456,20,11,-993,-7,0,2,267,-447,250,0,4308,BATTERY_STATUS,0,0,0,32767,[65535, 65535, 65535, 65535, 65535, 65535, 65535, 65535, 65535, 65535],-1,-1,-1,100,0,0,[0, 0, 0, 0],0,0,HEARTBEAT,6,8,0,0,0,3
1.612121343612671,22.4140625,VFR_HUD,0.0,0.005605725105851889,58,0,-2.5299999713897705,-0.0050652106292545795,,,,,,,,,,,,,,,,AHRS,0.0068700858391821384,0.0006541746552102268,-0.0022115332540124655,0.0,0.0,0.00029696268029510975,0.0061173695139586926,GPS_RAW_INT,0,1,0,0,-17000,9999,9999,0,0,0,0,4294967295,4294967295,1000000,0,0,RC_CHANNELS,6688536,16,1502,1499,1004,1501,1000,1000,1501,1500,0,0,0,0,0,0,0,0,0,0,0,MISSION_CURRENT,0,SYS_STATUS,52485167,52461615,53510447,37,0,-1,-1,0,0,0,0,0,0,GLOBAL_POSITION_INT,6688536,0,0,-2530,-2533,0,0,0,5859,RAW_IMU,2393569456,20,11,-993,-7,0,2,267,-447,250,0,4308,BATTERY_STATUS,0,0,0,32767,[65535, 65535, 65535, 65535, 65535, 65535, 65535, 65535, 65535, 65535],-1,-1,-1,100,0,0,[0, 0, 0, 0],0,0,HEARTBEAT,6,8,0,0,0,3
1.6635112762451172,22.4140625,VFR_HUD,0.0,0.005605725105851889,58,0,-2.5299999713897705,-0.0050652106292545795,,,,,,,,,,,,,,,,AHRS,0.0068700858391821384,0.0006541746552102268,-0.0022115332540124655,0.0,0.0,0.00029696268029510975,0.0061173695139586926,GPS_RAW_INT,0,1,0,0,-17000,9999,9999,0,0,0,0,4294967295,4294967295,1000000,0,0,RC_CHANNELS,6688536,16,1502,1499,1004,1501,1000,1000,1501,1500,0,0,0,0,0,0,0,0,0,0,0,MISSION_CURRENT,0,SYS_STATUS,52485167,52461615,53510447,37,0,-1,-1,0,0,0,0,0,0,GLOBAL_POSITION_INT,6688536,0,0,-2530,-2533,0,0,0,5859,RAW_IMU,2393569456,20,11,-993,-7,0,2,267,-447,250,0,4308,BATTERY_STATUS,0,0,0,32767,[65535, 65535, 65535, 65535, 65535, 65535, 65535, 65535, 65535, 65535],-1,-1,-1,100,0,0,[0, 0, 0, 0],0,0,HEARTBEAT,6,8,0,0,0,3
1.7140822410583496,22.4140625,VFR_HUD,0.0,0.005605725105851889,58,0,-2.5299999713897705,-0.0050652106292545795,,,,,,,,,,,,,,,,AHRS,0.0068700858391821384,0.0006541746552102268,-0.0022115332540124655,0.0,0.0,0.00029696268029510975,0.0061173695139586926,GPS_RAW_INT,0,1,0,0,-17000,9999,9999,0,0,0,0,4294967295,4294967295,1000000,0,0,RC_CHANNELS,6688536,16,1502,1499,1004,1501,1000,1000,1501,1500,0,0,0,0,0,0,0,0,0,0,0,MISSION_CURRENT,0,SYS_STATUS,52485167,52461615,53510447,37,0,-1,-1,0,0,0,0,0,0,GLOBAL_POSITION_INT,6688536,0,0,-2530,-2533,0,0,0,5859,RAW_IMU,2393569456,20,11,-993,-7,0,2,267,-447,250,0,4308,BATTERY_STATUS,0,0,0,32767,[65535, 65535, 65535, 65535, 65535, 65535, 65535, 65535, 65535, 65535],-1,-1,-1,100,0,0,[0, 0, 0, 0],0,0,HEARTBEAT,6,8,0,0,0,3
1.7649970054626465,22.4140625,VFR_HUD,0.0,0.005605725105851889,58,0,-2.5299999713897705,-0.0050652106292545795,,,,,,,,,,,,,,,,AHRS,0.0068700858391821384,0.0006541746552102268,-0.0022115332540124655,0.0,0.0,0.00029696268029510975,0.0061173695139586926,GPS_RAW_INT,0,1,0,0,-17000,9999,9999,0,0,0,0,4294967295,4294967295,1000000,0,0,RC_CHANNELS,6688536,16,1502,1499,1004,1501,1000,1000,1501,1500,0,0,0,0,0,0,0,0,0,0,0,MISSION_CURRENT,0,SYS_STATUS,52485167,52461615,53510447,37,0,-1,-1,0,0,0,0,0,0,GLOBAL_POSITION_INT,6688536,0,0,-2530,-2533,0,0,0,5859,RAW_IMU,2393569456,20,11,-993,-7,0,2,267,-447,250,0,4308,BATTERY_STATUS,0,0,0,32767,[65535, 65535, 65535, 65535, 65535, 65535, 65535, 65535, 65535, 65535],-1,-1,-1,100,0,0,[0, 0, 0, 0],0,0,HEARTBEAT,6,8,0,0,0,3
1.8164210319519043,22.421875,VFR_HUD,0.0,0.005605725105851889,58,0,-2.5299999713897705,-0.0050652106292545795,,,,,,,,,,,,,,,,AHRS,0.0068700858391821384,0.0006541746552102268,-0.0022115332540124655,0.0,0.0,0.00029696268029510975,0.0061173695139586926,GPS_RAW_INT,0,1,0,0,-17000,9999,9999,0,0,0,0,4294967295,4294967295,1000000,0,0,RC_CHANNELS,6688536,16,1502,1499,1004,1501,1000,1000,1501,1500,0,0,0,0,0,0,0,0,0,0,0,MISSION_CURRENT,0,SYS_STATUS,52485167,52461615,53510447,37,0,-1,-1,0,0,0,0,0,0,GLOBAL_POSITION_INT,6688536,0,0,-2530,-2533,0,0,0,5859,RAW_IMU,2393569456,20,11,-993,-7,0,2,267,-447,250,0,4308,BATTERY_STATUS,0,0,0,32767,[65535, 65535, 65535, 65535, 65535, 65535, 65535, 65535, 65535, 65535],-1,-1,-1,100,0,0,[0, 0, 0, 0],0,0,HEARTBEAT,6,8,0,0,0,3
1.867530345916748,22.421875,VFR_HUD,0.0,0.005605725105851889,58,0,-2.5299999713897705,-0.0050652106292545795,,,,,,,,,,,,,,,,AHRS,0.0068700858391821384,0.0006541746552102268,-0.0022115332540124655,0.0,0.0,0.00029696268029510975,0.0061173695139586926,GPS_RAW_INT,0,1,0,0,-17000,9999,9999,0,0,0,0,4294967295,4294967295,1000000,0,0,RC_CHANNELS,6688536,16,1502,1499,1004,1501,1000,1000,1501,1500,0,0,0,0,0,0,0,0,0,0,0,MISSION_CURRENT,0,SYS_STATUS,52485167,52461615,53510447,37,0,-1,-1,0,0,0,0,0,0,GLOBAL_POSITION_INT,6688536,0,0,-2530,-2533,0,0,0,5859,RAW_IMU,2393569456,20,11,-993,-7,0,2,267,-447,250,0,4308,BATTERY_STATUS,0,0,0,32767,[65535, 65535, 65535, 65535, 65535, 65535, 65535, 65535, 65535, 65535],-1,-1,-1,100,0,0,[0, 0, 0, 0],0,0,HEARTBEAT,6,8,0,0,0,3
1.9181180000305176,22.421875,VFR_HUD,0.0,0.005605725105851889,58,0,-2.5299999713897705,-0.0050652106292545795,,,,,,,,,,,,,,,,AHRS,0.0068700858391821384,0.0006541746552102268,-0.0022115332540124655,0.0,0.0,0.00029696268029510975,0.0061173695139586926,GPS_RAW_INT,0,1,0,0,-17000,9999,9999,0,0,0,0,4294967295,4294967295,1000000,0,0,RC_CHANNELS,6688536,16,1502,1499,1004,1501,1000,1000,1501,1500,0,0,0,0,0,0,0,0,0,0,0,MISSION_CURRENT,0,SYS_STATUS,52485167,52461615,53510447,37,0,-1,-1,0,0,0,0,0,0,GLOBAL_POSITION_INT,6688536,0,0,-2530,-2533,0,0,0,5859,RAW_IMU,2393569456,20,11,-993,-7,0,2,267,-447,250,0,4308,BATTERY_STATUS,0,0,0,32767,[65535, 65535, 65535, 65535, 65535, 65535, 65535, 65535, 65535, 65535],-1,-1,-1,100,0,0,[0, 0, 0, 0],0,0,HEARTBEAT,6,8,0,0,0,3
1.969017744064331,22.421875,VFR_HUD,0.0,0.005605725105851889,58,0,-2.5299999713897705,-0.0050652106292545795,,,,,,,,,,,,,,,,AHRS,0.0068700858391821384,0.0006541746552102268,-0.0022115332540124655,0.0,0.0,0.00029696268029510975,0.0061173695139586926,GPS_RAW_INT,0,1,0,0,-17000,9999,9999,0,0,0,0,4294967295,4294967295,1000000,0,0,RC_CHANNELS,6688536,16,1502,1499,1004,1501,1000,1000,1501,1500,0,0,0,0,0,0,0,0,0,0,0,MISSION_CURRENT,0,SYS_STATUS,52485167,52461615,53510447,37,0,-1,-1,0,0,0,0,0,0,GLOBAL_POSITION_INT,6688536,0,0,-2530,-2533,0,0,0,5859,RAW_IMU,2393569456,20,11,-993,-7,0,2,267,-447,250,0,4308,BATTERY_STATUS,0,0,0,32767,[65535, 65535, 65535, 65535, 65535, 65535, 65535, 65535, 65535, 65535],-1,-1,-1,100,0,0,[0, 0, 0, 0],0,0,HEARTBEAT,6,8,0,0,0,3
2.0197036266326904,22.421875,VFR_HUD,0.0,0.005605725105851889,58,0,-2.5299999713897705,-0.0050652106292545795,,,,,,,,,,,,,,,,AHRS,0.0068700858391821384,0.0006541746552102268,-0.0022115332540124655,0.0,0.0,0.00029696268029510975,0.0061173695139586926,GPS_RAW_INT,0,1,0,0,-17000,9999,9999,0,0,0,0,4294967295,4294967295,1000000,0,0,RC_CHANNELS,6688536,16,1502,1499,1004,1501,1000,1000,1501,1500,0,0,0,0,0,0,0,0,0,0,0,MISSION_CURRENT,0,SYS_STATUS,52485167,52461615,53510447,37,0,-1,-1,0,0,0,0,0,0,GLOBAL_POSITION_INT,6688536,0,0,-2530,-2533,0,0,0,5859,RAW_IMU,2393569456,20,11,-993,-7,0,2,267,-447,250,0,4308,BATTERY_STATUS,0,0,0,32767,[65535, 65535, 65535, 65535, 65535, 65535, 65535, 65535, 65535, 65535],-1,-1,-1,100,0,0,[0, 0, 0, 0],0,0,HEARTBEAT,6,8,0,0,0,3
2.121746778488159,22.4140625,VFR_HUD,0.0,0.005605725105851889,58,0,-2.5299999713897705,-0.0050652106292545795,,,,,,,,,,,,,,,,AHRS,0.0068700858391821384,0.0006541746552102268,-0.0022115332540124655,0.0,0.0,0.00029696268029510975,0.0061173695139586926,GPS_RAW_INT,0,1,0,0,-17000,9999,9999,0,0,0,0,4294967295,4294967295,1000000,0,0,RC_CHANNELS,6688536,16,1502,1499,1004,1501,1000,1000,1501,1500,0,0,0,0,0,0,0,0,0,0,0,MISSION_CURRENT,0,SYS_STATUS,52485167,52461615,53510447,37,0,-1,-1,0,0,0,0,0,0,GLOBAL_POSITION_INT,6688536,0,0,-2530,-2533,0,0,0,5859,RAW_IMU,2393569456,20,11,-993,-7,0,2,267,-447,250,0,4308,BATTERY_STATUS,0,0,0,32767,[65535, 65535, 65535, 65535, 65535, 65535, 65535, 65535, 65535, 65535],-1,-1,-1,100,0,0,[0, 0, 0, 0],0,0,HEARTBEAT,6,8,0,0,0,3
2.1723997592926025,22.421875,VFR_HUD,0.0,0.005605725105851889,58,0,-2.5299999713897705,-0.0050652106292545795,,,,,,,,,,,,,,,,AHRS,0.0068700858391821384,0.0006541746552102268,-0.0022115332540124655,0.0,0.0,0.00029696268029510975,0.0061173695139586926,GPS_RAW_INT,0,1,0,0,-17000,9999,9999,0,0,0,0,4294967295,4294967295,1000000,0,0,RC_CHANNELS,6688536,16,1502,1499,1004,1501,1000,1000,1501,1500,0,0,0,0,0,0,0,0,0,0,0,MISSION_CURRENT,0,SYS_STATUS,52485167,52461615,53510447,37,0,-1,-1,0,0,0,0,0,0,GLOBAL_POSITION_INT,6688536,0,0,-2530,-2533,0,0,0,5859,RAW_IMU,2393569456,20,11,-993,-7,0,2,267,-447,250,0,4308,BATTERY_STATUS,0,0,0,32767,[65535, 65535, 65535, 65535, 65535, 65535, 65535, 65535, 65535, 65535],-1,-1,-1,100,0,0,[0, 0, 0, 0],0,0,HEARTBEAT,6,8,0,0,0,3
2.2233803272247314,22.421875,VFR_HUD,0.0,0.005605725105851889,58,0,-2.5299999713897705,-0.0050652106292545795,,,,,,,,,,,,,,,,AHRS,0.0068700858391821384,0.0006541746552102268,-0.0022115332540124655,0.0,0.0,0.00029696268029510975,0.0061173695139586926,GPS_RAW_INT,0,1,0,0,-17000,9999,9999,0,0,0,0,4294967295,4294967295,1000000,0,0,RC_CHANNELS,6688536,16,1502,1499,1004,1501,1000,1000,1501,1500,0,0,0,0,0,0,0,0,0,0,0,MISSION_CURRENT,0,SYS_STATUS,52485167,52461615,53510447,37,0,-1,-1,0,0,0,0,0,0,GLOBAL_POSITION_INT,6688536,0,0,-2530,-2533,0,0,0,5859,RAW_IMU,2393569456,20,11,-993,-7,0,2,267,-447,250,0,4308,BATTERY_STATUS,0,0,0,32767,[65535, 65535, 65535, 65535, 65535, 65535, 65535, 65535, 65535, 65535],-1,-1,-1,100,0,0,[0, 0, 0, 0],0,0,HEARTBEAT,6,8,0,0,0,3
2.273988962173462,22.421875,VFR_HUD,0.0,0.005605725105851889,58,0,-2.5299999713897705,-0.0050652106292545795,,,,,,,,,,,,,,,,AHRS,0.0068700858391821384,0.0006541746552102268,-0.0022115332540124655,0.0,0.0,0.00029696268029510975,0.0061173695139586926,GPS_RAW_INT,0,1,0,0,-17000,9999,9999,0,0,0,0,4294967295,4294967295,1000000,0,0,RC_CHANNELS,6688536,16,1502,1499,1004,1501,1000,1000,1501,1500,0,0,0,0,0,0,0,0,0,0,0,MISSION_CURRENT,0,SYS_STATUS,52485167,52461615,53510447,37,0,-1,-1,0,0,0,0,0,0,GLOBAL_POSITION_INT,6688536,0,0,-2530,-2533,0,0,0,5859,RAW_IMU,2393569456,20,11,-993,-7,0,2,267,-447,250,0,4308,BATTERY_STATUS,0,0,0,32767,[65535, 65535, 65535, 65535, 65535, 65535, 65535, 65535, 65535, 65535],-1,-1,-1,100,0,0,[0, 0, 0, 0],0,0,HEARTBEAT,6,8,0,0,0,3
2.3281030654907227,22.4296875,VFR_HUD,0.0,0.005605725105851889,58,0,-2.5299999713897705,-0.0050652106292545795,,,,,,,,,,,,,,,,AHRS,0.0068700858391821384,0.0006541746552102268,-0.0022115332540124655,0.0,0.0,0.00029696268029510975,0.0061173695139586926,GPS_RAW_INT,0,1,0,0,-17000,9999,9999,0,0,0,0,4294967295,4294967295,1000000,0,0,RC_CHANNELS,6688536,16,1502,1499,1004,1501,1000,1000,1501,1500,0,0,0,0,0,0,0,0,0,0,0,MISSION_CURRENT,0,SYS_STATUS,52485167,52461615,53510447,37,0,-1,-1,0,0,0,0,0,0,GLOBAL_POSITION_INT,6688536,0,0,-2530,-2533,0,0,0,5859,RAW_IMU,2393569456,20,11,-993,-7,0,2,267,-447,250,0,4308,BATTERY_STATUS,0,0,0,32767,[65535, 65535, 65535, 65535, 65535, 65535, 65535, 65535, 65535, 65535],-1,-1,-1,100,0,0,[0, 0, 0, 0],0,0,HEARTBEAT,6,8,0,0,0,3
2.379056692123413,22.4296875,VFR_HUD,0.0,0.005605725105851889,58,0,-2.5299999713897705,-0.0050652106292545795,,,,,,,,,,,,,,,,AHRS,0.0068700858391821384,0.0006541746552102268,-0.0022115332540124655,0.0,0.0,0.00029696268029510975,0.0061173695139586926,GPS_RAW_INT,0,1,0,0,-17000,9999,9999,0,0,0,0,4294967295,4294967295,1000000,0,0,RC_CHANNELS,6688536,16,1502,1499,1004,1501,1000,1000,1501,1500,0,0,0,0,0,0,0,0,0,0,0,MISSION_CURRENT,0,SYS_STATUS,52485167,52461615,53510447,37,0,-1,-1,0,0,0,0,0,0,GLOBAL_POSITION_INT,6688536,0,0,-2530,-2533,0,0,0,5859,RAW_IMU,2393569456,20,11,-993,-7,0,2,267,-447,250,0,4308,BATTERY_STATUS,0,0,0,32767,[65535, 65535, 65535, 65535, 65535, 65535, 65535, 65535, 65535, 65535],-1,-1,-1,100,0,0,[0, 0, 0, 0],0,0,HEARTBEAT,6,8,0,0,0,3
2.4296786785125732,22.4296875,VFR_HUD,0.0,0.005605725105851889,58,0,-2.5299999713897705,-0.0050652106292545795,,,,,,,,,,,,,,,,AHRS,0.0068700858391821384,0.0006541746552102268,-0.0022115332540124655,0.0,0.0,0.00029696268029510975,0.0061173695139586926,GPS_RAW_INT,0,1,0,0,-17000,9999,9999,0,0,0,0,4294967295,4294967295,1000000,0,0,RC_CHANNELS,6688536,16,1502,1499,1004,1501,1000,1000,1501,1500,0,0,0,0,0,0,0,0,0,0,0,MISSION_CURRENT,0,SYS_STATUS,52485167,52461615,53510447,37,0,-1,-1,0,0,0,0,0,0,GLOBAL_POSITION_INT,6689536,0,0,-2280,-2286,0,0,0,5858,RAW_IMU,2393569456,20,11,-993,-7,0,2,267,-447,250,0,4308,BATTERY_STATUS,0,0,0,32767,[65535, 65535, 65535, 65535, 65535, 65535, 65535, 65535, 65535, 65535],-1,-1,-1,100,0,0,[0, 0, 0, 0],0,0,HEARTBEAT,10,3,193,0,4,3
2.480609893798828,22.4296875,VFR_HUD,0.0,0.007275165989995003,58,0,-2.2799999713897705,-0.006656324956566095,,,,,,,,,,,,,,,,AHRS,0.0068700858391821384,0.0006541746552102268,-0.0022115332540124655,0.0,0.0,0.00029696268029510975,0.0061173695139586926,GPS_RAW_INT,0,1,0,0,-17000,9999,9999,0,0,0,0,4294967295,4294967295,1000000,0,0,RC_CHANNELS,6689536,16,1501,1499,1005,1501,1000,1000,1500,1500,0,0,0,0,0,0,0,0,0,0,0,MISSION_CURRENT,0,SYS_STATUS,52485167,52461615,53510447,34,0,-1,-1,0,0,0,0,0,0,GLOBAL_POSITION_INT,6689536,0,0,-2280,-2286,0,0,0,5858,RAW_IMU,2393569456,20,11,-993,-7,0,2,267,-447,250,0,4308,BATTERY_STATUS,0,0,0,32767,[65535, 65535, 65535, 65535, 65535, 65535, 65535, 65535, 65535, 65535],-1,-1,-1,100,0,0,[0, 0, 0, 0],0,0,HEARTBEAT,10,3,193,0,4,3
2.5313656330108643,22.4296875,VFR_HUD,0.0,0.007275165989995003,58,0,-2.2799999713897705,-0.006656324956566095,,,,,,,,,,,,,,,,AHRS,0.0068680583499372005,0.0006539956666529179,-0.00221127737313509,0.0,0.0,0.00033674429869279265,0.0033547247294336557,GPS_RAW_INT,0,1,0,0,-17000,9999,9999,0,0,0,0,4294967295,4294967295,1000000,0,0,RC_CHANNELS,6689536,16,1501,1499,1005,1501,1000,1000,1500,1500,0,0,0,0,0,0,0,0,0,0,0,MISSION_CURRENT,0,SYS_STATUS,52485167,52461615,53510447,34,0,-1,-1,0,0,0,0,0,0,GLOBAL_POSITION_INT,6689536,0,0,-2280,-2286,0,0,0,5858,RAW_IMU,2394569457,20,12,-991,-6,0,2,269,-454,242,0,4308,BATTERY_STATUS,0,0,0,32767,[65535, 65535, 65535, 65535, 65535, 65535, 65535, 65535, 65535, 65535],-1,-1,-1,100,0,0,[0, 0, 0, 0],0,0,HEARTBEAT,10,3,193,0,4,3
2.5822877883911133,22.4296875,VFR_HUD,0.0,0.007275165989995003,58,0,-2.2799999713897705,-0.006656324956566095,,,,,,,,,,,,,,,,AHRS,0.0068680583499372005,0.0006539956666529179,-0.00221127737313509,0.0,0.0,0.00033674429869279265,0.0033547247294336557,GPS_RAW_INT,0,1,0,0,-17000,9999,9999,0,0,0,0,4294967295,4294967295,1000000,0,0,RC_CHANNELS,6689536,16,1501,1499,1005,1501,1000,1000,1500,1500,0,0,0,0,0,0,0,0,0,0,0,MISSION_CURRENT,0,SYS_STATUS,52485167,52461615,53510447,34,0,-1,-1,0,0,0,0,0,0,GLOBAL_POSITION_INT,6689536,0,0,-2280,-2286,0,0,0,5858,RAW_IMU,2394569457,20,12,-991,-6,0,2,269,-454,242,0,4308,BATTERY_STATUS,0,0,0,32767,[65535, 65535, 65535, 65535, 65535, 65535, 65535, 65535, 65535, 65535],-1,-1,-1,100,0,0,[0, 0, 0, 0],0,0,HEARTBEAT,10,3,193,0,4,3
2.633012533187866,22.4296875,VFR_HUD,0.0,0.007275165989995003,58,0,-2.2799999713897705,-0.006656324956566095,,,,,,,,,,,,,,,,AHRS,0.0068680583499372005,0.0006539956666529179,-0.00221127737313509,0.0,0.0,0.00033674429869279265,0.0033547247294336557,GPS_RAW_INT,0,1,0,0,-17000,9999,9999,0,0,0,0,4294967295,4294967295,1000000,0,0,RC_CHANNELS,6689536,16,1501,1499,1005,1501,1000,1000,1500,1500,0,0,0,0,0,0,0,0,0,0,0,MISSION_CURRENT,0,SYS_STATUS,52485167,52461615,53510447,34,0,-1,-1,0,0,0,0,0,0,GLOBAL_POSITION_INT,6689536,0,0,-2280,-2286,0,0,0,5858,RAW_IMU,2394569457,20,12,-991,-6,0,2,269,-454,242,0,4308,BATTERY_STATUS,0,0,0,32767,[65535, 65535, 65535, 65535, 65535, 65535, 65535, 65535, 65535, 65535],-1,-1,-1,100,0,0,[0, 0, 0, 0],0,0,HEARTBEAT,10,3,193,0,4,3
2.6836025714874268,22.4296875,VFR_HUD,0.0,0.007275165989995003,58,0,-2.2799999713897705,-0.006656324956566095,,,,,,,,,,,,,,,,AHRS,0.0068680583499372005,0.0006539956666529179,-0.00221127737313509,0.0,0.0,0.00033674429869279265,0.0033547247294336557,GPS_RAW_INT,0,1,0,0,-17000,9999,9999,0,0,0,0,4294967295,4294967295,1000000,0,0,RC_CHANNELS,6689536,16,1501,1499,1005,1501,1000,1000,1500,1500,0,0,0,0,0,0,0,0,0,0,0,MISSION_CURRENT,0,SYS_STATUS,52485167,52461615,53510447,34,0,-1,-1,0,0,0,0,0,0,GLOBAL_POSITION_INT,6689536,0,0,-2280,-2286,0,0,0,5858,RAW_IMU,2394569457,20,12,-991,-6,0,2,269,-454,242,0,4308,BATTERY_STATUS,0,0,0,32767,[65535, 65535, 65535, 65535, 65535, 65535, 65535, 65535, 65535, 65535],-1,-1,-1,100,0,0,[0, 0, 0, 0],0,0,HEARTBEAT,10,3,193,0,4,3
2.734532356262207,22.4296875,VFR_HUD,0.0,0.007275165989995003,58,0,-2.2799999713897705,-0.006656324956566095,,,,,,,,,,,,,,,,AHRS,0.0068680583499372005,0.0006539956666529179,-0.00221127737313509,0.0,0.0,0.00033674429869279265,0.0033547247294336557,GPS_RAW_INT,0,1,0,0,-17000,9999,9999,0,0,0,0,4294967295,4294967295,1000000,0,0,RC_CHANNELS,6689536,16,1501,1499,1005,1501,1000,1000,1500,1500,0,0,0,0,0,0,0,0,0,0,0,MISSION_CURRENT,0,SYS_STATUS,52485167,52461615,53510447,34,0,-1,-1,0,0,0,0,0,0,GLOBAL_POSITION_INT,6689536,0,0,-2280,-2286,0,0,0,5858,RAW_IMU,2394569457,20,12,-991,-6,0,2,269,-454,242,0,4308,BATTERY_STATUS,0,0,0,32767,[65535, 65535, 65535, 65535, 65535, 65535, 65535, 65535, 65535, 65535],-1,-1,-1,100,0,0,[0, 0, 0, 0],0,0,HEARTBEAT,6,8,0,0,0,3
2.7853660583496094,22.4296875,VFR_HUD,0.0,0.007275165989995003,58,0,-2.2799999713897705,-0.006656324956566095,,,,,,,,,,,,,,,,AHRS,0.0068680583499372005,0.0006539956666529179,-0.00221127737313509,0.0,0.0,0.00033674429869279265,0.0033547247294336557,GPS_RAW_INT,0,1,0,0,-17000,9999,9999,0,0,0,0,4294967295,4294967295,1000000,0,0,RC_CHANNELS,6689536,16,1501,1499,1005,1501,1000,1000,1500,1500,0,0,0,0,0,0,0,0,0,0,0,MISSION_CURRENT,0,SYS_STATUS,52485167,52461615,53510447,34,0,-1,-1,0,0,0,0,0,0,GLOBAL_POSITION_INT,6689536,0,0,-2280,-2286,0,0,0,5858,RAW_IMU,2394569457,20,12,-991,-6,0,2,269,-454,242,0,4308,BATTERY_STATUS,0,0,0,32767,[65535, 65535, 65535, 65535, 65535, 65535, 65535, 65535, 65535, 65535],-1,-1,-1,100,0,0,[0, 0, 0, 0],0,0,HEARTBEAT,6,8,0,0,0,3
2.836280584335327,22.4296875,VFR_HUD,0.0,0.007275165989995003,58,0,-2.2799999713897705,-0.006656324956566095,,,,,,,,,,,,,,,,AHRS,0.0068680583499372005,0.0006539956666529179,-0.00221127737313509,0.0,0.0,0.00033674429869279265,0.0033547247294336557,GPS_RAW_INT,0,1,0,0,-17000,9999,9999,0,0,0,0,4294967295,4294967295,1000000,0,0,RC_CHANNELS,6689536,16,1501,1499,1005,1501,1000,1000,1500,1500,0,0,0,0,0,0,0,0,0,0,0,MISSION_CURRENT,0,SYS_STATUS,52485167,52461615,53510447,34,0,-1,-1,0,0,0,0,0,0,GLOBAL_POSITION_INT,6689536,0,0,-2280,-2286,0,0,0,5858,RAW_IMU,2394569457,20,12,-991,-6,0,2,269,-454,242,0,4308,BATTERY_STATUS,0,0,0,32767,[65535, 65535, 65535, 65535, 65535, 65535, 65535, 65535, 65535, 65535],-1,-1,-1,100,0,0,[0, 0, 0, 0],0,0,HEARTBEAT,6,8,0,0,0,3
2.886902332305908,22.4296875,VFR_HUD,0.0,0.007275165989995003,58,0,-2.2799999713897705,-0.006656324956566095,,,,,,,,,,,,,,,,AHRS,0.0068680583499372005,0.0006539956666529179,-0.00221127737313509,0.0,0.0,0.00033674429869279265,0.0033547247294336557,GPS_RAW_INT,0,1,0,0,-17000,9999,9999,0,0,0,0,4294967295,4294967295,1000000,0,0,RC_CHANNELS,6689536,16,1501,1499,1005,1501,1000,1000,1500,1500,0,0,0,0,0,0,0,0,0,0,0,MISSION_CURRENT,0,SYS_STATUS,52485167,52461615,53510447,34,0,-1,-1,0,0,0,0,0,0,GLOBAL_POSITION_INT,6689536,0,0,-2280,-2286,0,0,0,5858,RAW_IMU,2394569457,20,12,-991,-6,0,2,269,-454,242,0,4308,BATTERY_STATUS,0,0,0,32767,[65535, 65535, 65535, 65535, 65535, 65535, 65535, 65535, 65535, 65535],-1,-1,-1,100,0,0,[0, 0, 0, 0],0,0,HEARTBEAT,6,8,0,0,0,3
2.9376158714294434,22.4375,VFR_HUD,0.0,0.007275165989995003,58,0,-2.2799999713897705,-0.006656324956566095,,,,,,,,,,,,,,,,AHRS,0.0068680583499372005,0.0006539956666529179,-0.00221127737313509,0.0,0.0,0.00033674429869279265,0.0033547247294336557,GPS_RAW_INT,0,1,0,0,-17000,9999,9999,0,0,0,0,4294967295,4294967295,1000000,0,0,RC_CHANNELS,6689536,16,1501,1499,1005,1501,1000,1000,1500,1500,0,0,0,0,0,0,0,0,0,0,0,MISSION_CURRENT,0,SYS_STATUS,52485167,52461615,53510447,34,0,-1,-1,0,0,0,0,0,0,GLOBAL_POSITION_INT,6689536,0,0,-2280,-2286,0,0,0,5858,RAW_IMU,2394569457,20,12,-991,-6,0,2,269,-454,242,0,4308,BATTERY_STATUS,0,0,0,32767,[65535, 65535, 65535, 65535, 65535, 65535, 65535, 65535, 65535, 65535],-1,-1,-1,100,0,0,[0, 0, 0, 0],0,0,HEARTBEAT,6,8,0,0,0,3
2.988708019256592,22.4375,VFR_HUD,0.0,0.007275165989995003,58,0,-2.2799999713897705,-0.006656324956566095,,,,,,,,,,,,,,,,AHRS,0.0068680583499372005,0.0006539956666529179,-0.00221127737313509,0.0,0.0,0.00033674429869279265,0.0033547247294336557,GPS_RAW_INT,0,1,0,0,-17000,9999,9999,0,0,0,0,4294967295,4294967295,1000000,0,0,RC_CHANNELS,6689536,16,1501,1499,1005,1501,1000,1000,1500,1500,0,0,0,0,0,0,0,0,0,0,0,MISSION_CURRENT,0,SYS_STATUS,52485167,52461615,53510447,34,0,-1,-1,0,0,0,0,0,0,GLOBAL_POSITION_INT,6689536,0,0,-2280,-2286,0,0,0,5858,RAW_IMU,2394569457,20,12,-991,-6,0,2,269,-454,242,0,4308,BATTERY_STATUS,0,0,0,32767,[65535, 65535, 65535, 65535, 65535, 65535, 65535, 65535, 65535, 65535],-1,-1,-1,100,0,0,[0, 0, 0, 0],0,0,HEARTBEAT,6,8,0,0,0,3
3.0393199920654297,22.4375,VFR_HUD,0.0,0.007275165989995003,58,0,-2.2799999713897705,-0.006656324956566095,,,,,,,,,,,,,,,,AHRS,0.0068680583499372005,0.0006539956666529179,-0.00221127737313509,0.0,0.0,0.00033674429869279265,0.0033547247294336557,GPS_RAW_INT,0,1,0,0,-17000,9999,9999,0,0,0,0,4294967295,4294967295,1000000,0,0,RC_CHANNELS,6689536,16,1501,1499,1005,1501,1000,1000,1500,1500,0,0,0,0,0,0,0,0,0,0,0,MISSION_CURRENT,0,SYS_STATUS,52485167,52461615,53510447,34,0,-1,-1,0,0,0,0,0,0,GLOBAL_POSITION_INT,6689536,0,0,-2280,-2286,0,0,0,5858,RAW_IMU,2394569457,20,12,-991,-6,0,2,269,-454,242,0,4308,BATTERY_STATUS,0,0,0,32767,[65535, 65535, 65535, 65535, 65535, 65535, 65535, 65535, 65535, 65535],-1,-1,-1,100,0,0,[0, 0, 0, 0],0,0,HEARTBEAT,6,8,0,0,0,3
3.095374345779419,22.4375,VFR_HUD,0.0,0.007275165989995003,58,0,-2.2799999713897705,-0.006656324956566095,,,,,,,,,,,,,,,,AHRS,0.0068680583499372005,0.0006539956666529179,-0.00221127737313509,0.0,0.0,0.00033674429869279265,0.0033547247294336557,GPS_RAW_INT,0,1,0,0,-17000,9999,9999,0,0,0,0,4294967295,4294967295,1000000,0,0,RC_CHANNELS,6689536,16,1501,1499,1005,1501,1000,1000,1500,1500,0,0,0,0,0,0,0,0,0,0,0,MISSION_CURRENT,0,SYS_STATUS,52485167,52461615,53510447,34,0,-1,-1,0,0,0,0,0,0,GLOBAL_POSITION_INT,6689536,0,0,-2280,-2286,0,0,0,5858,RAW_IMU,2394569457,20,12,-991,-6,0,2,269,-454,242,0,4308,BATTERY_STATUS,0,0,0,32767,[65535, 65535, 65535, 65535, 65535, 65535, 65535, 65535, 65535, 65535],-1,-1,-1,100,0,0,[0, 0, 0, 0],0,0,HEARTBEAT,6,8,0,0,0,3
3.146123170852661,22.4375,VFR_HUD,0.0,0.007275165989995003,58,0,-2.2799999713897705,-0.006656324956566095,,,,,,,,,,,,,,,,AHRS,0.0068680583499372005,0.0006539956666529179,-0.00221127737313509,0.0,0.0,0.00033674429869279265,0.0033547247294336557,GPS_RAW_INT,0,1,0,0,-17000,9999,9999,0,0,0,0,4294967295,4294967295,1000000,0,0,RC_CHANNELS,6689536,16,1501,1499,1005,1501,1000,1000,1500,1500,0,0,0,0,0,0,0,0,0,0,0,MISSION_CURRENT,0,SYS_STATUS,52485167,52461615,53510447,34,0,-1,-1,0,0,0,0,0,0,GLOBAL_POSITION_INT,6689536,0,0,-2280,-2286,0,0,0,5858,RAW_IMU,2394569457,20,12,-991,-6,0,2,269,-454,242,0,4308,BATTERY_STATUS,0,0,0,32767,[65535, 65535, 65535, 65535, 65535, 65535, 65535, 65535, 65535, 65535],-1,-1,-1,100,0,0,[0, 0, 0, 0],0,0,HEARTBEAT,6,8,0,0,0,3
3.197319507598877,22.4375,VFR_HUD,0.0,0.007275165989995003,58,0,-2.2799999713897705,-0.006656324956566095,,,,,,,,,,,,,,,,AHRS,0.0068680583499372005,0.0006539956666529179,-0.00221127737313509,0.0,0.0,0.00033674429869279265,0.0033547247294336557,GPS_RAW_INT,0,1,0,0,-17000,9999,9999,0,0,0,0,4294967295,4294967295,1000000,0,0,RC_CHANNELS,6689536,16,1501,1499,1005,1501,1000,1000,1500,1500,0,0,0,0,0,0,0,0,0,0,0,MISSION_CURRENT,0,SYS_STATUS,52485167,52461615,53510447,34,0,-1,-1,0,0,0,0,0,0,GLOBAL_POSITION_INT,6689536,0,0,-2280,-2286,0,0,0,5858,RAW_IMU,2394569457,20,12,-991,-6,0,2,269,-454,242,0,4308,BATTERY_STATUS,0,0,0,32767,[65535, 65535, 65535, 65535, 65535, 65535, 65535, 65535, 65535, 65535],-1,-1,-1,100,0,0,[0, 0, 0, 0],0,0,HEARTBEAT,6,8,0,0,0,3
3.2479264736175537,22.4375,VFR_HUD,0.0,0.007275165989995003,58,0,-2.2799999713897705,-0.006656324956566095,,,,,,,,,,,,,,,,AHRS,0.0068680583499372005,0.0006539956666529179,-0.00221127737313509,0.0,0.0,0.00033674429869279265,0.0033547247294336557,GPS_RAW_INT,0,1,0,0,-17000,9999,9999,0,0,0,0,4294967295,4294967295,1000000,0,0,RC_CHANNELS,6689536,16,1501,1499,1005,1501,1000,1000,1500,1500,0,0,0,0,0,0,0,0,0,0,0,MISSION_CURRENT,0,SYS_STATUS,52485167,52461615,53510447,34,0,-1,-1,0,0,0,0,0,0,GLOBAL_POSITION_INT,6689536,0,0,-2280,-2286,0,0,0,5858,RAW_IMU,2394569457,20,12,-991,-6,0,2,269,-454,242,0,4308,BATTERY_STATUS,0,0,0,32767,[65535, 65535, 65535, 65535, 65535, 65535, 65535, 65535, 65535, 65535],-1,-1,-1,100,0,0,[0, 0, 0, 0],0,0,HEARTBEAT,6,8,0,0,0,3
3.2986080646514893,22.4375,VFR_HUD,0.0,0.007275165989995003,58,0,-2.2799999713897705,-0.006656324956566095,,,,,,,,,,,,,,,,AHRS,0.0068680583499372005,0.0006539956666529179,-0.00221127737313509,0.0,0.0,0.00033674429869279265,0.0033547247294336557,GPS_RAW_INT,0,1,0,0,-17000,9999,9999,0,0,0,0,4294967295,4294967295,1000000,0,0,RC_CHANNELS,6689536,16,1501,1499,1005,1501,1000,1000,1500,1500,0,0,0,0,0,0,0,0,0,0,0,MISSION_CURRENT,0,SYS_STATUS,52485167,52461615,53510447,34,0,-1,-1,0,0,0,0,0,0,GLOBAL_POSITION_INT,6689536,0,0,-2280,-2286,0,0,0,5858,RAW_IMU,2394569457,20,12,-991,-6,0,2,269,-454,242,0,4308,BATTERY_STATUS,0,0,0,32767,[65535, 65535, 65535, 65535, 65535, 65535, 65535, 65535, 65535, 65535],-1,-1,-1,100,0,0,[0, 0, 0, 0],0,0,HEARTBEAT,6,8,0,0,0,3
3.3498785495758057,22.4375,VFR_HUD,0.0,0.007275165989995003,58,0,-2.2799999713897705,-0.006656324956566095,,,,,,,,,,,,,,,,AHRS,0.0068680583499372005,0.0006539956666529179,-0.00221127737313509,0.0,0.0,0.00033674429869279265,0.0033547247294336557,GPS_RAW_INT,0,1,0,0,-17000,9999,9999,0,0,0,0,4294967295,4294967295,1000000,0,0,RC_CHANNELS,6689536,16,1501,1499,1005,1501,1000,1000,1500,1500,0,0,0,0,0,0,0,0,0,0,0,MISSION_CURRENT,0,SYS_STATUS,52485167,52461615,53510447,34,0,-1,-1,0,0,0,0,0,0,GLOBAL_POSITION_INT,6689536,0,0,-2280,-2286,0,0,0,5858,RAW_IMU,2394569457,20,12,-991,-6,0,2,269,-454,242,0,4308,BATTERY_STATUS,0,0,0,32767,[65535, 65535, 65535, 65535, 65535, 65535, 65535, 65535, 65535, 65535],-1,-1,-1,100,0,0,[0, 0, 0, 0],0,0,HEARTBEAT,6,8,0,0,0,3
3.4007339477539062,22.4453125,VFR_HUD,0.0,0.007275165989995003,58,0,-2.2799999713897705,-0.006656324956566095,,,,,,,,,,,,,,,,AHRS,0.0068680583499372005,0.0006539956666529179,-0.00221127737313509,0.0,0.0,0.00033674429869279265,0.0033547247294336557,GPS_RAW_INT,0,1,0,0,-17000,9999,9999,0,0,0,0,4294967295,4294967295,1000000,0,0,RC_CHANNELS,6689536,16,1501,1499,1005,1501,1000,1000,1500,1500,0,0,0,0,0,0,0,0,0,0,0,MISSION_CURRENT,0,SYS_STATUS,52485167,52461615,53510447,34,0,-1,-1,0,0,0,0,0,0,GLOBAL_POSITION_INT,6689536,0,0,-2280,-2286,0,0,0,5858,RAW_IMU,2394569457,20,12,-991,-6,0,2,269,-454,242,0,4308,BATTERY_STATUS,0,0,0,32767,[65535, 65535, 65535, 65535, 65535, 65535, 65535, 65535, 65535, 65535],-1,-1,-1,100,0,0,[0, 0, 0, 0],0,0,HEARTBEAT,6,8,0,0,0,3
3.4518840312957764,22.4453125,VFR_HUD,0.0,0.007275165989995003,58,0,-2.2799999713897705,-0.006656324956566095,,,,,,,,,,,,,,,,AHRS,0.0068680583499372005,0.0006539956666529179,-0.00221127737313509,0.0,0.0,0.00033674429869279265,0.0033547247294336557,GPS_RAW_INT,0,1,0,0,-17000,9999,9999,0,0,0,0,4294967295,4294967295,1000000,0,0,RC_CHANNELS,6689536,16,1501,1499,1005,1501,1000,1000,1500,1500,0,0,0,0,0,0,0,0,0,0,0,MISSION_CURRENT,0,SYS_STATUS,52485167,52461615,53510447,34,0,-1,-1,0,0,0,0,0,0,GLOBAL_POSITION_INT,6689536,0,0,-2280,-2286,0,0,0,5858,RAW_IMU,2394569457,20,12,-991,-6,0,2,269,-454,242,0,4308,BATTERY_STATUS,0,0,0,32767,[65535, 65535, 65535, 65535, 65535, 65535, 65535, 65535, 65535, 65535],-1,-1,-1,100,0,0,[0, 0, 0, 0],0,0,HEARTBEAT,6,8,0,0,0,3
3.5027663707733154,22.4453125,VFR_HUD,0.0,0.007275165989995003,58,0,-2.2799999713897705,-0.006656324956566095,,,,,,,,,,,,,,,,AHRS,0.0068680583499372005,0.0006539956666529179,-0.00221127737313509,0.0,0.0,0.00033674429869279265,0.0033547247294336557,GPS_RAW_INT,0,1,0,0,-17000,9999,9999,0,0,0,0,4294967295,4294967295,1000000,0,0,RC_CHANNELS,6689536,16,1501,1499,1005,1501,1000,1000,1500,1500,0,0,0,0,0,0,0,0,0,0,0,MISSION_CURRENT,0,SYS_STATUS,52485167,52461615,53510447,34,0,-1,-1,0,0,0,0,0,0,GLOBAL_POSITION_INT,6689536,0,0,-2280,-2286,0,0,0,5858,RAW_IMU,2394569457,20,12,-991,-6,0,2,269,-454,242,0,4308,BATTERY_STATUS,0,0,0,32767,[65535, 65535, 65535, 65535, 65535, 65535, 65535, 65535, 65535, 65535],-1,-1,-1,100,0,0,[0, 0, 0, 0],0,0,HEARTBEAT,6,8,0,0,0,3
3.5535526275634766,22.4375,VFR_HUD,0.0,0.007275165989995003,58,0,-2.2799999713897705,-0.006656324956566095,,,,,,,,,,,,,,,,AHRS,0.0068680583499372005,0.0006539956666529179,-0.00221127737313509,0.0,0.0,0.00033674429869279265,0.0033547247294336557,GPS_RAW_INT,0,1,0,0,-17000,9999,9999,0,0,0,0,4294967295,4294967295,1000000,0,0,RC_CHANNELS,6689536,16,1501,1499,1005,1501,1000,1000,1500,1500,0,0,0,0,0,0,0,0,0,0,0,MISSION_CURRENT,0,SYS_STATUS,52485167,52461615,53510447,34,0,-1,-1,0,0,0,0,0,0,GLOBAL_POSITION_INT,6689536,0,0,-2280,-2286,0,0,0,5858,RAW_IMU,2394569457,20,12,-991,-6,0,2,269,-454,242,0,4308,BATTERY_STATUS,0,0,0,32767,[65535, 65535, 65535, 65535, 65535, 65535, 65535, 65535, 65535, 65535],-1,-1,-1,100,0,0,[0, 0, 0, 0],0,0,HEARTBEAT,6,8,0,0,0,3
3.604677438735962,22.4375,VFR_HUD,0.0,0.007275165989995003,58,0,-2.2799999713897705,-0.006656324956566095,,,,,,,,,,,,,,,,AHRS,0.0068680583499372005,0.0006539956666529179,-0.00221127737313509,0.0,0.0,0.00033674429869279265,0.0033547247294336557,GPS_RAW_INT,0,1,0,0,-17000,9999,9999,0,0,0,0,4294967295,4294967295,1000000,0,0,RC_CHANNELS,6689536,16,1501,1499,1005,1501,1000,1000,1500,1500,0,0,0,0,0,0,0,0,0,0,0,MISSION_CURRENT,0,SYS_STATUS,52485167,52461615,53510447,35,0,-1,-1,0,0,0,0,0,0,GLOBAL_POSITION_INT,6690536,0,0,-2500,-2500,0,0,0,5859,RAW_IMU,2394569457,20,12,-991,-6,0,2,269,-454,242,0,4308,BATTERY_STATUS,0,0,0,32767,[65535, 65535, 65535, 65535, 65535, 65535, 65535, 65535, 65535, 65535],-1,-1,-1,100,0,0,[0, 0, 0, 0],0,0,HEARTBEAT,10,3,193,0,4,3
3.655479669570923,22.4375,VFR_HUD,0.0,0.009429807774722576,58,0,-2.5,-0.003452412085607648,,,,,,,,,,,,,,,,AHRS,0.0068680583499372005,0.0006539956666529179,-0.00221127737313509,0.0,0.0,0.00033674429869279265,0.0033547247294336557,GPS_RAW_INT,0,1,0,0,-17000,9999,9999,0,0,0,0,4294967295,4294967295,1000000,0,0,RC_CHANNELS,6690536,16,1501,1499,1004,1501,1001,1000,1500,1500,0,0,0,0,0,0,0,0,0,0,0,MISSION_CURRENT,0,SYS_STATUS,52485167,52461615,53510447,35,0,-1,-1,0,0,0,0,0,0,GLOBAL_POSITION_INT,6690536,0,0,-2500,-2500,0,0,0,5859,RAW_IMU,2395569522,20,12,-991,-6,0,2,269,-453,251,0,4308,BATTERY_STATUS,0,0,0,32767,[65535, 65535, 65535, 65535, 65535, 65535, 65535, 65535, 65535, 65535],-1,-1,-1,100,0,0,[0, 0, 0, 0],0,0,HEARTBEAT,10,3,193,0,4,3
3.706477403640747,22.4375,VFR_HUD,0.0,0.009429807774722576,58,0,-2.5,-0.003452412085607648,,,,,,,,,,,,,,,,AHRS,0.006864156574010849,0.0006536546861752868,-0.002209931146353483,0.0,0.0,0.00030153634725138545,0.003371416125446558,GPS_RAW_INT,0,1,0,0,-17000,9999,9999,0,0,0,0,4294967295,4294967295,1000000,0,0,RC_CHANNELS,6690536,16,1501,1499,1004,1501,1001,1000,1500,1500,0,0,0,0,0,0,0,0,0,0,0,MISSION_CURRENT,0,SYS_STATUS,52485167,52461615,53510447,35,0,-1,-1,0,0,0,0,0,0,GLOBAL_POSITION_INT,6690536,0,0,-2500,-2500,0,0,0,5859,RAW_IMU,2395569522,20,12,-991,-6,0,2,269,-453,251,0,4308,BATTERY_STATUS,0,0,0,32767,[65535, 65535, 65535, 65535, 65535, 65535, 65535, 65535, 65535, 65535],-1,-1,-1,100,0,0,[0, 0, 0, 0],0,0,HEARTBEAT,10,3,193,0,4,3
3.7573039531707764,22.4453125,VFR_HUD,0.0,0.009429807774722576,58,0,-2.5,-0.003452412085607648,,,,,,,,,,,,,,,,AHRS,0.006864156574010849,0.0006536546861752868,-0.002209931146353483,0.0,0.0,0.00030153634725138545,0.003371416125446558,GPS_RAW_INT,0,1,0,0,-17000,9999,9999,0,0,0,0,4294967295,4294967295,1000000,0,0,RC_CHANNELS,6690536,16,1501,1499,1004,1501,1001,1000,1500,1500,0,0,0,0,0,0,0,0,0,0,0,MISSION_CURRENT,0,SYS_STATUS,52485167,52461615,53510447,35,0,-1,-1,0,0,0,0,0,0,GLOBAL_POSITION_INT,6690536,0,0,-2500,-2500,0,0,0,5859,RAW_IMU,2395569522,20,12,-991,-6,0,2,269,-453,251,0,4308,BATTERY_STATUS,0,0,0,32767,[65535, 65535, 65535, 65535, 65535, 65535, 65535, 65535, 65535, 65535],-1,-1,-1,100,0,0,[0, 0, 0, 0],0,0,HEARTBEAT,10,3,193,0,4,3
3.8084716796875,22.4453125,VFR_HUD,0.0,0.009429807774722576,58,0,-2.5,-0.003452412085607648,,,,,,,,,,,,,,,,AHRS,0.006864156574010849,0.0006536546861752868,-0.002209931146353483,0.0,0.0,0.00030153634725138545,0.003371416125446558,GPS_RAW_INT,0,1,0,0,-17000,9999,9999,0,0,0,0,4294967295,4294967295,1000000,0,0,RC_CHANNELS,6690536,16,1501,1499,1004,1501,1001,1000,1500,1500,0,0,0,0,0,0,0,0,0,0,0,MISSION_CURRENT,0,SYS_STATUS,52485167,52461615,53510447,35,0,-1,-1,0,0,0,0,0,0,GLOBAL_POSITION_INT,6690536,0,0,-2500,-2500,0,0,0,5859,RAW_IMU,2395569522,20,12,-991,-6,0,2,269,-453,251,0,4308,BATTERY_STATUS,0,0,0,32767,[65535, 65535, 65535, 65535, 65535, 65535, 65535, 65535, 65535, 65535],-1,-1,-1,100,0,0,[0, 0, 0, 0],0,0,HEARTBEAT,10,3,193,0,4,3
3.859321355819702,22.4453125,VFR_HUD,0.0,0.009429807774722576,58,0,-2.5,-0.003452412085607648,,,,,,,,,,,,,,,,AHRS,0.006864156574010849,0.0006536546861752868,-0.002209931146353483,0.0,0.0,0.00030153634725138545,0.003371416125446558,GPS_RAW_INT,0,1,0,0,-17000,9999,9999,0,0,0,0,4294967295,4294967295,1000000,0,0,RC_CHANNELS,6690536,16,1501,1499,1004,1501,1001,1000,1500,1500,0,0,0,0,0,0,0,0,0,0,0,MISSION_CURRENT,0,SYS_STATUS,52485167,52461615,53510447,35,0,-1,-1,0,0,0,0,0,0,GLOBAL_POSITION_INT,6690536,0,0,-2500,-2500,0,0,0,5859,RAW_IMU,2395569522,20,12,-991,-6,0,2,269,-453,251,0,4308,BATTERY_STATUS,0,0,0,32767,[65535, 65535, 65535, 65535, 65535, 65535, 65535, 65535, 65535, 65535],-1,-1,-1,100,0,0,[0, 0, 0, 0],0,0,HEARTBEAT,6,8,0,0,0,3
3.910221815109253,22.4453125,VFR_HUD,0.0,0.009429807774722576,58,0,-2.5,-0.003452412085607648,,,,,,,,,,,,,,,,AHRS,0.006864156574010849,0.0006536546861752868,-0.002209931146353483,0.0,0.0,0.00030153634725138545,0.003371416125446558,GPS_RAW_INT,0,1,0,0,-17000,9999,9999,0,0,0,0,4294967295,4294967295,1000000,0,0,RC_CHANNELS,6690536,16,1501,1499,1004,1501,1001,1000,1500,1500,0,0,0,0,0,0,0,0,0,0,0,MISSION_CURRENT,0,SYS_STATUS,52485167,52461615,53510447,35,0,-1,-1,0,0,0,0,0,0,GLOBAL_POSITION_INT,6690536,0,0,-2500,-2500,0,0,0,5859,RAW_IMU,2395569522,20,12,-991,-6,0,2,269,-453,251,0,4308,BATTERY_STATUS,0,0,0,32767,[65535, 65535, 65535, 65535, 65535, 65535, 65535, 65535, 65535, 65535],-1,-1,-1,100,0,0,[0, 0, 0, 0],0,0,HEARTBEAT,6,8,0,0,0,3
3.9614293575286865,22.4453125,VFR_HUD,0.0,0.009429807774722576,58,0,-2.5,-0.003452412085607648,,,,,,,,,,,,,,,,AHRS,0.006864156574010849,0.0006536546861752868,-0.002209931146353483,0.0,0.0,0.00030153634725138545,0.003371416125446558,GPS_RAW_INT,0,1,0,0,-17000,9999,9999,0,0,0,0,4294967295,4294967295,1000000,0,0,RC_CHANNELS,6690536,16,1501,1499,1004,1501,1001,1000,1500,1500,0,0,0,0,0,0,0,0,0,0,0,MISSION_CURRENT,0,SYS_STATUS,52485167,52461615,53510447,35,0,-1,-1,0,0,0,0,0,0,GLOBAL_POSITION_INT,6690536,0,0,-2500,-2500,0,0,0,5859,RAW_IMU,2395569522,20,12,-991,-6,0,2,269,-453,251,0,4308,BATTERY_STATUS,0,0,0,32767,[65535, 65535, 65535, 65535, 65535, 65535, 65535, 65535, 65535, 65535],-1,-1,-1,100,0,0,[0, 0, 0, 0],0,0,HEARTBEAT,6,8,0,0,0,3
4.012245178222656,22.4453125,VFR_HUD,0.0,0.009429807774722576,58,0,-2.5,-0.003452412085607648,,,,,,,,,,,,,,,,AHRS,0.006864156574010849,0.0006536546861752868,-0.002209931146353483,0.0,0.0,0.00030153634725138545,0.003371416125446558,GPS_RAW_INT,0,1,0,0,-17000,9999,9999,0,0,0,0,4294967295,4294967295,1000000,0,0,RC_CHANNELS,6690536,16,1501,1499,1004,1501,1001,1000,1500,1500,0,0,0,0,0,0,0,0,0,0,0,MISSION_CURRENT,0,SYS_STATUS,52485167,52461615,53510447,35,0,-1,-1,0,0,0,0,0,0,GLOBAL_POSITION_INT,6690536,0,0,-2500,-2500,0,0,0,5859,RAW_IMU,2395569522,20,12,-991,-6,0,2,269,-453,251,0,4308,BATTERY_STATUS,0,0,0,32767,[65535, 65535, 65535, 65535, 65535, 65535, 65535, 65535, 65535, 65535],-1,-1,-1,100,0,0,[0, 0, 0, 0],0,0,HEARTBEAT,6,8,0,0,0,3
