Time (s),mavpackettype,airspeed,groundspeed,heading,throttle,alt,climb,mavpackettype,time_boot_ms,coordinate_frame,type_mask,lat_int,lon_int,alt,vx,vy,vz,afx,afy,afz,yaw,yaw_rate,mavpackettype,omegaIx,omegaIy,omegaIz,accel_weight,renorm_val,error_rp,error_yaw,mavpackettype,time_usec,fix_type,lat,lon,alt,eph,epv,vel,cog,satellites_visible,mavpackettype,time_boot_ms,chancount,chan1_raw,chan2_raw,chan3_raw,chan4_raw,chan5_raw,chan6_raw,chan7_raw,chan8_raw,chan9_raw,chan10_raw,chan11_raw,chan12_raw,chan13_raw,chan14_raw,chan15_raw,chan16_raw,chan17_raw,chan18_raw,rssi,mavpackettype,seq,mavpackettype,onboard_control_sensors_present,onboard_control_sensors_enabled,onboard_control_sensors_health,load,voltage_battery,current_battery,battery_remaining,drop_rate_comm,errors_comm,errors_count1,errors_count2,errors_count3,errors_count4,mavpackettype,time_boot_ms,lat,lon,alt,relative_alt,vx,vy,vz,hdg,mavpackettype,time_usec,xacc,yacc,zacc,xgyro,ygyro,zgyro,xmag,ymag,zmag,mavpackettype,id,battery_function,type,temperature,voltages,current_battery,current_consumed,energy_consumed,battery_remaining,mavpackettype,type,autopilot,base_mode,custom_mode,system_status,mavlink_version
10.003079891204834,VFR_HUD,0.0,0.0,56,0,-2.3499999046325684,-0.0,,,,,,,,,,,,,,,,AHRS,0.006801356095820665,0.0006000567227602005,-0.00183955323882401,0.0,0.0,0.0004271069774404168,0.008256383240222931,GPS_RAW_INT,0,1,0,0,-17000,9999,9999,0,0,0,0,4294967295,4294967295,1000000,0,0,RC_CHANNELS,6354536,16,1502,1499,1004,1501,1000,1000,1501,1500,0,0,0,0,0,0,0,0,0,0,0,MISSION_CURRENT,0,SYS_STATUS,52485167,52461615,51413295,38,0,-1,-1,0,0,0,0,0,0,GLOBAL_POSITION_INT,6354536,0,0,-2350,-2355,0,0,0,5628,RAW_IMU,2059569442,20,10,-991,-6,0,2,297,-448,231,0,4308,BATTERY_STATUS,0,0,0,32767,[65535, 65535, 65535, 65535, 65535, 65535, 65535, 65535, 65535, 65535],-1,-1,-1,100,0,0,[0, 0, 0, 0],0,0,HEARTBEAT,6,8,0,0,0,3
10.053289890289307,VFR_HUD,0.0,0.0,56,0,-2.3499999046325684,-0.0,,,,,,,,,,,,,,,,AHRS,0.006801356095820665,0.0006000567227602005,-0.00183955323882401,0.0,0.0,0.0004271069774404168,0.008256383240222931,GPS_RAW_INT,0,1,0,0,-17000,9999,9999,0,0,0,0,4294967295,4294967295,1000000,0,0,RC_CHANNELS,6354536,16,1502,1499,1004,1501,1000,1000,1501,1500,0,0,0,0,0,0,0,0,0,0,0,MISSION_CURRENT,0,SYS_STATUS,52485167,52461615,51413295,38,0,-1,-1,0,0,0,0,0,0,GLOBAL_POSITION_INT,6354536,0,0,-2350,-2355,0,0,0,5628,RAW_IMU,2059569442,20,10,-991,-6,0,2,297,-448,231,0,4308,BATTERY_STATUS,0,0,0,32767,[65535, 65535, 65535, 65535, 65535, 65535, 65535, 65535, 65535, 65535],-1,-1,-1,100,0,0,[0, 0, 0, 0],0,0,HEARTBEAT,6,8,0,0,0,3
10.103482007980347,VFR_HUD,0.0,0.0,56,0,-2.3499999046325684,-0.0,,,,,,,,,,,,,,,,AHRS,0.006801356095820665,0.0006000567227602005,-0.00183955323882401,0.0,0.0,0.0004271069774404168,0.008256383240222931,GPS_RAW_INT,0,1,0,0,-17000,9999,9999,0,0,0,0,4294967295,4294967295,1000000,0,0,RC_CHANNELS,6354536,16,1502,1499,1004,1501,1000,1000,1501,1500,0,0,0,0,0,0,0,0,0,0,0,MISSION_CURRENT,0,SYS_STATUS,52485167,52461615,51413295,38,0,-1,-1,0,0,0,0,0,0,GLOBAL_POSITION_INT,6354536,0,0,-2350,-2355,0,0,0,5628,RAW_IMU,2059569442,20,10,-991,-6,0,2,297,-448,231,0,4308,BATTERY_STATUS,0,0,0,32767,[65535, 65535, 65535, 65535, 65535, 65535, 65535, 65535, 65535, 65535],-1,-1,-1,100,0,0,[0, 0, 0, 0],0,0,HEARTBEAT,6,8,0,0,0,3
10.15374493598938,VFR_HUD,0.0,0.0,56,0,-2.3499999046325684,-0.0,,,,,,,,,,,,,,,,AHRS,0.006801356095820665,0.0006000567227602005,-0.00183955323882401,0.0,0.0,0.0004271069774404168,0.008256383240222931,GPS_RAW_INT,0,1,0,0,-17000,9999,9999,0,0,0,0,4294967295,4294967295,1000000,0,0,RC_CHANNELS,6354536,16,1502,1499,1004,1501,1000,1000,1501,1500,0,0,0,0,0,0,0,0,0,0,0,MISSION_CURRENT,0,SYS_STATUS,52485167,52461615,51413295,38,0,-1,-1,0,0,0,0,0,0,GLOBAL_POSITION_INT,6354536,0,0,-2350,-2355,0,0,0,5628,RAW_IMU,2059569442,20,10,-991,-6,0,2,297,-448,231,0,4308,BATTERY_STATUS,0,0,0,32767,[65535, 65535, 65535, 65535, 65535, 65535, 65535, 65535, 65535, 65535],-1,-1,-1,100,0,0,[0, 0, 0, 0],0,0,HEARTBEAT,6,8,0,0,0,3
10.203977346420288,VFR_HUD,0.0,0.0,56,0,-2.3499999046325684,-0.0,,,,,,,,,,,,,,,,AHRS,0.006801356095820665,0.0006000567227602005,-0.00183955323882401,0.0,0.0,0.0004271069774404168,0.008256383240222931,GPS_RAW_INT,0,1,0,0,-17000,9999,9999,0,0,0,0,4294967295,4294967295,1000000,0,0,RC_CHANNELS,6354536,16,1502,1499,1004,1501,1000,1000,1501,1500,0,0,0,0,0,0,0,0,0,0,0,MISSION_CURRENT,0,SYS_STATUS,52485167,52461615,51413295,38,0,-1,-1,0,0,0,0,0,0,GLOBAL_POSITION_INT,6354536,0,0,-2350,-2355,0,0,0,5628,RAW_IMU,2059569442,20,10,-991,-6,0,2,297,-448,231,0,4308,BATTERY_STATUS,0,0,0,32767,[65535, 65535, 65535, 65535, 65535, 65535, 65535, 65535, 65535, 65535],-1,-1,-1,100,0,0,[0, 0, 0, 0],0,0,HEARTBEAT,6,8,0,0,0,3
10.254205226898193,VFR_HUD,0.0,0.0,56,0,-2.3499999046325684,-0.0,,,,,,,,,,,,,,,,AHRS,0.006801356095820665,0.0006000567227602005,-0.00183955323882401,0.0,0.0,0.0004271069774404168,0.008256383240222931,GPS_RAW_INT,0,1,0,0,-17000,9999,9999,0,0,0,0,4294967295,4294967295,1000000,0,0,RC_CHANNELS,6354536,16,1502,1499,1004,1501,1000,1000,1501,1500,0,0,0,0,0,0,0,0,0,0,0,MISSION_CURRENT,0,SYS_STATUS,52485167,52461615,51413295,38,0,-1,-1,0,0,0,0,0,0,GLOBAL_POSITION_INT,6354536,0,0,-2350,-2355,0,0,0,5628,RAW_IMU,2059569442,20,10,-991,-6,0,2,297,-448,231,0,4308,BATTERY_STATUS,0,0,0,32767,[65535, 65535, 65535, 65535, 65535, 65535, 65535, 65535, 65535, 65535],-1,-1,-1,100,0,0,[0, 0, 0, 0],0,0,HEARTBEAT,6,8,0,0,0,3
10.30444049835205,VFR_HUD,0.0,0.0,56,0,-2.3499999046325684,-0.0,,,,,,,,,,,,,,,,AHRS,0.006801356095820665,0.0006000567227602005,-0.00183955323882401,0.0,0.0,0.0004271069774404168,0.008256383240222931,GPS_RAW_INT,0,1,0,0,-17000,9999,9999,0,0,0,0,4294967295,4294967295,1000000,0,0,RC_CHANNELS,6354536,16,1502,1499,1004,1501,1000,1000,1501,1500,0,0,0,0,0,0,0,0,0,0,0,MISSION_CURRENT,0,SYS_STATUS,52485167,52461615,51413295,38,0,-1,-1,0,0,0,0,0,0,GLOBAL_POSITION_INT,6354536,0,0,-2350,-2355,0,0,0,5628,RAW_IMU,2059569442,20,10,-991,-6,0,2,297,-448,231,0,4308,BATTERY_STATUS,0,0,0,32767,[65535, 65535, 65535, 65535, 65535, 65535, 65535, 65535, 65535, 65535],-1,-1,-1,100,0,0,[0, 0, 0, 0],0,0,HEARTBEAT,6,8,0,0,0,3
10.354634761810303,VFR_HUD,0.0,0.0,56,0,-2.3499999046325684,-0.0,,,,,,,,,,,,,,,,AHRS,0.006801356095820665,0.0006000567227602005,-0.00183955323882401,0.0,0.0,0.0004271069774404168,0.008256383240222931,GPS_RAW_INT,0,1,0,0,-17000,9999,9999,0,0,0,0,4294967295,4294967295,1000000,0,0,RC_CHANNELS,6354536,16,1502,1499,1004,1501,1000,1000,1501,1500,0,0,0,0,0,0,0,0,0,0,0,MISSION_CURRENT,0,SYS_STATUS,52485167,52461615,51413295,38,0,-1,-1,0,0,0,0,0,0,GLOBAL_POSITION_INT,6354536,0,0,-2350,-2355,0,0,0,5628,RAW_IMU,2059569442,20,10,-991,-6,0,2,297,-448,231,0,4308,BATTERY_STATUS,0,0,0,32767,[65535, 65535, 65535, 65535, 65535, 65535, 65535, 65535, 65535, 65535],-1,-1,-1,100,0,0,[0, 0, 0, 0],0,0,HEARTBEAT,6,8,0,0,0,3
10.404861211776733,VFR_HUD,0.0,0.0,56,0,-2.3499999046325684,-0.0,,,,,,,,,,,,,,,,AHRS,0.006801356095820665,0.0006000567227602005,-0.00183955323882401,0.0,0.0,0.0004271069774404168,0.008256383240222931,GPS_RAW_INT,0,1,0,0,-17000,9999,9999,0,0,0,0,4294967295,4294967295,1000000,0,0,RC_CHANNELS,6354536,16,1502,1499,1004,1501,1000,1000,1501,1500,0,0,0,0,0,0,0,0,0,0,0,MISSION_CURRENT,0,SYS_STATUS,52485167,52461615,51413295,38,0,-1,-1,0,0,0,0,0,0,GLOBAL_POSITION_INT,6354536,0,0,-2350,-2355,0,0,0,5628,RAW_IMU,2059569442,20,10,-991,-6,0,2,297,-448,231,0,4308,BATTERY_STATUS,0,0,0,32767,[65535, 65535, 65535, 65535, 65535, 65535, 65535, 65535, 65535, 65535],-1,-1,-1,100,0,0,[0, 0, 0, 0],0,0,HEARTBEAT,6,8,0,0,0,3
10.455052614212036,VFR_HUD,0.0,0.0,56,0,-2.3499999046325684,-0.0,,,,,,,,,,,,,,,,AHRS,0.006801356095820665,0.0006000567227602005,-0.00183955323882401,0.0,0.0,0.0004271069774404168,0.008256383240222931,GPS_RAW_INT,0,1,0,0,-17000,9999,9999,0,0,0,0,4294967295,4294967295,1000000,0,0,RC_CHANNELS,6354536,16,1502,1499,1004,1501,1000,1000,1501,1500,0,0,0,0,0,0,0,0,0,0,0,MISSION_CURRENT,0,SYS_STATUS,52485167,52461615,51413295,38,0,-1,-1,0,0,0,0,0,0,GLOBAL_POSITION_INT,6354536,0,0,-2350,-2355,0,0,0,5628,RAW_IMU,2059569442,20,10,-991,-6,0,2,297,-448,231,0,4308,BATTERY_STATUS,0,0,0,32767,[65535, 65535, 65535, 65535, 65535, 65535, 65535, 65535, 65535, 65535],-1,-1,-1,100,0,0,[0, 0, 0, 0],0,0,HEARTBEAT,6,8,0,0,0,3
10.5052330493927,VFR_HUD,0.0,0.0,56,0,-2.3499999046325684,-0.0,,,,,,,,,,,,,,,,AHRS,0.006801356095820665,0.0006000567227602005,-0.00183955323882401,0.0,0.0,0.0004271069774404168,0.008256383240222931,GPS_RAW_INT,0,1,0,0,-17000,9999,9999,0,0,0,0,4294967295,4294967295,1000000,0,0,RC_CHANNELS,6354536,16,1502,1499,1004,1501,1000,1000,1501,1500,0,0,0,0,0,0,0,0,0,0,0,MISSION_CURRENT,0,SYS_STATUS,52485167,52461615,51413295,38,0,-1,-1,0,0,0,0,0,0,GLOBAL_POSITION_INT,6354536,0,0,-2350,-2355,0,0,0,5628,RAW_IMU,2059569442,20,10,-991,-6,0,2,297,-448,231,0,4308,BATTERY_STATUS,0,0,0,32767,[65535, 65535, 65535, 65535, 65535, 65535, 65535, 65535, 65535, 65535],-1,-1,-1,100,0,0,[0, 0, 0, 0],0,0,HEARTBEAT,6,8,0,0,0,3
10.555431604385376,VFR_HUD,0.0,0.0,56,0,-2.3499999046325684,-0.0,,,,,,,,,,,,,,,,AHRS,0.006801356095820665,0.0006000567227602005,-0.00183955323882401,0.0,0.0,0.0004271069774404168,0.008256383240222931,GPS_RAW_INT,0,1,0,0,-17000,9999,9999,0,0,0,0,4294967295,4294967295,1000000,0,0,RC_CHANNELS,6354536,16,1502,1499,1004,1501,1000,1000,1501,1500,0,0,0,0,0,0,0,0,0,0,0,MISSION_CURRENT,0,SYS_STATUS,52485167,52461615,51413295,38,0,-1,-1,0,0,0,0,0,0,GLOBAL_POSITION_INT,6354536,0,0,-2350,-2355,0,0,0,5628,RAW_IMU,2059569442,20,10,-991,-6,0,2,297,-448,231,0,4308,BATTERY_STATUS,0,0,0,32767,[65535, 65535, 65535, 65535, 65535, 65535, 65535, 65535, 65535, 65535],-1,-1,-1,100,0,0,[0, 0, 0, 0],0,0,HEARTBEAT,6,8,0,0,0,3
10.605634212493896,VFR_HUD,0.0,0.0,56,0,-2.3499999046325684,-0.0,,,,,,,,,,,,,,,,AHRS,0.006801356095820665,0.0006000567227602005,-0.00183955323882401,0.0,0.0,0.0004271069774404168,0.008256383240222931,GPS_RAW_INT,0,1,0,0,-17000,9999,9999,0,0,0,0,4294967295,4294967295,1000000,0,0,RC_CHANNELS,6354536,16,1502,1499,1004,1501,1000,1000,1501,1500,0,0,0,0,0,0,0,0,0,0,0,MISSION_CURRENT,0,SYS_STATUS,52485167,52461615,51413295,38,0,-1,-1,0,0,0,0,0,0,GLOBAL_POSITION_INT,6354536,0,0,-2350,-2355,0,0,0,5628,RAW_IMU,2059569442,20,10,-991,-6,0,2,297,-448,231,0,4308,BATTERY_STATUS,0,0,0,32767,[65535, 65535, 65535, 65535, 65535, 65535, 65535, 65535, 65535, 65535],-1,-1,-1,100,0,0,[0, 0, 0, 0],0,0,HEARTBEAT,6,8,0,0,0,3
10.655863285064697,VFR_HUD,0.0,0.0,56,0,-2.3499999046325684,-0.0,,,,,,,,,,,,,,,,AHRS,0.006801356095820665,0.0006000567227602005,-0.00183955323882401,0.0,0.0,0.0004271069774404168,0.008256383240222931,GPS_RAW_INT,0,1,0,0,-17000,9999,9999,0,0,0,0,4294967295,4294967295,1000000,0,0,RC_CHANNELS,6354536,16,1502,1499,1004,1501,1000,1000,1501,1500,0,0,0,0,0,0,0,0,0,0,0,MISSION_CURRENT,0,SYS_STATUS,52485167,52461615,51413295,38,0,-1,-1,0,0,0,0,0,0,GLOBAL_POSITION_INT,6354536,0,0,-2350,-2355,0,0,0,5628,RAW_IMU,2059569442,20,10,-991,-6,0,2,297,-448,231,0,4308,BATTERY_STATUS,0,0,0,32767,[65535, 65535, 65535, 65535, 65535, 65535, 65535, 65535, 65535, 65535],-1,-1,-1,100,0,0,[0, 0, 0, 0],0,0,HEARTBEAT,6,8,0,0,0,3
10.706103801727295,VFR_HUD,0.0,0.0,56,0,-2.3499999046325684,-0.0,,,,,,,,,,,,,,,,AHRS,0.006801356095820665,0.0006000567227602005,-0.00183955323882401,0.0,0.0,0.0004271069774404168,0.008256383240222931,GPS_RAW_INT,0,1,0,0,-17000,9999,9999,0,0,0,0,4294967295,4294967295,1000000,0,0,RC_CHANNELS,6354536,16,1502,1499,1004,1501,1000,1000,1501,1500,0,0,0,0,0,0,0,0,0,0,0,MISSION_CURRENT,0,SYS_STATUS,52485167,52461615,51413295,38,0,-1,-1,0,0,0,0,0,0,GLOBAL_POSITION_INT,6354536,0,0,-2350,-2355,0,0,0,5628,RAW_IMU,2059569442,20,10,-991,-6,0,2,297,-448,231,0,4308,BATTERY_STATUS,0,0,0,32767,[65535, 65535, 65535, 65535, 65535, 65535, 65535, 65535, 65535, 65535],-1,-1,-1,100,0,0,[0, 0, 0, 0],0,0,HEARTBEAT,6,8,0,0,0,3
10.756301641464233,VFR_HUD,0.0,0.0,56,0,-2.3499999046325684,-0.0,,,,,,,,,,,,,,,,AHRS,0.006801356095820665,0.0006000567227602005,-0.00183955323882401,0.0,0.0,0.0004271069774404168,0.008256383240222931,GPS_RAW_INT,0,1,0,0,-17000,9999,9999,0,0,0,0,4294967295,4294967295,1000000,0,0,RC_CHANNELS,6354536,16,1502,1499,1004,1501,1000,1000,1501,1500,0,0,0,0,0,0,0,0,0,0,0,MISSION_CURRENT,0,SYS_STATUS,52485167,52461615,51413295,38,0,-1,-1,0,0,0,0,0,0,GLOBAL_POSITION_INT,6354536,0,0,-2350,-2355,0,0,0,5628,RAW_IMU,2059569442,20,10,-991,-6,0,2,297,-448,231,0,4308,BATTERY_STATUS,0,0,0,32767,[65535, 65535, 65535, 65535, 65535, 65535, 65535, 65535, 65535, 65535],-1,-1,-1,100,0,0,[0, 0, 0, 0],0,0,HEARTBEAT,6,8,0,0,0,3
10.856842994689941,VFR_HUD,0.0,0.0,56,0,-2.3499999046325684,-0.0,,,,,,,,,,,,,,,,AHRS,0.006801356095820665,0.0006000567227602005,-0.00183955323882401,0.0,0.0,0.0004271069774404168,0.008256383240222931,GPS_RAW_INT,0,1,0,0,-17000,9999,9999,0,0,0,0,4294967295,4294967295,1000000,0,0,RC_CHANNELS,6354536,16,1502,1499,1004,1501,1000,1000,1501,1500,0,0,0,0,0,0,0,0,0,0,0,MISSION_CURRENT,0,SYS_STATUS,52485167,52461615,51413295,38,0,-1,-1,0,0,0,0,0,0,GLOBAL_POSITION_INT,6354536,0,0,-2350,-2355,0,0,0,5628,RAW_IMU,2059569442,20,10,-991,-6,0,2,297,-448,231,0,4308,BATTERY_STATUS,0,0,0,32767,[65535, 65535, 65535, 65535, 65535, 65535, 65535, 65535, 65535, 65535],-1,-1,-1,100,0,0,[0, 0, 0, 0],0,0,HEARTBEAT,6,8,0,0,0,3
10.907106399536133,VFR_HUD,0.0,0.0,56,0,-2.3499999046325684,-0.0,,,,,,,,,,,,,,,,AHRS,0.006801356095820665,0.0006000567227602005,-0.00183955323882401,0.0,0.0,0.0004271069774404168,0.008256383240222931,GPS_RAW_INT,0,1,0,0,-17000,9999,9999,0,0,0,0,4294967295,4294967295,1000000,0,0,RC_CHANNELS,6354536,16,1502,1499,1004,1501,1000,1000,1501,1500,0,0,0,0,0,0,0,0,0,0,0,MISSION_CURRENT,0,SYS_STATUS,52485167,52461615,51413295,38,0,-1,-1,0,0,0,0,0,0,GLOBAL_POSITION_INT,6354536,0,0,-2350,-2355,0,0,0,5628,RAW_IMU,2059569442,20,10,-991,-6,0,2,297,-448,231,0,4308,BATTERY_STATUS,0,0,0,32767,[65535, 65535, 65535, 65535, 65535, 65535, 65535, 65535, 65535, 65535],-1,-1,-1,100,0,0,[0, 0, 0, 0],0,0,HEARTBEAT,6,8,0,0,0,3
10.957342147827148,VFR_HUD,0.0,0.0,56,0,-2.3499999046325684,-0.0,,,,,,,,,,,,,,,,AHRS,0.006801356095820665,0.0006000567227602005,-0.00183955323882401,0.0,0.0,0.0004271069774404168,0.008256383240222931,GPS_RAW_INT,0,1,0,0,-17000,9999,9999,0,0,0,0,4294967295,4294967295,1000000,0,0,RC_CHANNELS,6354536,16,1502,1499,1004,1501,1000,1000,1501,1500,0,0,0,0,0,0,0,0,0,0,0,MISSION_CURRENT,0,SYS_STATUS,52485167,52461615,51413295,38,0,-1,-1,0,0,0,0,0,0,GLOBAL_POSITION_INT,6354536,0,0,-2350,-2355,0,0,0,5628,RAW_IMU,2059569442,20,10,-991,-6,0,2,297,-448,231,0,4308,BATTERY_STATUS,0,0,0,32767,[65535, 65535, 65535, 65535, 65535, 65535, 65535, 65535, 65535, 65535],-1,-1,-1,100,0,0,[0, 0, 0, 0],0,0,HEARTBEAT,6,8,0,0,0,3
11.00761365890503,VFR_HUD,0.0,0.0,56,0,-2.3499999046325684,-0.0,,,,,,,,,,,,,,,,AHRS,0.006801356095820665,0.0006000567227602005,-0.00183955323882401,0.0,0.0,0.0004271069774404168,0.008256383240222931,GPS_RAW_INT,0,1,0,0,-17000,9999,9999,0,0,0,0,4294967295,4294967295,1000000,0,0,RC_CHANNELS,6354536,16,1502,1499,1004,1501,1000,1000,1501,1500,0,0,0,0,0,0,0,0,0,0,0,MISSION_CURRENT,0,SYS_STATUS,52485167,52461615,51413295,38,0,-1,-1,0,0,0,0,0,0,GLOBAL_POSITION_INT,6354536,0,0,-2350,-2355,0,0,0,5628,RAW_IMU,2059569442,20,10,-991,-6,0,2,297,-448,231,0,4308,BATTERY_STATUS,0,0,0,32767,[65535, 65535, 65535, 65535, 65535, 65535, 65535, 65535, 65535, 65535],-1,-1,-1,100,0,0,[0, 0, 0, 0],0,0,HEARTBEAT,6,8,0,0,0,3
11.0584135055542,VFR_HUD,0.0,0.0,56,0,-2.3499999046325684,-0.0,,,,,,,,,,,,,,,,AHRS,0.006801356095820665,0.0006000567227602005,-0.00183955323882401,0.0,0.0,0.0004271069774404168,0.008256383240222931,GPS_RAW_INT,0,1,0,0,-17000,9999,9999,0,0,0,0,4294967295,4294967295,1000000,0,0,RC_CHANNELS,6354536,16,1502,1499,1004,1501,1000,1000,1501,1500,0,0,0,0,0,0,0,0,0,0,0,MISSION_CURRENT,0,SYS_STATUS,52485167,52461615,51413295,38,0,-1,-1,0,0,0,0,0,0,GLOBAL_POSITION_INT,6354536,0,0,-2350,-2355,0,0,0,5628,RAW_IMU,2059569442,20,10,-991,-6,0,2,297,-448,231,0,4308,BATTERY_STATUS,0,0,0,32767,[65535, 65535, 65535, 65535, 65535, 65535, 65535, 65535, 65535, 65535],-1,-1,-1,100,0,0,[0, 0, 0, 0],0,0,HEARTBEAT,6,8,0,0,0,3
11.108693838119507,VFR_HUD,0.0,0.0,56,0,-2.3499999046325684,-0.0,,,,,,,,,,,,,,,,AHRS,0.006801356095820665,0.0006000567227602005,-0.00183955323882401,0.0,0.0,0.0004271069774404168,0.008256383240222931,GPS_RAW_INT,0,1,0,0,-17000,9999,9999,0,0,0,0,4294967295,4294967295,1000000,0,0,RC_CHANNELS,6354536,16,1502,1499,1004,1501,1000,1000,1501,1500,0,0,0,0,0,0,0,0,0,0,0,MISSION_CURRENT,0,SYS_STATUS,52485167,52461615,51413295,38,0,-1,-1,0,0,0,0,0,0,GLOBAL_POSITION_INT,6354536,0,0,-2350,-2355,0,0,0,5628,RAW_IMU,2059569442,20,10,-991,-6,0,2,297,-448,231,0,4308,BATTERY_STATUS,0,0,0,32767,[65535, 65535, 65535, 65535, 65535, 65535, 65535, 65535, 65535, 65535],-1,-1,-1,100,0,0,[0, 0, 0, 0],0,0,HEARTBEAT,6,8,0,0,0,3
11.158947229385376,VFR_HUD,0.0,0.0,56,0,-2.3499999046325684,-0.0,,,,,,,,,,,,,,,,AHRS,0.006801356095820665,0.0006000567227602005,-0.00183955323882401,0.0,0.0,0.0004271069774404168,0.008256383240222931,GPS_RAW_INT,0,1,0,0,-17000,9999,9999,0,0,0,0,4294967295,4294967295,1000000,0,0,RC_CHANNELS,6354536,16,1502,1499,1004,1501,1000,1000,1501,1500,0,0,0,0,0,0,0,0,0,0,0,MISSION_CURRENT,0,SYS_STATUS,52485167,52461615,51413295,38,0,-1,-1,0,0,0,0,0,0,GLOBAL_POSITION_INT,6354536,0,0,-2350,-2355,0,0,0,5628,RAW_IMU,2059569442,20,10,-991,-6,0,2,297,-448,231,0,4308,BATTERY_STATUS,0,0,0,32767,[65535, 65535, 65535, 65535, 65535, 65535, 65535, 65535, 65535, 65535],-1,-1,-1,100,0,0,[0, 0, 0, 0],0,0,HEARTBEAT,6,8,0,0,0,3
11.209228038787842,VFR_HUD,0.0,0.0,56,0,-2.3499999046325684,-0.0,,,,,,,,,,,,,,,,AHRS,0.006801356095820665,0.0006000567227602005,-0.00183955323882401,0.0,0.0,0.0004271069774404168,0.008256383240222931,GPS_RAW_INT,0,1,0,0,-17000,9999,9999,0,0,0,0,4294967295,4294967295,1000000,0,0,RC_CHANNELS,6354536,16,1502,1499,1004,1501,1000,1000,1501,1500,0,0,0,0,0,0,0,0,0,0,0,MISSION_CURRENT,0,SYS_STATUS,52485167,52461615,51413295,38,0,-1,-1,0,0,0,0,0,0,GLOBAL_POSITION_INT,6354536,0,0,-2350,-2355,0,0,0,5628,RAW_IMU,2059569442,20,10,-991,-6,0,2,297,-448,231,0,4308,BATTERY_STATUS,0,0,0,32767,[65535, 65535, 65535, 65535, 65535, 65535, 65535, 65535, 65535, 65535],-1,-1,-1,100,0,0,[0, 0, 0, 0],0,0,HEARTBEAT,6,8,0,0,0,3
11.259459733963013,VFR_HUD,0.0,0.0,56,0,-2.3499999046325684,-0.0,,,,,,,,,,,,,,,,AHRS,0.006801356095820665,0.0006000567227602005,-0.00183955323882401,0.0,0.0,0.0004271069774404168,0.008256383240222931,GPS_RAW_INT,0,1,0,0,-17000,9999,9999,0,0,0,0,4294967295,4294967295,1000000,0,0,RC_CHANNELS,6354536,16,1502,1499,1004,1501,1000,1000,1501,1500,0,0,0,0,0,0,0,0,0,0,0,MISSION_CURRENT,0,SYS_STATUS,52485167,52461615,51413295,38,0,-1,-1,0,0,0,0,0,0,GLOBAL_POSITION_INT,6354536,0,0,-2350,-2355,0,0,0,5628,RAW_IMU,2059569442,20,10,-991,-6,0,2,297,-448,231,0,4308,BATTERY_STATUS,0,0,0,32767,[65535, 65535, 65535, 65535, 65535, 65535, 65535, 65535, 65535, 65535],-1,-1,-1,100,0,0,[0, 0, 0, 0],0,0,HEARTBEAT,6,8,0,0,0,3
11.309747457504272,VFR_HUD,0.0,0.0,56,0,-2.3499999046325684,-0.0,,,,,,,,,,,,,,,,AHRS,0.006801356095820665,0.0006000567227602005,-0.00183955323882401,0.0,0.0,0.0004271069774404168,0.008256383240222931,GPS_RAW_INT,0,1,0,0,-17000,9999,9999,0,0,0,0,4294967295,4294967295,1000000,0,0,RC_CHANNELS,6354536,16,1502,1499,1004,1501,1000,1000,1501,1500,0,0,0,0,0,0,0,0,0,0,0,MISSION_CURRENT,0,SYS_STATUS,52485167,52461615,51413295,38,0,-1,-1,0,0,0,0,0,0,GLOBAL_POSITION_INT,6354536,0,0,-2350,-2355,0,0,0,5628,RAW_IMU,2059569442,20,10,-991,-6,0,2,297,-448,231,0,4308,BATTERY_STATUS,0,0,0,32767,[65535, 65535, 65535, 65535, 65535, 65535, 65535, 65535, 65535, 65535],-1,-1,-1,100,0,0,[0, 0, 0, 0],0,0,HEARTBEAT,6,8,0,0,0,3
11.35996699333191,VFR_HUD,0.0,0.0,56,0,-2.3499999046325684,-0.0,,,,,,,,,,,,,,,,AHRS,0.006801356095820665,0.0006000567227602005,-0.00183955323882401,0.0,0.0,0.0004271069774404168,0.008256383240222931,GPS_RAW_INT,0,1,0,0,-17000,9999,9999,0,0,0,0,4294967295,4294967295,1000000,0,0,RC_CHANNELS,6354536,16,1502,1499,1004,1501,1000,1000,1501,1500,0,0,0,0,0,0,0,0,0,0,0,MISSION_CURRENT,0,SYS_STATUS,52485167,52461615,51413295,38,0,-1,-1,0,0,0,0,0,0,GLOBAL_POSITION_INT,6354536,0,0,-2350,-2355,0,0,0,5628,RAW_IMU,2059569442,20,10,-991,-6,0,2,297,-448,231,0,4308,BATTERY_STATUS,0,0,0,32767,[65535, 65535, 65535, 65535, 65535, 65535, 65535, 65535, 65535, 65535],-1,-1,-1,100,0,0,[0, 0, 0, 0],0,0,HEARTBEAT,6,8,0,0,0,3
11.410157203674316,VFR_HUD,0.0,0.0,56,0,-2.3499999046325684,-0.0,,,,,,,,,,,,,,,,AHRS,0.006801356095820665,0.0006000567227602005,-0.00183955323882401,0.0,0.0,0.0004271069774404168,0.008256383240222931,GPS_RAW_INT,0,1,0,0,-17000,9999,9999,0,0,0,0,4294967295,4294967295,1000000,0,0,RC_CHANNELS,6354536,16,1502,1499,1004,1501,1000,1000,1501,1500,0,0,0,0,0,0,0,0,0,0,0,MISSION_CURRENT,0,SYS_STATUS,52485167,52461615,51413295,38,0,-1,-1,0,0,0,0,0,0,GLOBAL_POSITION_INT,6354536,0,0,-2350,-2355,0,0,0,5628,RAW_IMU,2059569442,20,10,-991,-6,0,2,297,-448,231,0,4308,BATTERY_STATUS,0,0,0,32767,[65535, 65535, 65535, 65535, 65535, 65535, 65535, 65535, 65535, 65535],-1,-1,-1,100,0,0,[0, 0, 0, 0],0,0,HEARTBEAT,6,8,0,0,0,3
11.460417985916138,VFR_HUD,0.0,0.0,56,0,-2.3499999046325684,-0.0,,,,,,,,,,,,,,,,AHRS,0.006801356095820665,0.0006000567227602005,-0.00183955323882401,0.0,0.0,0.0004271069774404168,0.008256383240222931,GPS_RAW_INT,0,1,0,0,-17000,9999,9999,0,0,0,0,4294967295,4294967295,1000000,0,0,RC_CHANNELS,6354536,16,1502,1499,1004,1501,1000,1000,1501,1500,0,0,0,0,0,0,0,0,0,0,0,MISSION_CURRENT,0,SYS_STATUS,52485167,52461615,51413295,38,0,-1,-1,0,0,0,0,0,0,GLOBAL_POSITION_INT,6354536,0,0,-2350,-2355,0,0,0,5628,RAW_IMU,2059569442,20,10,-991,-6,0,2,297,-448,231,0,4308,BATTERY_STATUS,0,0,0,32767,[65535, 65535, 65535, 65535, 65535, 65535, 65535, 65535, 65535, 65535],-1,-1,-1,100,0,0,[0, 0, 0, 0],0,0,HEARTBEAT,6,8,0,0,0,3
11.510653972625732,VFR_HUD,0.0,0.0,56,0,-2.3499999046325684,-0.0,,,,,,,,,,,,,,,,AHRS,0.006801356095820665,0.0006000567227602005,-0.00183955323882401,0.0,0.0,0.0004271069774404168,0.008256383240222931,GPS_RAW_INT,0,1,0,0,-17000,9999,9999,0,0,0,0,4294967295,4294967295,1000000,0,0,RC_CHANNELS,6354536,16,1502,1499,1004,1501,1000,1000,1501,1500,0,0,0,0,0,0,0,0,0,0,0,MISSION_CURRENT,0,SYS_STATUS,52485167,52461615,51413295,38,0,-1,-1,0,0,0,0,0,0,GLOBAL_POSITION_INT,6354536,0,0,-2350,-2355,0,0,0,5628,RAW_IMU,2059569442,20,10,-991,-6,0,2,297,-448,231,0,4308,BATTERY_STATUS,0,0,0,32767,[65535, 65535, 65535, 65535, 65535, 65535, 65535, 65535, 65535, 65535],-1,-1,-1,100,0,0,[0, 0, 0, 0],0,0,HEARTBEAT,6,8,0,0,0,3
11.560922622680664,VFR_HUD,0.0,0.0,56,0,-2.3499999046325684,-0.0,,,,,,,,,,,,,,,,AHRS,0.006801356095820665,0.0006000567227602005,-0.00183955323882401,0.0,0.0,0.0004271069774404168,0.008256383240222931,GPS_RAW_INT,0,1,0,0,-17000,9999,9999,0,0,0,0,4294967295,4294967295,1000000,0,0,RC_CHANNELS,6354536,16,1502,1499,1004,1501,1000,1000,1501,1500,0,0,0,0,0,0,0,0,0,0,0,MISSION_CURRENT,0,SYS_STATUS,52485167,52461615,51413295,38,0,-1,-1,0,0,0,0,0,0,GLOBAL_POSITION_INT,6354536,0,0,-2350,-2355,0,0,0,5628,RAW_IMU,2059569442,20,10,-991,-6,0,2,297,-448,231,0,4308,BATTERY_STATUS,0,0,0,32767,[65535, 65535, 65535, 65535, 65535, 65535, 65535, 65535, 65535, 65535],-1,-1,-1,100,0,0,[0, 0, 0, 0],0,0,HEARTBEAT,6,8,0,0,0,3
11.611158847808838,VFR_HUD,0.0,0.0,56,0,-2.3499999046325684,-0.0,,,,,,,,,,,,,,,,AHRS,0.006801356095820665,0.0006000567227602005,-0.00183955323882401,0.0,0.0,0.0004271069774404168,0.008256383240222931,GPS_RAW_INT,0,1,0,0,-17000,9999,9999,0,0,0,0,4294967295,4294967295,1000000,0,0,RC_CHANNELS,6354536,16,1502,1499,1004,1501,1000,1000,1501,1500,0,0,0,0,0,0,0,0,0,0,0,MISSION_CURRENT,0,SYS_STATUS,52485167,52461615,51413295,38,0,-1,-1,0,0,0,0,0,0,GLOBAL_POSITION_INT,6354536,0,0,-2350,-2355,0,0,0,5628,RAW_IMU,2059569442,20,10,-991,-6,0,2,297,-448,231,0,4308,BATTERY_STATUS,0,0,0,32767,[65535, 65535, 65535, 65535, 65535, 65535, 65535, 65535, 65535, 65535],-1,-1,-1,100,0,0,[0, 0, 0, 0],0,0,HEARTBEAT,6,8,0,0,0,3
11.661365985870361,VFR_HUD,0.0,0.0,56,0,-2.3499999046325684,-0.0,,,,,,,,,,,,,,,,AHRS,0.006801356095820665,0.0006000567227602005,-0.00183955323882401,0.0,0.0,0.0004271069774404168,0.008256383240222931,GPS_RAW_INT,0,1,0,0,-17000,9999,9999,0,0,0,0,4294967295,4294967295,1000000,0,0,RC_CHANNELS,6354536,16,1502,1499,1004,1501,1000,1000,1501,1500,0,0,0,0,0,0,0,0,0,0,0,MISSION_CURRENT,0,SYS_STATUS,52485167,52461615,51413295,38,0,-1,-1,0,0,0,0,0,0,GLOBAL_POSITION_INT,6354536,0,0,-2350,-2355,0,0,0,5628,RAW_IMU,2059569442,20,10,-991,-6,0,2,297,-448,231,0,4308,BATTERY_STATUS,0,0,0,32767,[65535, 65535, 65535, 65535, 65535, 65535, 65535, 65535, 65535, 65535],-1,-1,-1,100,0,0,[0, 0, 0, 0],0,0,HEARTBEAT,6,8,0,0,0,3
11.711668729782104,VFR_HUD,0.0,0.0,56,0,-2.3499999046325684,-0.0,,,,,,,,,,,,,,,,AHRS,0.006801356095820665,0.0006000567227602005,-0.00183955323882401,0.0,0.0,0.0004271069774404168,0.008256383240222931,GPS_RAW_INT,0,1,0,0,-17000,9999,9999,0,0,0,0,4294967295,4294967295,1000000,0,0,RC_CHANNELS,6354536,16,1502,1499,1004,1501,1000,1000,1501,1500,0,0,0,0,0,0,0,0,0,0,0,MISSION_CURRENT,0,SYS_STATUS,52485167,52461615,51413295,38,0,-1,-1,0,0,0,0,0,0,GLOBAL_POSITION_INT,6354536,0,0,-2350,-2355,0,0,0,5628,RAW_IMU,2059569442,20,10,-991,-6,0,2,297,-448,231,0,4308,BATTERY_STATUS,0,0,0,32767,[65535, 65535, 65535, 65535, 65535, 65535, 65535, 65535, 65535, 65535],-1,-1,-1,100,0,0,[0, 0, 0, 0],0,0,HEARTBEAT,6,8,0,0,0,3
11.761876821517944,VFR_HUD,0.0,0.0,56,0,-2.3499999046325684,-0.0,,,,,,,,,,,,,,,,AHRS,0.006801356095820665,0.0006000567227602005,-0.00183955323882401,0.0,0.0,0.0004271069774404168,0.008256383240222931,GPS_RAW_INT,0,1,0,0,-17000,9999,9999,0,0,0,0,4294967295,4294967295,1000000,0,0,RC_CHANNELS,6354536,16,1502,1499,1004,1501,1000,1000,1501,1500,0,0,0,0,0,0,0,0,0,0,0,MISSION_CURRENT,0,SYS_STATUS,52485167,52461615,51413295,38,0,-1,-1,0,0,0,0,0,0,GLOBAL_POSITION_INT,6354536,0,0,-2350,-2355,0,0,0,5628,RAW_IMU,2059569442,20,10,-991,-6,0,2,297,-448,231,0,4308,BATTERY_STATUS,0,0,0,32767,[65535, 65535, 65535, 65535, 65535, 65535, 65535, 65535, 65535, 65535],-1,-1,-1,100,0,0,[0, 0, 0, 0],0,0,HEARTBEAT,6,8,0,0,0,3
11.812115669250488,VFR_HUD,0.0,0.0,56,0,-2.3499999046325684,-0.0,,,,,,,,,,,,,,,,AHRS,0.006801356095820665,0.0006000567227602005,-0.00183955323882401,0.0,0.0,0.0004271069774404168,0.008256383240222931,GPS_RAW_INT,0,1,0,0,-17000,9999,9999,0,0,0,0,4294967295,4294967295,1000000,0,0,RC_CHANNELS,6354536,16,1502,1499,1004,1501,1000,1000,1501,1500,0,0,0,0,0,0,0,0,0,0,0,MISSION_CURRENT,0,SYS_STATUS,52485167,52461615,51413295,38,0,-1,-1,0,0,0,0,0,0,GLOBAL_POSITION_INT,6354536,0,0,-2350,-2355,0,0,0,5628,RAW_IMU,2059569442,20,10,-991,-6,0,2,297,-448,231,0,4308,BATTERY_STATUS,0,0,0,32767,[65535, 65535, 65535, 65535, 65535, 65535, 65535, 65535, 65535, 65535],-1,-1,-1,100,0,0,[0, 0, 0, 0],0,0,HEARTBEAT,6,8,0,0,0,3
11.862342834472656,VFR_HUD,0.0,0.0,56,0,-2.3499999046325684,-0.0,,,,,,,,,,,,,,,,AHRS,0.006801356095820665,0.0006000567227602005,-0.00183955323882401,0.0,0.0,0.0004271069774404168,0.008256383240222931,GPS_RAW_INT,0,1,0,0,-17000,9999,9999,0,0,0,0,4294967295,4294967295,1000000,0,0,RC_CHANNELS,6354536,16,1502,1499,1004,1501,1000,1000,1501,1500,0,0,0,0,0,0,0,0,0,0,0,MISSION_CURRENT,0,SYS_STATUS,52485167,52461615,51413295,38,0,-1,-1,0,0,0,0,0,0,GLOBAL_POSITION_INT,6354536,0,0,-2350,-2355,0,0,0,5628,RAW_IMU,2059569442,20,10,-991,-6,0,2,297,-448,231,0,4308,BATTERY_STATUS,0,0,0,32767,[65535, 65535, 65535, 65535, 65535, 65535, 65535, 65535, 65535, 65535],-1,-1,-1,100,0,0,[0, 0, 0, 0],0,0,HEARTBEAT,6,8,0,0,0,3
11.912564992904663,VFR_HUD,0.0,0.0,56,0,-2.3499999046325684,-0.0,,,,,,,,,,,,,,,,AHRS,0.006801356095820665,0.0006000567227602005,-0.00183955323882401,0.0,0.0,0.0004271069774404168,0.008256383240222931,GPS_RAW_INT,0,1,0,0,-17000,9999,9999,0,0,0,0,4294967295,4294967295,1000000,0,0,RC_CHANNELS,6354536,16,1502,1499,1004,1501,1000,1000,1501,1500,0,0,0,0,0,0,0,0,0,0,0,MISSION_CURRENT,0,SYS_STATUS,52485167,52461615,51413295,38,0,-1,-1,0,0,0,0,0,0,GLOBAL_POSITION_INT,6354536,0,0,-2350,-2355,0,0,0,5628,RAW_IMU,2059569442,20,10,-991,-6,0,2,297,-448,231,0,4308,BATTERY_STATUS,0,0,0,32767,[65535, 65535, 65535, 65535, 65535, 65535, 65535, 65535, 65535, 65535],-1,-1,-1,100,0,0,[0, 0, 0, 0],0,0,HEARTBEAT,6,8,0,0,0,3
11.962895393371582,VFR_HUD,0.0,0.0,56,0,-2.3499999046325684,-0.0,,,,,,,,,,,,,,,,AHRS,0.006801356095820665,0.0006000567227602005,-0.00183955323882401,0.0,0.0,0.0004271069774404168,0.008256383240222931,GPS_RAW_INT,0,1,0,0,-17000,9999,9999,0,0,0,0,4294967295,4294967295,1000000,0,0,RC_CHANNELS,6354536,16,1502,1499,1004,1501,1000,1000,1501,1500,0,0,0,0,0,0,0,0,0,0,0,MISSION_CURRENT,0,SYS_STATUS,52485167,52461615,51413295,38,0,-1,-1,0,0,0,0,0,0,GLOBAL_POSITION_INT,6354536,0,0,-2350,-2355,0,0,0,5628,RAW_IMU,2059569442,20,10,-991,-6,0,2,297,-448,231,0,4308,BATTERY_STATUS,0,0,0,32767,[65535, 65535, 65535, 65535, 65535, 65535, 65535, 65535, 65535, 65535],-1,-1,-1,100,0,0,[0, 0, 0, 0],0,0,HEARTBEAT,6,8,0,0,0,3
12.013126611709595,VFR_HUD,0.0,0.0,56,0,-2.3499999046325684,-0.0,,,,,,,,,,,,,,,,AHRS,0.006801356095820665,0.0006000567227602005,-0.00183955323882401,0.0,0.0,0.0004271069774404168,0.008256383240222931,GPS_RAW_INT,0,1,0,0,-17000,9999,9999,0,0,0,0,4294967295,4294967295,1000000,0,0,RC_CHANNELS,6354536,16,1502,1499,1004,1501,1000,1000,1501,1500,0,0,0,0,0,0,0,0,0,0,0,MISSION_CURRENT,0,SYS_STATUS,52485167,52461615,51413295,38,0,-1,-1,0,0,0,0,0,0,GLOBAL_POSITION_INT,6354536,0,0,-2350,-2355,0,0,0,5628,RAW_IMU,2059569442,20,10,-991,-6,0,2,297,-448,231,0,4308,BATTERY_STATUS,0,0,0,32767,[65535, 65535, 65535, 65535, 65535, 65535, 65535, 65535, 65535, 65535],-1,-1,-1,100,0,0,[0, 0, 0, 0],0,0,HEARTBEAT,6,8,0,0,0,3
12.06357717514038,VFR_HUD,0.0,0.0,56,0,-2.3499999046325684,-0.0,,,,,,,,,,,,,,,,AHRS,0.006801356095820665,0.0006000567227602005,-0.00183955323882401,0.0,0.0,0.0004271069774404168,0.008256383240222931,GPS_RAW_INT,0,1,0,0,-17000,9999,9999,0,0,0,0,4294967295,4294967295,1000000,0,0,RC_CHANNELS,6354536,16,1502,1499,1004,1501,1000,1000,1501,1500,0,0,0,0,0,0,0,0,0,0,0,MISSION_CURRENT,0,SYS_STATUS,52485167,52461615,51413295,38,0,-1,-1,0,0,0,0,0,0,GLOBAL_POSITION_INT,6354536,0,0,-2350,-2355,0,0,0,5628,RAW_IMU,2059569442,20,10,-991,-6,0,2,297,-448,231,0,4308,BATTERY_STATUS,0,0,0,32767,[65535, 65535, 65535, 65535, 65535, 65535, 65535, 65535, 65535, 65535],-1,-1,-1,100,0,0,[0, 0, 0, 0],0,0,HEARTBEAT,6,8,0,0,0,3
12.113802909851074,VFR_HUD,0.0,0.0,56,0,-2.3499999046325684,-0.0,,,,,,,,,,,,,,,,AHRS,0.006801356095820665,0.0006000567227602005,-0.00183955323882401,0.0,0.0,0.0004271069774404168,0.008256383240222931,GPS_RAW_INT,0,1,0,0,-17000,9999,9999,0,0,0,0,4294967295,4294967295,1000000,0,0,RC_CHANNELS,6354536,16,1502,1499,1004,1501,1000,1000,1501,1500,0,0,0,0,0,0,0,0,0,0,0,MISSION_CURRENT,0,SYS_STATUS,52485167,52461615,51413295,38,0,-1,-1,0,0,0,0,0,0,GLOBAL_POSITION_INT,6354536,0,0,-2350,-2355,0,0,0,5628,RAW_IMU,2059569442,20,10,-991,-6,0,2,297,-448,231,0,4308,BATTERY_STATUS,0,0,0,32767,[65535, 65535, 65535, 65535, 65535, 65535, 65535, 65535, 65535, 65535],-1,-1,-1,100,0,0,[0, 0, 0, 0],0,0,HEARTBEAT,6,8,0,0,0,3
12.164005756378174,VFR_HUD,0.0,0.0,56,0,-2.3499999046325684,-0.0,,,,,,,,,,,,,,,,AHRS,0.006801356095820665,0.0006000567227602005,-0.00183955323882401,0.0,0.0,0.0004271069774404168,0.008256383240222931,GPS_RAW_INT,0,1,0,0,-17000,9999,9999,0,0,0,0,4294967295,4294967295,1000000,0,0,RC_CHANNELS,6354536,16,1502,1499,1004,1501,1000,1000,1501,1500,0,0,0,0,0,0,0,0,0,0,0,MISSION_CURRENT,0,SYS_STATUS,52485167,52461615,51413295,38,0,-1,-1,0,0,0,0,0,0,GLOBAL_POSITION_INT,6354536,0,0,-2350,-2355,0,0,0,5628,RAW_IMU,2059569442,20,10,-991,-6,0,2,297,-448,231,0,4308,BATTERY_STATUS,0,0,0,32767,[65535, 65535, 65535, 65535, 65535, 65535, 65535, 65535, 65535, 65535],-1,-1,-1,100,0,0,[0, 0, 0, 0],0,0,HEARTBEAT,6,8,0,0,0,3
12.214221477508545,VFR_HUD,0.0,0.0,56,0,-2.3499999046325684,-0.0,,,,,,,,,,,,,,,,AHRS,0.006801356095820665,0.0006000567227602005,-0.00183955323882401,0.0,0.0,0.0004271069774404168,0.008256383240222931,GPS_RAW_INT,0,1,0,0,-17000,9999,9999,0,0,0,0,4294967295,4294967295,1000000,0,0,RC_CHANNELS,6354536,16,1502,1499,1004,1501,1000,1000,1501,1500,0,0,0,0,0,0,0,0,0,0,0,MISSION_CURRENT,0,SYS_STATUS,52485167,52461615,51413295,38,0,-1,-1,0,0,0,0,0,0,GLOBAL_POSITION_INT,6354536,0,0,-2350,-2355,0,0,0,5628,RAW_IMU,2059569442,20,10,-991,-6,0,2,297,-448,231,0,4308,BATTERY_STATUS,0,0,0,32767,[65535, 65535, 65535, 65535, 65535, 65535, 65535, 65535, 65535, 65535],-1,-1,-1,100,0,0,[0, 0, 0, 0],0,0,HEARTBEAT,6,8,0,0,0,3
12.26442837715149,VFR_HUD,0.0,0.0,56,0,-2.3499999046325684,-0.0,,,,,,,,,,,,,,,,AHRS,0.006801356095820665,0.0006000567227602005,-0.00183955323882401,0.0,0.0,0.0004271069774404168,0.008256383240222931,GPS_RAW_INT,0,1,0,0,-17000,9999,9999,0,0,0,0,4294967295,4294967295,1000000,0,0,RC_CHANNELS,6354536,16,1502,1499,1004,1501,1000,1000,1501,1500,0,0,0,0,0,0,0,0,0,0,0,MISSION_CURRENT,0,SYS_STATUS,52485167,52461615,51413295,38,0,-1,-1,0,0,0,0,0,0,GLOBAL_POSITION_INT,6354536,0,0,-2350,-2355,0,0,0,5628,RAW_IMU,2059569442,20,10,-991,-6,0,2,297,-448,231,0,4308,BATTERY_STATUS,0,0,0,32767,[65535, 65535, 65535, 65535, 65535, 65535, 65535, 65535, 65535, 65535],-1,-1,-1,100,0,0,[0, 0, 0, 0],0,0,HEARTBEAT,6,8,0,0,0,3
12.314639568328857,VFR_HUD,0.0,0.0,56,0,-2.3499999046325684,-0.0,,,,,,,,,,,,,,,,AHRS,0.006801356095820665,0.0006000567227602005,-0.00183955323882401,0.0,0.0,0.0004271069774404168,0.008256383240222931,GPS_RAW_INT,0,1,0,0,-17000,9999,9999,0,0,0,0,4294967295,4294967295,1000000,0,0,RC_CHANNELS,6354536,16,1502,1499,1004,1501,1000,1000,1501,1500,0,0,0,0,0,0,0,0,0,0,0,MISSION_CURRENT,0,SYS_STATUS,52485167,52461615,51413295,38,0,-1,-1,0,0,0,0,0,0,GLOBAL_POSITION_INT,6354536,0,0,-2350,-2355,0,0,0,5628,RAW_IMU,2059569442,20,10,-991,-6,0,2,297,-448,231,0,4308,BATTERY_STATUS,0,0,0,32767,[65535, 65535, 65535, 65535, 65535, 65535, 65535, 65535, 65535, 65535],-1,-1,-1,100,0,0,[0, 0, 0, 0],0,0,HEARTBEAT,6,8,0,0,0,3
12.364890575408936,VFR_HUD,0.0,0.0,56,0,-2.3499999046325684,-0.0,,,,,,,,,,,,,,,,AHRS,0.006801356095820665,0.0006000567227602005,-0.00183955323882401,0.0,0.0,0.0004271069774404168,0.008256383240222931,GPS_RAW_INT,0,1,0,0,-17000,9999,9999,0,0,0,0,4294967295,4294967295,1000000,0,0,RC_CHANNELS,6354536,16,1502,1499,1004,1501,1000,1000,1501,1500,0,0,0,0,0,0,0,0,0,0,0,MISSION_CURRENT,0,SYS_STATUS,52485167,52461615,51413295,38,0,-1,-1,0,0,0,0,0,0,GLOBAL_POSITION_INT,6354536,0,0,-2350,-2355,0,0,0,5628,RAW_IMU,2059569442,20,10,-991,-6,0,2,297,-448,231,0,4308,BATTERY_STATUS,0,0,0,32767,[65535, 65535, 65535, 65535, 65535, 65535, 65535, 65535, 65535, 65535],-1,-1,-1,100,0,0,[0, 0, 0, 0],0,0,HEARTBEAT,6,8,0,0,0,3
12.415098905563354,VFR_HUD,0.0,0.0,56,0,-2.3499999046325684,-0.0,,,,,,,,,,,,,,,,AHRS,0.006801356095820665,0.0006000567227602005,-0.00183955323882401,0.0,0.0,0.0004271069774404168,0.008256383240222931,GPS_RAW_INT,0,1,0,0,-17000,9999,9999,0,0,0,0,4294967295,4294967295,1000000,0,0,RC_CHANNELS,6354536,16,1502,1499,1004,1501,1000,1000,1501,1500,0,0,0,0,0,0,0,0,0,0,0,MISSION_CURRENT,0,SYS_STATUS,52485167,52461615,51413295,38,0,-1,-1,0,0,0,0,0,0,GLOBAL_POSITION_INT,6354536,0,0,-2350,-2355,0,0,0,5628,RAW_IMU,2059569442,20,10,-991,-6,0,2,297,-448,231,0,4308,BATTERY_STATUS,0,0,0,32767,[65535, 65535, 65535, 65535, 65535, 65535, 65535, 65535, 65535, 65535],-1,-1,-1,100,0,0,[0, 0, 0, 0],0,0,HEARTBEAT,6,8,0,0,0,3
12.465453147888184,VFR_HUD,0.0,0.0,56,0,-2.3499999046325684,-0.0,,,,,,,,,,,,,,,,AHRS,0.006801356095820665,0.0006000567227602005,-0.00183955323882401,0.0,0.0,0.0004271069774404168,0.008256383240222931,GPS_RAW_INT,0,1,0,0,-17000,9999,9999,0,0,0,0,4294967295,4294967295,1000000,0,0,RC_CHANNELS,6354536,16,1502,1499,1004,1501,1000,1000,1501,1500,0,0,0,0,0,0,0,0,0,0,0,MISSION_CURRENT,0,SYS_STATUS,52485167,52461615,51413295,38,0,-1,-1,0,0,0,0,0,0,GLOBAL_POSITION_INT,6354536,0,0,-2350,-2355,0,0,0,5628,RAW_IMU,2059569442,20,10,-991,-6,0,2,297,-448,231,0,4308,BATTERY_STATUS,0,0,0,32767,[65535, 65535, 65535, 65535, 65535, 65535, 65535, 65535, 65535, 65535],-1,-1,-1,100,0,0,[0, 0, 0, 0],0,0,HEARTBEAT,6,8,0,0,0,3
12.5664222240448,VFR_HUD,0.0,0.0,56,0,-2.3499999046325684,-0.0,,,,,,,,,,,,,,,,AHRS,0.006801356095820665,0.0006000567227602005,-0.00183955323882401,0.0,0.0,0.0004271069774404168,0.008256383240222931,GPS_RAW_INT,0,1,0,0,-17000,9999,9999,0,0,0,0,4294967295,4294967295,1000000,0,0,RC_CHANNELS,6354536,16,1502,1499,1004,1501,1000,1000,1501,1500,0,0,0,0,0,0,0,0,0,0,0,MISSION_CURRENT,0,SYS_STATUS,52485167,52461615,51413295,38,0,-1,-1,0,0,0,0,0,0,GLOBAL_POSITION_INT,6354536,0,0,-2350,-2355,0,0,0,5628,RAW_IMU,2059569442,20,10,-991,-6,0,2,297,-448,231,0,4308,BATTERY_STATUS,0,0,0,32767,[65535, 65535, 65535, 65535, 65535, 65535, 65535, 65535, 65535, 65535],-1,-1,-1,100,0,0,[0, 0, 0, 0],0,0,HEARTBEAT,6,8,0,0,0,3
12.616638660430908,VFR_HUD,0.0,0.0,56,0,-2.3499999046325684,-0.0,,,,,,,,,,,,,,,,AHRS,0.006801356095820665,0.0006000567227602005,-0.00183955323882401,0.0,0.0,0.0004271069774404168,0.008256383240222931,GPS_RAW_INT,0,1,0,0,-17000,9999,9999,0,0,0,0,4294967295,4294967295,1000000,0,0,RC_CHANNELS,6354536,16,1502,1499,1004,1501,1000,1000,1501,1500,0,0,0,0,0,0,0,0,0,0,0,MISSION_CURRENT,0,SYS_STATUS,52485167,52461615,51413295,38,0,-1,-1,0,0,0,0,0,0,GLOBAL_POSITION_INT,6354536,0,0,-2350,-2355,0,0,0,5628,RAW_IMU,2059569442,20,10,-991,-6,0,2,297,-448,231,0,4308,BATTERY_STATUS,0,0,0,32767,[65535, 65535, 65535, 65535, 65535, 65535, 65535, 65535, 65535, 65535],-1,-1,-1,100,0,0,[0, 0, 0, 0],0,0,HEARTBEAT,6,8,0,0,0,3
12.666821002960205,VFR_HUD,0.0,0.0,56,0,-2.3499999046325684,-0.0,,,,,,,,,,,,,,,,AHRS,0.006801356095820665,0.0006000567227602005,-0.00183955323882401,0.0,0.0,0.0004271069774404168,0.008256383240222931,GPS_RAW_INT,0,1,0,0,-17000,9999,9999,0,0,0,0,4294967295,4294967295,1000000,0,0,RC_CHANNELS,6354536,16,1502,1499,1004,1501,1000,1000,1501,1500,0,0,0,0,0,0,0,0,0,0,0,MISSION_CURRENT,0,SYS_STATUS,52485167,52461615,51413295,38,0,-1,-1,0,0,0,0,0,0,GLOBAL_POSITION_INT,6354536,0,0,-2350,-2355,0,0,0,5628,RAW_IMU,2059569442,20,10,-991,-6,0,2,297,-448,231,0,4308,BATTERY_STATUS,0,0,0,32767,[65535, 65535, 65535, 65535, 65535, 65535, 65535, 65535, 65535, 65535],-1,-1,-1,100,0,0,[0, 0, 0, 0],0,0,HEARTBEAT,6,8,0,0,0,3
12.717080116271973,VFR_HUD,0.0,0.0,56,0,-2.3499999046325684,-0.0,,,,,,,,,,,,,,,,AHRS,0.006801356095820665,0.0006000567227602005,-0.00183955323882401,0.0,0.0,0.0004271069774404168,0.008256383240222931,GPS_RAW_INT,0,1,0,0,-17000,9999,9999,0,0,0,0,4294967295,4294967295,1000000,0,0,RC_CHANNELS,6354536,16,1502,1499,1004,1501,1000,1000,1501,1500,0,0,0,0,0,0,0,0,0,0,0,MISSION_CURRENT,0,SYS_STATUS,52485167,52461615,51413295,38,0,-1,-1,0,0,0,0,0,0,GLOBAL_POSITION_INT,6354536,0,0,-2350,-2355,0,0,0,5628,RAW_IMU,2059569442,20,10,-991,-6,0,2,297,-448,231,0,4308,BATTERY_STATUS,0,0,0,32767,[65535, 65535, 65535, 65535, 65535, 65535, 65535, 65535, 65535, 65535],-1,-1,-1,100,0,0,[0, 0, 0, 0],0,0,HEARTBEAT,6,8,0,0,0,3
12.767291784286499,VFR_HUD,0.0,0.0,56,0,-2.3499999046325684,-0.0,,,,,,,,,,,,,,,,AHRS,0.006801356095820665,0.0006000567227602005,-0.00183955323882401,0.0,0.0,0.0004271069774404168,0.008256383240222931,GPS_RAW_INT,0,1,0,0,-17000,9999,9999,0,0,0,0,4294967295,4294967295,1000000,0,0,RC_CHANNELS,6354536,16,1502,1499,1004,1501,1000,1000,1501,1500,0,0,0,0,0,0,0,0,0,0,0,MISSION_CURRENT,0,SYS_STATUS,52485167,52461615,51413295,38,0,-1,-1,0,0,0,0,0,0,GLOBAL_POSITION_INT,6354536,0,0,-2350,-2355,0,0,0,5628,RAW_IMU,2059569442,20,10,-991,-6,0,2,297,-448,231,0,4308,BATTERY_STATUS,0,0,0,32767,[65535, 65535, 65535, 65535, 65535, 65535, 65535, 65535, 65535, 65535],-1,-1,-1,100,0,0,[0, 0, 0, 0],0,0,HEARTBEAT,6,8,0,0,0,3
12.817582845687866,VFR_HUD,0.0,0.0,56,0,-2.3499999046325684,-0.0,,,,,,,,,,,,,,,,AHRS,0.006801356095820665,0.0006000567227602005,-0.00183955323882401,0.0,0.0,0.0004271069774404168,0.008256383240222931,GPS_RAW_INT,0,1,0,0,-17000,9999,9999,0,0,0,0,4294967295,4294967295,1000000,0,0,RC_CHANNELS,6354536,16,1502,1499,1004,1501,1000,1000,1501,1500,0,0,0,0,0,0,0,0,0,0,0,MISSION_CURRENT,0,SYS_STATUS,52485167,52461615,51413295,38,0,-1,-1,0,0,0,0,0,0,GLOBAL_POSITION_INT,6354536,0,0,-2350,-2355,0,0,0,5628,RAW_IMU,2059569442,20,10,-991,-6,0,2,297,-448,231,0,4308,BATTERY_STATUS,0,0,0,32767,[65535, 65535, 65535, 65535, 65535, 65535, 65535, 65535, 65535, 65535],-1,-1,-1,100,0,0,[0, 0, 0, 0],0,0,HEARTBEAT,6,8,0,0,0,3
12.867878198623657,VFR_HUD,0.0,0.0,56,0,-2.3499999046325684,-0.0,,,,,,,,,,,,,,,,AHRS,0.006801356095820665,0.0006000567227602005,-0.00183955323882401,0.0,0.0,0.0004271069774404168,0.008256383240222931,GPS_RAW_INT,0,1,0,0,-17000,9999,9999,0,0,0,0,4294967295,4294967295,1000000,0,0,RC_CHANNELS,6354536,16,1502,1499,1004,1501,1000,1000,1501,1500,0,0,0,0,0,0,0,0,0,0,0,MISSION_CURRENT,0,SYS_STATUS,52485167,52461615,51413295,38,0,-1,-1,0,0,0,0,0,0,GLOBAL_POSITION_INT,6354536,0,0,-2350,-2355,0,0,0,5628,RAW_IMU,2059569442,20,10,-991,-6,0,2,297,-448,231,0,4308,BATTERY_STATUS,0,0,0,32767,[65535, 65535, 65535, 65535, 65535, 65535, 65535, 65535, 65535, 65535],-1,-1,-1,100,0,0,[0, 0, 0, 0],0,0,HEARTBEAT,6,8,0,0,0,3
12.918147087097168,VFR_HUD,0.0,0.0,56,0,-2.3499999046325684,-0.0,,,,,,,,,,,,,,,,AHRS,0.006801356095820665,0.0006000567227602005,-0.00183955323882401,0.0,0.0,0.0004271069774404168,0.008256383240222931,GPS_RAW_INT,0,1,0,0,-17000,9999,9999,0,0,0,0,4294967295,4294967295,1000000,0,0,RC_CHANNELS,6354536,16,1502,1499,1004,1501,1000,1000,1501,1500,0,0,0,0,0,0,0,0,0,0,0,MISSION_CURRENT,0,SYS_STATUS,52485167,52461615,51413295,38,0,-1,-1,0,0,0,0,0,0,GLOBAL_POSITION_INT,6354536,0,0,-2350,-2355,0,0,0,5628,RAW_IMU,2059569442,20,10,-991,-6,0,2,297,-448,231,0,4308,BATTERY_STATUS,0,0,0,32767,[65535, 65535, 65535, 65535, 65535, 65535, 65535, 65535, 65535, 65535],-1,-1,-1,100,0,0,[0, 0, 0, 0],0,0,HEARTBEAT,6,8,0,0,0,3
12.96841549873352,VFR_HUD,0.0,0.0,56,0,-2.3499999046325684,-0.0,,,,,,,,,,,,,,,,AHRS,0.006801356095820665,0.0006000567227602005,-0.00183955323882401,0.0,0.0,0.0004271069774404168,0.008256383240222931,GPS_RAW_INT,0,1,0,0,-17000,9999,9999,0,0,0,0,4294967295,4294967295,1000000,0,0,RC_CHANNELS,6354536,16,1502,1499,1004,1501,1000,1000,1501,1500,0,0,0,0,0,0,0,0,0,0,0,MISSION_CURRENT,0,SYS_STATUS,52485167,52461615,51413295,38,0,-1,-1,0,0,0,0,0,0,GLOBAL_POSITION_INT,6354536,0,0,-2350,-2355,0,0,0,5628,RAW_IMU,2059569442,20,10,-991,-6,0,2,297,-448,231,0,4308,BATTERY_STATUS,0,0,0,32767,[65535, 65535, 65535, 65535, 65535, 65535, 65535, 65535, 65535, 65535],-1,-1,-1,100,0,0,[0, 0, 0, 0],0,0,HEARTBEAT,6,8,0,0,0,3
13.01871395111084,VFR_HUD,0.0,0.0,56,0,-2.3499999046325684,-0.0,,,,,,,,,,,,,,,,AHRS,0.006801356095820665,0.0006000567227602005,-0.00183955323882401,0.0,0.0,0.0004271069774404168,0.008256383240222931,GPS_RAW_INT,0,1,0,0,-17000,9999,9999,0,0,0,0,4294967295,4294967295,1000000,0,0,RC_CHANNELS,6354536,16,1502,1499,1004,1501,1000,1000,1501,1500,0,0,0,0,0,0,0,0,0,0,0,MISSION_CURRENT,0,SYS_STATUS,52485167,52461615,51413295,38,0,-1,-1,0,0,0,0,0,0,GLOBAL_POSITION_INT,6354536,0,0,-2350,-2355,0,0,0,5628,RAW_IMU,2059569442,20,10,-991,-6,0,2,297,-448,231,0,4308,BATTERY_STATUS,0,0,0,32767,[65535, 65535, 65535, 65535, 65535, 65535, 65535, 65535, 65535, 65535],-1,-1,-1,100,0,0,[0, 0, 0, 0],0,0,HEARTBEAT,6,8,0,0,0,3
13.06899642944336,VFR_HUD,0.0,0.0,56,0,-2.3499999046325684,-0.0,,,,,,,,,,,,,,,,AHRS,0.006801356095820665,0.0006000567227602005,-0.00183955323882401,0.0,0.0,0.0004271069774404168,0.008256383240222931,GPS_RAW_INT,0,1,0,0,-17000,9999,9999,0,0,0,0,4294967295,4294967295,1000000,0,0,RC_CHANNELS,6354536,16,1502,1499,1004,1501,1000,1000,1501,1500,0,0,0,0,0,0,0,0,0,0,0,MISSION_CURRENT,0,SYS_STATUS,52485167,52461615,51413295,38,0,-1,-1,0,0,0,0,0,0,GLOBAL_POSITION_INT,6354536,0,0,-2350,-2355,0,0,0,5628,RAW_IMU,2059569442,20,10,-991,-6,0,2,297,-448,231,0,4308,BATTERY_STATUS,0,0,0,32767,[65535, 65535, 65535, 65535, 65535, 65535, 65535, 65535, 65535, 65535],-1,-1,-1,100,0,0,[0, 0, 0, 0],0,0,HEARTBEAT,6,8,0,0,0,3
13.119272708892822,VFR_HUD,0.0,0.0,56,0,-2.3499999046325684,-0.0,,,,,,,,,,,,,,,,AHRS,0.006801356095820665,0.0006000567227602005,-0.00183955323882401,0.0,0.0,0.0004271069774404168,0.008256383240222931,GPS_RAW_INT,0,1,0,0,-17000,9999,9999,0,0,0,0,4294967295,4294967295,1000000,0,0,RC_CHANNELS,6354536,16,1502,1499,1004,1501,1000,1000,1501,1500,0,0,0,0,0,0,0,0,0,0,0,MISSION_CURRENT,0,SYS_STATUS,52485167,52461615,51413295,38,0,-1,-1,0,0,0,0,0,0,GLOBAL_POSITION_INT,6354536,0,0,-2350,-2355,0,0,0,5628,RAW_IMU,2059569442,20,10,-991,-6,0,2,297,-448,231,0,4308,BATTERY_STATUS,0,0,0,32767,[65535, 65535, 65535, 65535, 65535, 65535, 65535, 65535, 65535, 65535],-1,-1,-1,100,0,0,[0, 0, 0, 0],0,0,HEARTBEAT,6,8,0,0,0,3
13.169495344161987,VFR_HUD,0.0,0.0,56,0,-2.3499999046325684,-0.0,,,,,,,,,,,,,,,,AHRS,0.006801356095820665,0.0006000567227602005,-0.00183955323882401,0.0,0.0,0.0004271069774404168,0.008256383240222931,GPS_RAW_INT,0,1,0,0,-17000,9999,9999,0,0,0,0,4294967295,4294967295,1000000,0,0,RC_CHANNELS,6354536,16,1502,1499,1004,1501,1000,1000,1501,1500,0,0,0,0,0,0,0,0,0,0,0,MISSION_CURRENT,0,SYS_STATUS,52485167,52461615,51413295,38,0,-1,-1,0,0,0,0,0,0,GLOBAL_POSITION_INT,6354536,0,0,-2350,-2355,0,0,0,5628,RAW_IMU,2059569442,20,10,-991,-6,0,2,297,-448,231,0,4308,BATTERY_STATUS,0,0,0,32767,[65535, 65535, 65535, 65535, 65535, 65535, 65535, 65535, 65535, 65535],-1,-1,-1,100,0,0,[0, 0, 0, 0],0,0,HEARTBEAT,6,8,0,0,0,3
13.219720363616943,VFR_HUD,0.0,0.0,56,0,-2.3499999046325684,-0.0,,,,,,,,,,,,,,,,AHRS,0.006801356095820665,0.0006000567227602005,-0.00183955323882401,0.0,0.0,0.0004271069774404168,0.008256383240222931,GPS_RAW_INT,0,1,0,0,-17000,9999,9999,0,0,0,0,4294967295,4294967295,1000000,0,0,RC_CHANNELS,6354536,16,1502,1499,1004,1501,1000,1000,1501,1500,0,0,0,0,0,0,0,0,0,0,0,MISSION_CURRENT,0,SYS_STATUS,52485167,52461615,51413295,38,0,-1,-1,0,0,0,0,0,0,GLOBAL_POSITION_INT,6354536,0,0,-2350,-2355,0,0,0,5628,RAW_IMU,2059569442,20,10,-991,-6,0,2,297,-448,231,0,4308,BATTERY_STATUS,0,0,0,32767,[65535, 65535, 65535, 65535, 65535, 65535, 65535, 65535, 65535, 65535],-1,-1,-1,100,0,0,[0, 0, 0, 0],0,0,HEARTBEAT,6,8,0,0,0,3
13.270002841949463,VFR_HUD,0.0,0.0,56,0,-2.3499999046325684,-0.0,,,,,,,,,,,,,,,,AHRS,0.006801356095820665,0.0006000567227602005,-0.00183955323882401,0.0,0.0,0.0004271069774404168,0.008256383240222931,GPS_RAW_INT,0,1,0,0,-17000,9999,9999,0,0,0,0,4294967295,4294967295,1000000,0,0,RC_CHANNELS,6354536,16,1502,1499,1004,1501,1000,1000,1501,1500,0,0,0,0,0,0,0,0,0,0,0,MISSION_CURRENT,0,SYS_STATUS,52485167,52461615,51413295,38,0,-1,-1,0,0,0,0,0,0,GLOBAL_POSITION_INT,6354536,0,0,-2350,-2355,0,0,0,5628,RAW_IMU,2059569442,20,10,-991,-6,0,2,297,-448,231,0,4308,BATTERY_STATUS,0,0,0,32767,[65535, 65535, 65535, 65535, 65535, 65535, 65535, 65535, 65535, 65535],-1,-1,-1,100,0,0,[0, 0, 0, 0],0,0,HEARTBEAT,6,8,0,0,0,3
13.32025671005249,VFR_HUD,0.0,0.0,56,0,-2.3499999046325684,-0.0,,,,,,,,,,,,,,,,AHRS,0.006801356095820665,0.0006000567227602005,-0.00183955323882401,0.0,0.0,0.0004271069774404168,0.008256383240222931,GPS_RAW_INT,0,1,0,0,-17000,9999,9999,0,0,0,0,4294967295,4294967295,1000000,0,0,RC_CHANNELS,6354536,16,1502,1499,1004,1501,1000,1000,1501,1500,0,0,0,0,0,0,0,0,0,0,0,MISSION_CURRENT,0,SYS_STATUS,52485167,52461615,51413295,38,0,-1,-1,0,0,0,0,0,0,GLOBAL_POSITION_INT,6354536,0,0,-2350,-2355,0,0,0,5628,RAW_IMU,2059569442,20,10,-991,-6,0,2,297,-448,231,0,4308,BATTERY_STATUS,0,0,0,32767,[65535, 65535, 65535, 65535, 65535, 65535, 65535, 65535, 65535, 65535],-1,-1,-1,100,0,0,[0, 0, 0, 0],0,0,HEARTBEAT,6,8,0,0,0,3
13.370476245880127,VFR_HUD,0.0,0.0,56,0,-2.3499999046325684,-0.0,,,,,,,,,,,,,,,,AHRS,0.006801356095820665,0.0006000567227602005,-0.00183955323882401,0.0,0.0,0.0004271069774404168,0.008256383240222931,GPS_RAW_INT,0,1,0,0,-17000,9999,9999,0,0,0,0,4294967295,4294967295,1000000,0,0,RC_CHANNELS,6354536,16,1502,1499,1004,1501,1000,1000,1501,1500,0,0,0,0,0,0,0,0,0,0,0,MISSION_CURRENT,0,SYS_STATUS,52485167,52461615,51413295,38,0,-1,-1,0,0,0,0,0,0,GLOBAL_POSITION_INT,6354536,0,0,-2350,-2355,0,0,0,5628,RAW_IMU,2059569442,20,10,-991,-6,0,2,297,-448,231,0,4308,BATTERY_STATUS,0,0,0,32767,[65535, 65535, 65535, 65535, 65535, 65535, 65535, 65535, 65535, 65535],-1,-1,-1,100,0,0,[0, 0, 0, 0],0,0,HEARTBEAT,6,8,0,0,0,3
13.420752763748169,VFR_HUD,0.0,0.0,56,0,-2.3499999046325684,-0.0,,,,,,,,,,,,,,,,AHRS,0.006801356095820665,0.0006000567227602005,-0.00183955323882401,0.0,0.0,0.0004271069774404168,0.008256383240222931,GPS_RAW_INT,0,1,0,0,-17000,9999,9999,0,0,0,0,4294967295,4294967295,1000000,0,0,RC_CHANNELS,6354536,16,1502,1499,1004,1501,1000,1000,1501,1500,0,0,0,0,0,0,0,0,0,0,0,MISSION_CURRENT,0,SYS_STATUS,52485167,52461615,51413295,38,0,-1,-1,0,0,0,0,0,0,GLOBAL_POSITION_INT,6354536,0,0,-2350,-2355,0,0,0,5628,RAW_IMU,2059569442,20,10,-991,-6,0,2,297,-448,231,0,4308,BATTERY_STATUS,0,0,0,32767,[65535, 65535, 65535, 65535, 65535, 65535, 65535, 65535, 65535, 65535],-1,-1,-1,100,0,0,[0, 0, 0, 0],0,0,HEARTBEAT,6,8,0,0,0,3
13.47097635269165,VFR_HUD,0.0,0.0,56,0,-2.3499999046325684,-0.0,,,,,,,,,,,,,,,,AHRS,0.006801356095820665,0.0006000567227602005,-0.00183955323882401,0.0,0.0,0.0004271069774404168,0.008256383240222931,GPS_RAW_INT,0,1,0,0,-17000,9999,9999,0,0,0,0,4294967295,4294967295,1000000,0,0,RC_CHANNELS,6354536,16,1502,1499,1004,1501,1000,1000,1501,1500,0,0,0,0,0,0,0,0,0,0,0,MISSION_CURRENT,0,SYS_STATUS,52485167,52461615,51413295,38,0,-1,-1,0,0,0,0,0,0,GLOBAL_POSITION_INT,6354536,0,0,-2350,-2355,0,0,0,5628,RAW_IMU,2059569442,20,10,-991,-6,0,2,297,-448,231,0,4308,BATTERY_STATUS,0,0,0,32767,[65535, 65535, 65535, 65535, 65535, 65535, 65535, 65535, 65535, 65535],-1,-1,-1,100,0,0,[0, 0, 0, 0],0,0,HEARTBEAT,6,8,0,0,0,3
13.521214962005615,VFR_HUD,0.0,0.0,56,0,-2.3499999046325684,-0.0,,,,,,,,,,,,,,,,AHRS,0.006801356095820665,0.0006000567227602005,-0.00183955323882401,0.0,0.0,0.0004271069774404168,0.008256383240222931,GPS_RAW_INT,0,1,0,0,-17000,9999,9999,0,0,0,0,4294967295,4294967295,1000000,0,0,RC_CHANNELS,6354536,16,1502,1499,1004,1501,1000,1000,1501,1500,0,0,0,0,0,0,0,0,0,0,0,MISSION_CURRENT,0,SYS_STATUS,52485167,52461615,51413295,38,0,-1,-1,0,0,0,0,0,0,GLOBAL_POSITION_INT,6354536,0,0,-2350,-2355,0,0,0,5628,RAW_IMU,2059569442,20,10,-991,-6,0,2,297,-448,231,0,4308,BATTERY_STATUS,0,0,0,32767,[65535, 65535, 65535, 65535, 65535, 65535, 65535, 65535, 65535, 65535],-1,-1,-1,100,0,0,[0, 0, 0, 0],0,0,HEARTBEAT,6,8,0,0,0,3
13.571418762207031,VFR_HUD,0.0,0.0,56,0,-2.3499999046325684,-0.0,,,,,,,,,,,,,,,,AHRS,0.006801356095820665,0.0006000567227602005,-0.00183955323882401,0.0,0.0,0.0004271069774404168,0.008256383240222931,GPS_RAW_INT,0,1,0,0,-17000,9999,9999,0,0,0,0,4294967295,4294967295,1000000,0,0,RC_CHANNELS,6354536,16,1502,1499,1004,1501,1000,1000,1501,1500,0,0,0,0,0,0,0,0,0,0,0,MISSION_CURRENT,0,SYS_STATUS,52485167,52461615,51413295,38,0,-1,-1,0,0,0,0,0,0,GLOBAL_POSITION_INT,6354536,0,0,-2350,-2355,0,0,0,5628,RAW_IMU,2059569442,20,10,-991,-6,0,2,297,-448,231,0,4308,BATTERY_STATUS,0,0,0,32767,[65535, 65535, 65535, 65535, 65535, 65535, 65535, 65535, 65535, 65535],-1,-1,-1,100,0,0,[0, 0, 0, 0],0,0,HEARTBEAT,6,8,0,0,0,3
13.621668100357056,VFR_HUD,0.0,0.0,56,0,-2.3499999046325684,-0.0,,,,,,,,,,,,,,,,AHRS,0.006801356095820665,0.0006000567227602005,-0.00183955323882401,0.0,0.0,0.0004271069774404168,0.008256383240222931,GPS_RAW_INT,0,1,0,0,-17000,9999,9999,0,0,0,0,4294967295,4294967295,1000000,0,0,RC_CHANNELS,6354536,16,1502,1499,1004,1501,1000,1000,1501,1500,0,0,0,0,0,0,0,0,0,0,0,MISSION_CURRENT,0,SYS_STATUS,52485167,52461615,51413295,38,0,-1,-1,0,0,0,0,0,0,GLOBAL_POSITION_INT,6354536,0,0,-2350,-2355,0,0,0,5628,RAW_IMU,2059569442,20,10,-991,-6,0,2,297,-448,231,0,4308,BATTERY_STATUS,0,0,0,32767,[65535, 65535, 65535, 65535, 65535, 65535, 65535, 65535, 65535, 65535],-1,-1,-1,100,0,0,[0, 0, 0, 0],0,0,HEARTBEAT,6,8,0,0,0,3
13.671877145767212,VFR_HUD,0.0,0.0,56,0,-2.3499999046325684,-0.0,,,,,,,,,,,,,,,,AHRS,0.006801356095820665,0.0006000567227602005,-0.00183955323882401,0.0,0.0,0.0004271069774404168,0.008256383240222931,GPS_RAW_INT,0,1,0,0,-17000,9999,9999,0,0,0,0,4294967295,4294967295,1000000,0,0,RC_CHANNELS,6354536,16,1502,1499,1004,1501,1000,1000,1501,1500,0,0,0,0,0,0,0,0,0,0,0,MISSION_CURRENT,0,SYS_STATUS,52485167,52461615,51413295,38,0,-1,-1,0,0,0,0,0,0,GLOBAL_POSITION_INT,6354536,0,0,-2350,-2355,0,0,0,5628,RAW_IMU,2059569442,20,10,-991,-6,0,2,297,-448,231,0,4308,BATTERY_STATUS,0,0,0,32767,[65535, 65535, 65535, 65535, 65535, 65535, 65535, 65535, 65535, 65535],-1,-1,-1,100,0,0,[0, 0, 0, 0],0,0,HEARTBEAT,6,8,0,0,0,3
13.722084283828735,VFR_HUD,0.0,0.0,56,0,-2.3499999046325684,-0.0,,,,,,,,,,,,,,,,AHRS,0.006801356095820665,0.0006000567227602005,-0.00183955323882401,0.0,0.0,0.0004271069774404168,0.008256383240222931,GPS_RAW_INT,0,1,0,0,-17000,9999,9999,0,0,0,0,4294967295,4294967295,1000000,0,0,RC_CHANNELS,6354536,16,1502,1499,1004,1501,1000,1000,1501,1500,0,0,0,0,0,0,0,0,0,0,0,MISSION_CURRENT,0,SYS_STATUS,52485167,52461615,51413295,38,0,-1,-1,0,0,0,0,0,0,GLOBAL_POSITION_INT,6354536,0,0,-2350,-2355,0,0,0,5628,RAW_IMU,2059569442,20,10,-991,-6,0,2,297,-448,231,0,4308,BATTERY_STATUS,0,0,0,32767,[65535, 65535, 65535, 65535, 65535, 65535, 65535, 65535, 65535, 65535],-1,-1,-1,100,0,0,[0, 0, 0, 0],0,0,HEARTBEAT,6,8,0,0,0,3
13.77227258682251,VFR_HUD,0.0,0.0,56,0,-2.3499999046325684,-0.0,,,,,,,,,,,,,,,,AHRS,0.006801356095820665,0.0006000567227602005,-0.00183955323882401,0.0,0.0,0.0004271069774404168,0.008256383240222931,GPS_RAW_INT,0,1,0,0,-17000,9999,9999,0,0,0,0,4294967295,4294967295,1000000,0,0,RC_CHANNELS,6354536,16,1502,1499,1004,1501,1000,1000,1501,1500,0,0,0,0,0,0,0,0,0,0,0,MISSION_CURRENT,0,SYS_STATUS,52485167,52461615,51413295,38,0,-1,-1,0,0,0,0,0,0,GLOBAL_POSITION_INT,6354536,0,0,-2350,-2355,0,0,0,5628,RAW_IMU,2059569442,20,10,-991,-6,0,2,297,-448,231,0,4308,BATTERY_STATUS,0,0,0,32767,[65535, 65535, 65535, 65535, 65535, 65535, 65535, 65535, 65535, 65535],-1,-1,-1,100,0,0,[0, 0, 0, 0],0,0,HEARTBEAT,6,8,0,0,0,3
13.822467565536499,VFR_HUD,0.0,0.0,56,0,-2.3499999046325684,-0.0,,,,,,,,,,,,,,,,AHRS,0.006801356095820665,0.0006000567227602005,-0.00183955323882401,0.0,0.0,0.0004271069774404168,0.008256383240222931,GPS_RAW_INT,0,1,0,0,-17000,9999,9999,0,0,0,0,4294967295,4294967295,1000000,0,0,RC_CHANNELS,6354536,16,1502,1499,1004,1501,1000,1000,1501,1500,0,0,0,0,0,0,0,0,0,0,0,MISSION_CURRENT,0,SYS_STATUS,52485167,52461615,51413295,38,0,-1,-1,0,0,0,0,0,0,GLOBAL_POSITION_INT,6354536,0,0,-2350,-2355,0,0,0,5628,RAW_IMU,2059569442,20,10,-991,-6,0,2,297,-448,231,0,4308,BATTERY_STATUS,0,0,0,32767,[65535, 65535, 65535, 65535, 65535, 65535, 65535, 65535, 65535, 65535],-1,-1,-1,100,0,0,[0, 0, 0, 0],0,0,HEARTBEAT,6,8,0,0,0,3
13.872888565063477,VFR_HUD,0.0,0.0,56,0,-2.3499999046325684,-0.0,,,,,,,,,,,,,,,,AHRS,0.006801356095820665,0.0006000567227602005,-0.00183955323882401,0.0,0.0,0.0004271069774404168,0.008256383240222931,GPS_RAW_INT,0,1,0,0,-17000,9999,9999,0,0,0,0,4294967295,4294967295,1000000,0,0,RC_CHANNELS,6354536,16,1502,1499,1004,1501,1000,1000,1501,1500,0,0,0,0,0,0,0,0,0,0,0,MISSION_CURRENT,0,SYS_STATUS,52485167,52461615,51413295,38,0,-1,-1,0,0,0,0,0,0,GLOBAL_POSITION_INT,6354536,0,0,-2350,-2355,0,0,0,5628,RAW_IMU,2059569442,20,10,-991,-6,0,2,297,-448,231,0,4308,BATTERY_STATUS,0,0,0,32767,[65535, 65535, 65535, 65535, 65535, 65535, 65535, 65535, 65535, 65535],-1,-1,-1,100,0,0,[0, 0, 0, 0],0,0,HEARTBEAT,6,8,0,0,0,3
13.974022388458252,VFR_HUD,0.0,0.0,56,0,-2.3499999046325684,-0.0,,,,,,,,,,,,,,,,AHRS,0.006801356095820665,0.0006000567227602005,-0.00183955323882401,0.0,0.0,0.0004271069774404168,0.008256383240222931,GPS_RAW_INT,0,1,0,0,-17000,9999,9999,0,0,0,0,4294967295,4294967295,1000000,0,0,RC_CHANNELS,6354536,16,1502,1499,1004,1501,1000,1000,1501,1500,0,0,0,0,0,0,0,0,0,0,0,MISSION_CURRENT,0,SYS_STATUS,52485167,52461615,51413295,38,0,-1,-1,0,0,0,0,0,0,GLOBAL_POSITION_INT,6354536,0,0,-2350,-2355,0,0,0,5628,RAW_IMU,2059569442,20,10,-991,-6,0,2,297,-448,231,0,4308,BATTERY_STATUS,0,0,0,32767,[65535, 65535, 65535, 65535, 65535, 65535, 65535, 65535, 65535, 65535],-1,-1,-1,100,0,0,[0, 0, 0, 0],0,0,HEARTBEAT,6,8,0,0,0,3
14.024218320846558,VFR_HUD,0.0,0.0,56,0,-2.3499999046325684,-0.0,,,,,,,,,,,,,,,,AHRS,0.006801356095820665,0.0006000567227602005,-0.00183955323882401,0.0,0.0,0.0004271069774404168,0.008256383240222931,GPS_RAW_INT,0,1,0,0,-17000,9999,9999,0,0,0,0,4294967295,4294967295,1000000,0,0,RC_CHANNELS,6354536,16,1502,1499,1004,1501,1000,1000,1501,1500,0,0,0,0,0,0,0,0,0,0,0,MISSION_CURRENT,0,SYS_STATUS,52485167,52461615,51413295,38,0,-1,-1,0,0,0,0,0,0,GLOBAL_POSITION_INT,6354536,0,0,-2350,-2355,0,0,0,5628,RAW_IMU,2059569442,20,10,-991,-6,0,2,297,-448,231,0,4308,BATTERY_STATUS,0,0,0,32767,[65535, 65535, 65535, 65535, 65535, 65535, 65535, 65535, 65535, 65535],-1,-1,-1,100,0,0,[0, 0, 0, 0],0,0,HEARTBEAT,6,8,0,0,0,3
14.0744309425354,VFR_HUD,0.0,0.0,56,0,-2.3499999046325684,-0.0,,,,,,,,,,,,,,,,AHRS,0.006801356095820665,0.0006000567227602005,-0.00183955323882401,0.0,0.0,0.0004271069774404168,0.008256383240222931,GPS_RAW_INT,0,1,0,0,-17000,9999,9999,0,0,0,0,4294967295,4294967295,1000000,0,0,RC_CHANNELS,6354536,16,1502,1499,1004,1501,1000,1000,1501,1500,0,0,0,0,0,0,0,0,0,0,0,MISSION_CURRENT,0,SYS_STATUS,52485167,52461615,51413295,38,0,-1,-1,0,0,0,0,0,0,GLOBAL_POSITION_INT,6354536,0,0,-2350,-2355,0,0,0,5628,RAW_IMU,2059569442,20,10,-991,-6,0,2,297,-448,231,0,4308,BATTERY_STATUS,0,0,0,32767,[65535, 65535, 65535, 65535, 65535, 65535, 65535, 65535, 65535, 65535],-1,-1,-1,100,0,0,[0, 0, 0, 0],0,0,HEARTBEAT,6,8,0,0,0,3
14.124717712402344,VFR_HUD,0.0,0.0,56,0,-2.3499999046325684,-0.0,,,,,,,,,,,,,,,,AHRS,0.006801356095820665,0.0006000567227602005,-0.00183955323882401,0.0,0.0,0.0004271069774404168,0.008256383240222931,GPS_RAW_INT,0,1,0,0,-17000,9999,9999,0,0,0,0,4294967295,4294967295,1000000,0,0,RC_CHANNELS,6354536,16,1502,1499,1004,1501,1000,1000,1501,1500,0,0,0,0,0,0,0,0,0,0,0,MISSION_CURRENT,0,SYS_STATUS,52485167,52461615,51413295,38,0,-1,-1,0,0,0,0,0,0,GLOBAL_POSITION_INT,6354536,0,0,-2350,-2355,0,0,0,5628,RAW_IMU,2059569442,20,10,-991,-6,0,2,297,-448,231,0,4308,BATTERY_STATUS,0,0,0,32767,[65535, 65535, 65535, 65535, 65535, 65535, 65535, 65535, 65535, 65535],-1,-1,-1,100,0,0,[0, 0, 0, 0],0,0,HEARTBEAT,6,8,0,0,0,3
14.174991130828857,VFR_HUD,0.0,0.0,56,0,-2.3499999046325684,-0.0,,,,,,,,,,,,,,,,AHRS,0.006801356095820665,0.0006000567227602005,-0.00183955323882401,0.0,0.0,0.0004271069774404168,0.008256383240222931,GPS_RAW_INT,0,1,0,0,-17000,9999,9999,0,0,0,0,4294967295,4294967295,1000000,0,0,RC_CHANNELS,6354536,16,1502,1499,1004,1501,1000,1000,1501,1500,0,0,0,0,0,0,0,0,0,0,0,MISSION_CURRENT,0,SYS_STATUS,52485167,52461615,51413295,38,0,-1,-1,0,0,0,0,0,0,GLOBAL_POSITION_INT,6354536,0,0,-2350,-2355,0,0,0,5628,RAW_IMU,2059569442,20,10,-991,-6,0,2,297,-448,231,0,4308,BATTERY_STATUS,0,0,0,32767,[65535, 65535, 65535, 65535, 65535, 65535, 65535, 65535, 65535, 65535],-1,-1,-1,100,0,0,[0, 0, 0, 0],0,0,HEARTBEAT,6,8,0,0,0,3
14.22533369064331,VFR_HUD,0.0,0.0,56,0,-2.3499999046325684,-0.0,,,,,,,,,,,,,,,,AHRS,0.006801356095820665,0.0006000567227602005,-0.00183955323882401,0.0,0.0,0.0004271069774404168,0.008256383240222931,GPS_RAW_INT,0,1,0,0,-17000,9999,9999,0,0,0,0,4294967295,4294967295,1000000,0,0,RC_CHANNELS,6354536,16,1502,1499,1004,1501,1000,1000,1501,1500,0,0,0,0,0,0,0,0,0,0,0,MISSION_CURRENT,0,SYS_STATUS,52485167,52461615,51413295,38,0,-1,-1,0,0,0,0,0,0,GLOBAL_POSITION_INT,6354536,0,0,-2350,-2355,0,0,0,5628,RAW_IMU,2059569442,20,10,-991,-6,0,2,297,-448,231,0,4308,BATTERY_STATUS,0,0,0,32767,[65535, 65535, 65535, 65535, 65535, 65535, 65535, 65535, 65535, 65535],-1,-1,-1,100,0,0,[0, 0, 0, 0],0,0,HEARTBEAT,6,8,0,0,0,3
