Time (s);TMP117 Temp (C);mavpackettype;airspeed;groundspeed;heading;throttle;alt;climb;mavpackettype;omegaIx;omegaIy;omegaIz;accel_weight;renorm_val;error_rp;error_yaw;mavpackettype;time_usec;fix_type;lat;lon;alt;eph;epv;vel;cog;satellites_visible;alt_allipsoid;h_acc;v_acc;vel_acc;hdg_acc;yaw;mavpackettype;time_boot_ms;chancount;chan1_raw;chan2_raw;chan3_raw;chan4_raw;chan5_raw;chan6_raw;chan7_raw;chan8_raw;chan9_raw;chan10_raw;chan11_raw;chan12_raw;chan13_raw;chan14_raw;chan15_raw;chan16_raw;chan17_raw;chan18_raw;rssi;mavpackettype;seq;mavpackettype;onboard_control_sensors_present;onboard_control_sensors_enabled;onboard_control_sensors_health;load;voltage_battery;current_battery;battery_remaining;drop_rate_comm;errors_comm;errors_count1;errors_count2;errors_count3;errors_count4;mavpackettype;time_boot_ms;lat;lon;alt;relative_alt;vx;vy;vz;hdg;mavpackettype;time_usec;xacc;yacc;zacc;xgyro;ygyro;zgyro;xmag;ymag;zmag;mavpackettype;id;battery_function;type;temperature;voltages;current_battery;current_consumed;energy_consumed;battery_remaining;mavpackettype;type;autopilot;base_mode;custom_mode;system_status;mavlink_version
36.95422649383545;20.7890625;VFR_HUD;0.0;0.23043999075889587;55;0;0.23999999463558197;-0.03900240361690521;AHRS;0.002822466194629669;-0.0013748708879575133;-7.630486652487889e-05;0.0;0.0;0.00067428796319291;0.004545426927506924;GPS_RAW_INT;0;1;0;0;-17000;9999;9999;0;0;0;RC_CHANNELS;786645;16;0;0;0;0;0;0;0;0;0;0;0;0;0;0;0;0;0;0;0;MISSION_CURRENT;0;SYS_STATUS;52485167;52461615;53510447;35;0;-1;-1;0;0;0;0;0;0;GLOBAL_POSITION_INT;786645;0;0;240;248;17;-14;3;5547;RAW_IMU;786645729;20;15;-1000;-3;0;0;295;-451;270;BATTERY_STATUS;0;0;0;32767;[65535, 65535, 65535, 65535, 65535, 65535, 65535, 65535, 65535, 65535];-1;-1;-1;100;HEARTBEAT;10;3;193;0;5;3
0.15099835395812988;20.796875;VFR_HUD;0.0;0.2658439874649048;55;0;0.07000000029802322;-0.013603425584733486;AHRS;0.002823666436597705;-0.0013747247867286205;-7.554680632892996e-05;0.0;0.0;0.0006473729736171663;0.005319027230143547;GPS_RAW_INT;0;1;0;0;-17000;9999;9999;0;0;0;RC_CHANNELS;787645;16;0;0;0;0;0;0;0;0;0;0;0;0;0;0;0;0;0;0;0;MISSION_CURRENT;0;SYS_STATUS;52485167;52461615;53510447;34;0;-1;-1;0;0;0;0;0;0;GLOBAL_POSITION_INT;787645;0;0;70;72;20;-17;1;5549;RAW_IMU;787645733;20;14;-1000;-3;1;0;294;-453;267;BATTERY_STATUS;0;0;0;32767;[65535, 65535, 65535, 65535, 65535, 65535, 65535, 65535, 65535, 65535];-1;-1;-1;100;HEARTBEAT;6;8;0;0;0;3
0.32823824882507324;20.796875;VFR_HUD;0.0;0.2658439874649048;55;0;0.07000000029802322;-0.013603425584733486;AHRS;0.002823666436597705;-0.0013747247867286205;-7.554680632892996e-05;0.0;0.0;0.0006473729736171663;0.005319027230143547;GPS_RAW_INT;0;1;0;0;-17000;9999;9999;0;0;0;RC_CHANNELS;787645;16;0;0;0;0;0;0;0;0;0;0;0;0;0;0;0;0;0;0;0;MISSION_CURRENT;0;SYS_STATUS;52485167;52461615;53510447;34;0;-1;-1;0;0;0;0;0;0;GLOBAL_POSITION_INT;787645;0;0;70;72;20;-17;1;5549;RAW_IMU;787645733;20;14;-1000;-3;1;0;294;-453;267;BATTERY_STATUS;0;0;0;32767;[65535, 65535, 65535, 65535, 65535, 65535, 65535, 65535, 65535, 65535];-1;-1;-1;100;HEARTBEAT;6;8;0;0;0;3
0.5495531558990479;20.796875;VFR_HUD;0.0;0.2658439874649048;55;0;0.07000000029802322;-0.013603425584733486;AHRS;0.002823666436597705;-0.0013747247867286205;-7.554680632892996e-05;0.0;0.0;0.0006473729736171663;0.005319027230143547;GPS_RAW_INT;0;1;0;0;-17000;9999;9999;0;0;0;RC_CHANNELS;787645;16;0;0;0;0;0;0;0;0;0;0;0;0;0;0;0;0;0;0;0;MISSION_CURRENT;0;SYS_STATUS;52485167;52461615;53510447;34;0;-1;-1;0;0;0;0;0;0;GLOBAL_POSITION_INT;787645;0;0;70;72;20;-17;1;5549;RAW_IMU;787645733;20;14;-1000;-3;1;0;294;-453;267;BATTERY_STATUS;0;0;0;32767;[65535, 65535, 65535, 65535, 65535, 65535, 65535, 65535, 65535, 65535];-1;-1;-1;100;HEARTBEAT;6;8;0;0;0;3
0.739856481552124;20.796875;VFR_HUD;0.0;0.2658439874649048;55;0;0.07000000029802322;-0.013603425584733486;AHRS;0.002823666436597705;-0.0013747247867286205;-7.554680632892996e-05;0.0;0.0;0.0006473729736171663;0.005319027230143547;GPS_RAW_INT;0;1;0;0;-17000;9999;9999;0;0;0;RC_CHANNELS;787645;16;0;0;0;0;0;0;0;0;0;0;0;0;0;0;0;0;0;0;0;MISSION_CURRENT;0;SYS_STATUS;52485167;52461615;53510447;34;0;-1;-1;0;0;0;0;0;0;GLOBAL_POSITION_INT;787645;0;0;70;72;20;-17;1;5549;RAW_IMU;787645733;20;14;-1000;-3;1;0;294;-453;267;BATTERY_STATUS;0;0;0;32767;[65535, 65535, 65535, 65535, 65535, 65535, 65535, 65535, 65535, 65535];-1;-1;-1;100;HEARTBEAT;6;8;0;0;0;3
0.9331541061401367;20.796875;VFR_HUD;0.0;0.2658439874649048;55;0;0.07000000029802322;-0.013603425584733486;AHRS;0.002823666436597705;-0.0013747247867286205;-7.554680632892996e-05;0.0;0.0;0.0006473729736171663;0.005319027230143547;GPS_RAW_INT;0;1;0;0;-17000;9999;9999;0;0;0;RC_CHANNELS;787645;16;0;0;0;0;0;0;0;0;0;0;0;0;0;0;0;0;0;0;0;MISSION_CURRENT;0;SYS_STATUS;52485167;52461615;53510447;34;0;-1;-1;0;0;0;0;0;0;GLOBAL_POSITION_INT;787645;0;0;70;72;20;-17;1;5549;RAW_IMU;787645733;20;14;-1000;-3;1;0;294;-453;267;BATTERY_STATUS;0;0;0;32767;[65535, 65535, 65535, 65535, 65535, 65535, 65535, 65535, 65535, 65535];-1;-1;-1;100;HEARTBEAT;10;3;193;0;5;3
1.0988447666168213;20.796875;VFR_HUD;0.0;0.2832092344760895;55;0;-0.14000000059604645;0.0005655525019392371;AHRS;0.0028261865954846144;-0.0013749129138886929;-7.480193744413555e-05;0.0;0.0;0.0007375051500275731;0.004059433471411467;GPS_RAW_INT;0;1;0;0;-17000;9999;9999;0;0;0;RC_CHANNELS;788645;16;0;0;0;0;0;0;0;0;0;0;0;0;0;0;0;0;0;0;0;MISSION_CURRENT;0;SYS_STATUS;52485167;52461615;53510447;34;0;-1;-1;0;0;0;0;0;0;GLOBAL_POSITION_INT;788645;0;0;-140;-145;21;-18;0;5551;RAW_IMU;788645717;19;14;-999;-3;1;0;297;-452;270;BATTERY_STATUS;0;0;0;32767;[65535, 65535, 65535, 65535, 65535, 65535, 65535, 65535, 65535, 65535];-1;-1;-1;100;HEARTBEAT;6;8;0;0;0;3
1.3420298099517822;20.796875;VFR_HUD;0.0;0.2832092344760895;55;0;-0.14000000059604645;0.0005655525019392371;AHRS;0.0028261865954846144;-0.0013749129138886929;-7.480193744413555e-05;0.0;0.0;0.0007375051500275731;0.004059433471411467;GPS_RAW_INT;0;1;0;0;-17000;9999;9999;0;0;0;RC_CHANNELS;788645;16;0;0;0;0;0;0;0;0;0;0;0;0;0;0;0;0;0;0;0;MISSION_CURRENT;0;SYS_STATUS;52485167;52461615;53510447;34;0;-1;-1;0;0;0;0;0;0;GLOBAL_POSITION_INT;788645;0;0;-140;-145;21;-18;0;5551;RAW_IMU;788645717;19;14;-999;-3;1;0;297;-452;270;BATTERY_STATUS;0;0;0;32767;[65535, 65535, 65535, 65535, 65535, 65535, 65535, 65535, 65535, 65535];-1;-1;-1;100;HEARTBEAT;6;8;0;0;0;3
1.5508837699890137;20.796875;VFR_HUD;0.0;0.2832092344760895;55;0;-0.14000000059604645;0.0005655525019392371;AHRS;0.0028261865954846144;-0.0013749129138886929;-7.480193744413555e-05;0.0;0.0;0.0007375051500275731;0.004059433471411467;GPS_RAW_INT;0;1;0;0;-17000;9999;9999;0;0;0;RC_CHANNELS;788645;16;0;0;0;0;0;0;0;0;0;0;0;0;0;0;0;0;0;0;0;MISSION_CURRENT;0;SYS_STATUS;52485167;52461615;53510447;34;0;-1;-1;0;0;0;0;0;0;GLOBAL_POSITION_INT;788645;0;0;-140;-145;21;-18;0;5551;RAW_IMU;788645717;19;14;-999;-3;1;0;297;-452;270;BATTERY_STATUS;0;0;0;32767;[65535, 65535, 65535, 65535, 65535, 65535, 65535, 65535, 65535, 65535];-1;-1;-1;100;HEARTBEAT;6;8;0;0;0;3
1.7215123176574707;20.796875;VFR_HUD;0.0;0.2832092344760895;55;0;-0.14000000059604645;0.0005655525019392371;AHRS;0.0028261865954846144;-0.0013749129138886929;-7.480193744413555e-05;0.0;0.0;0.0007375051500275731;0.004059433471411467;GPS_RAW_INT;0;1;0;0;-17000;9999;9999;0;0;0;RC_CHANNELS;788645;16;0;0;0;0;0;0;0;0;0;0;0;0;0;0;0;0;0;0;0;MISSION_CURRENT;0;SYS_STATUS;52485167;52461615;53510447;34;0;-1;-1;0;0;0;0;0;0;GLOBAL_POSITION_INT;788645;0;0;-140;-145;21;-18;0;5551;RAW_IMU;788645717;19;14;-999;-3;1;0;297;-452;270;BATTERY_STATUS;0;0;0;32767;[65535, 65535, 65535, 65535, 65535, 65535, 65535, 65535, 65535, 65535];-1;-1;-1;100;HEARTBEAT;6;8;0;0;0;3
2.027866840362549;20.796875;VFR_HUD;0.0;0.2844999432563782;55;0;-0.4599999785423279;-0.018549522385001183;AHRS;0.0028261865954846144;-0.0013749129138886929;-7.480193744413555e-05;0.0;0.0;0.0007375051500275731;0.004059433471411467;GPS_RAW_INT;0;1;0;0;-17000;9999;9999;0;0;0;RC_CHANNELS;789645;16;0;0;0;0;0;0;0;0;0;0;0;0;0;0;0;0;0;0;0;MISSION_CURRENT;0;SYS_STATUS;52485167;52461615;53510447;36;0;-1;-1;0;0;0;0;0;0;GLOBAL_POSITION_INT;789645;0;0;-460;-463;21;-18;1;5552;RAW_IMU;789645768;20;15;-998;-3;1;0;298;-450;279;BATTERY_STATUS;0;0;0;32767;[65535, 65535, 65535, 65535, 65535, 65535, 65535, 65535, 65535, 65535];-1;-1;-1;100;HEARTBEAT;10;3;193;0;5;3
2.132545232772827;20.8046875;VFR_HUD;0.0;0.2844999432563782;55;0;-0.4599999785423279;-0.018549522385001183;AHRS;0.002828866709023714;-0.0013750367797911167;-7.423687202390283e-05;0.0;0.0;0.0007374141132459044;0.0031825730111449957;GPS_RAW_INT;0;1;0;0;-17000;9999;9999;0;0;0;RC_CHANNELS;789645;16;0;0;0;0;0;0;0;0;0;0;0;0;0;0;0;0;0;0;0;MISSION_CURRENT;0;SYS_STATUS;52485167;52461615;53510447;36;0;-1;-1;0;0;0;0;0;0;GLOBAL_POSITION_INT;789645;0;0;-460;-463;21;-18;1;5552;RAW_IMU;789645768;20;15;-998;-3;1;0;298;-450;279;BATTERY_STATUS;0;0;0;32767;[65535, 65535, 65535, 65535, 65535, 65535, 65535, 65535, 65535, 65535];-1;-1;-1;100;HEARTBEAT;6;8;0;0;0;3
2.2905373573303223;20.7890625;VFR_HUD;0.0;0.2844999432563782;55;0;-0.4599999785423279;-0.018549522385001183;AHRS;0.002828866709023714;-0.0013750367797911167;-7.423687202390283e-05;0.0;0.0;0.0007374141132459044;0.0031825730111449957;GPS_RAW_INT;0;1;0;0;-17000;9999;9999;0;0;0;RC_CHANNELS;789645;16;0;0;0;0;0;0;0;0;0;0;0;0;0;0;0;0;0;0;0;MISSION_CURRENT;0;SYS_STATUS;52485167;52461615;53510447;36;0;-1;-1;0;0;0;0;0;0;GLOBAL_POSITION_INT;789645;0;0;-460;-463;21;-18;1;5552;RAW_IMU;789645768;20;15;-998;-3;1;0;298;-450;279;BATTERY_STATUS;0;0;0;32767;[65535, 65535, 65535, 65535, 65535, 65535, 65535, 65535, 65535, 65535];-1;-1;-1;100;HEARTBEAT;6;8;0;0;0;3
2.6266603469848633;20.796875;VFR_HUD;0.0;0.2844999432563782;55;0;-0.4599999785423279;-0.018549522385001183;AHRS;0.002828866709023714;-0.0013750367797911167;-7.423687202390283e-05;0.0;0.0;0.0007374141132459044;0.0031825730111449957;GPS_RAW_INT;0;1;0;0;-17000;9999;9999;0;0;0;RC_CHANNELS;789645;16;0;0;0;0;0;0;0;0;0;0;0;0;0;0;0;0;0;0;0;MISSION_CURRENT;0;SYS_STATUS;52485167;52461615;53510447;36;0;-1;-1;0;0;0;0;0;0;GLOBAL_POSITION_INT;789645;0;0;-460;-463;21;-18;1;5552;RAW_IMU;789645768;20;15;-998;-3;1;0;298;-450;279;BATTERY_STATUS;0;0;0;32767;[65535, 65535, 65535, 65535, 65535, 65535, 65535, 65535, 65535, 65535];-1;-1;-1;100;HEARTBEAT;6;8;0;0;0;3
2.7873568534851074;20.796875;VFR_HUD;0.0;0.2844999432563782;55;0;-0.4599999785423279;-0.018549522385001183;AHRS;0.002828866709023714;-0.0013750367797911167;-7.423687202390283e-05;0.0;0.0;0.0007374141132459044;0.0031825730111449957;GPS_RAW_INT;0;1;0;0;-17000;9999;9999;0;0;0;RC_CHANNELS;789645;16;0;0;0;0;0;0;0;0;0;0;0;0;0;0;0;0;0;0;0;MISSION_CURRENT;0;SYS_STATUS;52485167;52461615;53510447;36;0;-1;-1;0;0;0;0;0;0;GLOBAL_POSITION_INT;789645;0;0;-460;-463;21;-18;1;5552;RAW_IMU;789645768;20;15;-998;-3;1;0;298;-450;279;BATTERY_STATUS;0;0;0;32767;[65535, 65535, 65535, 65535, 65535, 65535, 65535, 65535, 65535, 65535];-1;-1;-1;100;HEARTBEAT;6;8;0;0;0;3
2.998715877532959;20.796875;VFR_HUD;0.0;0.28146129846572876;55;0;-0.2800000011920929;-0.054935138672590256;AHRS;0.0028314702212810516;-0.001375126768834889;-7.410970283672214e-05;0.0;0.0;0.0008749776752665639;0.0031183152459561825;GPS_RAW_INT;0;1;0;0;-17000;9999;9999;0;0;0;RC_CHANNELS;790645;16;0;0;0;0;0;0;0;0;0;0;0;0;0;0;0;0;0;0;0;MISSION_CURRENT;0;SYS_STATUS;52485167;52461615;53510447;36;0;-1;-1;0;0;0;0;0;0;GLOBAL_POSITION_INT;790645;0;0;-280;-285;21;-18;5;5553;RAW_IMU;790645718;19;15;-999;-3;0;0;295;-450;272;BATTERY_STATUS;0;0;0;32767;[65535, 65535, 65535, 65535, 65535, 65535, 65535, 65535, 65535, 65535];-1;-1;-1;100;HEARTBEAT;10;3;193;0;5;3
3.202199935913086;20.796875;VFR_HUD;0.0;0.28146129846572876;55;0;-0.2800000011920929;-0.054935138672590256;AHRS;0.0028314702212810516;-0.001375126768834889;-7.410970283672214e-05;0.0;0.0;0.0008749776752665639;0.0031183152459561825;GPS_RAW_INT;0;1;0;0;-17000;9999;9999;0;0;0;RC_CHANNELS;790645;16;0;0;0;0;0;0;0;0;0;0;0;0;0;0;0;0;0;0;0;MISSION_CURRENT;0;SYS_STATUS;52485167;52461615;53510447;36;0;-1;-1;0;0;0;0;0;0;GLOBAL_POSITION_INT;790645;0;0;-280;-285;21;-18;5;5553;RAW_IMU;790645718;19;15;-999;-3;0;0;295;-450;272;BATTERY_STATUS;0;0;0;32767;[65535, 65535, 65535, 65535, 65535, 65535, 65535, 65535, 65535, 65535];-1;-1;-1;100;HEARTBEAT;6;8;0;0;0;3
3.4465365409851074;20.796875;VFR_HUD;0.0;0.28146129846572876;55;0;-0.2800000011920929;-0.054935138672590256;AHRS;0.0028314702212810516;-0.001375126768834889;-7.410970283672214e-05;0.0;0.0;0.0008749776752665639;0.0031183152459561825;GPS_RAW_INT;0;1;0;0;-17000;9999;9999;0;0;0;RC_CHANNELS;790645;16;0;0;0;0;0;0;0;0;0;0;0;0;0;0;0;0;0;0;0;MISSION_CURRENT;0;SYS_STATUS;52485167;52461615;53510447;36;0;-1;-1;0;0;0;0;0;0;GLOBAL_POSITION_INT;790645;0;0;-280;-285;21;-18;5;5553;RAW_IMU;790645718;19;15;-999;-3;0;0;295;-450;272;BATTERY_STATUS;0;0;0;32767;[65535, 65535, 65535, 65535, 65535, 65535, 65535, 65535, 65535, 65535];-1;-1;-1;100;HEARTBEAT;6;8;0;0;0;3
3.523169755935669;20.796875;VFR_HUD;0.0;0.28146129846572876;55;0;-0.2800000011920929;-0.054935138672590256;AHRS;0.0028314702212810516;-0.001375126768834889;-7.410970283672214e-05;0.0;0.0;0.0008749776752665639;0.0031183152459561825;GPS_RAW_INT;0;1;0;0;-17000;9999;9999;0;0;0;RC_CHANNELS;790645;16;0;0;0;0;0;0;0;0;0;0;0;0;0;0;0;0;0;0;0;MISSION_CURRENT;0;SYS_STATUS;52485167;52461615;53510447;36;0;-1;-1;0;0;0;0;0;0;GLOBAL_POSITION_INT;790645;0;0;-280;-285;21;-18;5;5553;RAW_IMU;790645718;19;15;-999;-3;0;0;295;-450;272;BATTERY_STATUS;0;0;0;32767;[65535, 65535, 65535, 65535, 65535, 65535, 65535, 65535, 65535, 65535];-1;-1;-1;100;HEARTBEAT;6;8;0;0;0;3
3.817155361175537;20.7890625;VFR_HUD;0.0;0.28146129846572876;55;0;-0.2800000011920929;-0.054935138672590256;AHRS;0.0028314702212810516;-0.001375126768834889;-7.410970283672214e-05;0.0;0.0;0.0008749776752665639;0.0031183152459561825;GPS_RAW_INT;0;1;0;0;-17000;9999;9999;0;0;0;RC_CHANNELS;790645;16;0;0;0;0;0;0;0;0;0;0;0;0;0;0;0;0;0;0;0;MISSION_CURRENT;0;SYS_STATUS;52485167;52461615;53510447;36;0;-1;-1;0;0;0;0;0;0;GLOBAL_POSITION_INT;790645;0;0;-280;-285;21;-18;5;5553;RAW_IMU;790645718;19;15;-999;-3;0;0;295;-450;272;BATTERY_STATUS;0;0;0;32767;[65535, 65535, 65535, 65535, 65535, 65535, 65535, 65535, 65535, 65535];-1;-1;-1;100;HEARTBEAT;6;8;0;0;0;3
4.031049966812134;20.796875;VFR_HUD;0.0;0.27910661697387695;55;0;-0.3799999952316284;-0.07078669965267181;AHRS;0.002833738923072815;-0.0013751279329881072;-7.32717162463814e-05;0.0;0.0;0.0009138155728578568;0.005879932548850775;GPS_RAW_INT;0;1;0;0;-17000;9999;9999;0;0;0;RC_CHANNELS;791645;16;0;0;0;0;0;0;0;0;0;0;0;0;0;0;0;0;0;0;0;MISSION_CURRENT;0;SYS_STATUS;52485167;52461615;53510447;35;0;-1;-1;0;0;0;0;0;0;GLOBAL_POSITION_INT;791645;0;0;-380;-382;21;-17;7;5555;RAW_IMU;791645715;20;14;-999;-3;1;0;294;-454;271;BATTERY_STATUS;0;0;0;32767;[65535, 65535, 65535, 65535, 65535, 65535, 65535, 65535, 65535, 65535];-1;-1;-1;100;HEARTBEAT;10;3;193;0;5;3
4.209217548370361;20.796875;VFR_HUD;0.0;0.27910661697387695;55;0;-0.3799999952316284;-0.07078669965267181;AHRS;0.002833738923072815;-0.0013751279329881072;-7.32717162463814e-05;0.0;0.0;0.0009138155728578568;0.005879932548850775;GPS_RAW_INT;0;1;0;0;-17000;9999;9999;0;0;0;RC_CHANNELS;791645;16;0;0;0;0;0;0;0;0;0;0;0;0;0;0;0;0;0;0;0;MISSION_CURRENT;0;SYS_STATUS;52485167;52461615;53510447;35;0;-1;-1;0;0;0;0;0;0;GLOBAL_POSITION_INT;791645;0;0;-380;-382;21;-17;7;5555;RAW_IMU;791645715;20;14;-999;-3;1;0;294;-454;271;BATTERY_STATUS;0;0;0;32767;[65535, 65535, 65535, 65535, 65535, 65535, 65535, 65535, 65535, 65535];-1;-1;-1;100;HEARTBEAT;6;8;0;0;0;3
4.397763252258301;20.7890625;VFR_HUD;0.0;0.27910661697387695;55;0;-0.3799999952316284;-0.07078669965267181;AHRS;0.002833738923072815;-0.0013751279329881072;-7.32717162463814e-05;0.0;0.0;0.0009138155728578568;0.005879932548850775;GPS_RAW_INT;0;1;0;0;-17000;9999;9999;0;0;0;RC_CHANNELS;791645;16;0;0;0;0;0;0;0;0;0;0;0;0;0;0;0;0;0;0;0;MISSION_CURRENT;0;SYS_STATUS;52485167;52461615;53510447;35;0;-1;-1;0;0;0;0;0;0;GLOBAL_POSITION_INT;791645;0;0;-380;-382;21;-17;7;5555;RAW_IMU;791645715;20;14;-999;-3;1;0;294;-454;271;BATTERY_STATUS;0;0;0;32767;[65535, 65535, 65535, 65535, 65535, 65535, 65535, 65535, 65535, 65535];-1;-1;-1;100;HEARTBEAT;6;8;0;0;0;3
4.5795533657073975;20.796875;VFR_HUD;0.0;0.27910661697387695;55;0;-0.3799999952316284;-0.07078669965267181;AHRS;0.002833738923072815;-0.0013751279329881072;-7.32717162463814e-05;0.0;0.0;0.0009138155728578568;0.005879932548850775;GPS_RAW_INT;0;1;0;0;-17000;9999;9999;0;0;0;RC_CHANNELS;791645;16;0;0;0;0;0;0;0;0;0;0;0;0;0;0;0;0;0;0;0;MISSION_CURRENT;0;SYS_STATUS;52485167;52461615;53510447;35;0;-1;-1;0;0;0;0;0;0;GLOBAL_POSITION_INT;791645;0;0;-380;-382;21;-17;7;5555;RAW_IMU;791645715;20;14;-999;-3;1;0;294;-454;271;BATTERY_STATUS;0;0;0;32767;[65535, 65535, 65535, 65535, 65535, 65535, 65535, 65535, 65535, 65535];-1;-1;-1;100;HEARTBEAT;6;8;0;0;0;3
4.670427083969116;20.796875;VFR_HUD;0.0;0.27910661697387695;55;0;-0.3799999952316284;-0.07078669965267181;AHRS;0.002833738923072815;-0.0013751279329881072;-7.32717162463814e-05;0.0;0.0;0.0009138155728578568;0.005879932548850775;GPS_RAW_INT;0;1;0;0;-17000;9999;9999;0;0;0;RC_CHANNELS;791645;16;0;0;0;0;0;0;0;0;0;0;0;0;0;0;0;0;0;0;0;MISSION_CURRENT;0;SYS_STATUS;52485167;52461615;53510447;35;0;-1;-1;0;0;0;0;0;0;GLOBAL_POSITION_INT;791645;0;0;-380;-382;21;-17;7;5555;RAW_IMU;791645715;20;14;-999;-3;1;0;294;-454;271;BATTERY_STATUS;0;0;0;32767;[65535, 65535, 65535, 65535, 65535, 65535, 65535, 65535, 65535, 65535];-1;-1;-1;100;HEARTBEAT;6;8;0;0;0;3
5.007132291793823;20.796875;VFR_HUD;0.0;0.2844924330711365;55;0;-0.29999998211860657;-0.07909635454416275;AHRS;0.002835814608260989;-0.001375103835016489;-7.23512566764839e-05;0.0;0.0;0.0008672156254760921;0.00647315289825201;GPS_RAW_INT;0;1;0;0;-17000;9999;9999;0;0;0;RC_CHANNELS;792645;16;0;0;0;0;0;0;0;0;0;0;0;0;0;0;0;0;0;0;0;MISSION_CURRENT;0;SYS_STATUS;52485167;52461615;53510447;34;0;-1;-1;0;0;0;0;0;0;GLOBAL_POSITION_INT;792645;0;0;-300;-307;22;-17;7;5558;RAW_IMU;792645711;20;14;-998;-3;1;0;301;-450;267;BATTERY_STATUS;0;0;0;32767;[65535, 65535, 65535, 65535, 65535, 65535, 65535, 65535, 65535, 65535];-1;-1;-1;100;HEARTBEAT;10;3;193;0;5;3
5.195047855377197;20.796875;VFR_HUD;0.0;0.2844924330711365;55;0;-0.29999998211860657;-0.07909635454416275;AHRS;0.002835814608260989;-0.001375103835016489;-7.23512566764839e-05;0.0;0.0;0.0008672156254760921;0.00647315289825201;GPS_RAW_INT;0;1;0;0;-17000;9999;9999;0;0;0;RC_CHANNELS;792645;16;0;0;0;0;0;0;0;0;0;0;0;0;0;0;0;0;0;0;0;MISSION_CURRENT;0;SYS_STATUS;52485167;52461615;53510447;34;0;-1;-1;0;0;0;0;0;0;GLOBAL_POSITION_INT;792645;0;0;-300;-307;22;-17;7;5558;RAW_IMU;792645711;20;14;-998;-3;1;0;301;-450;267;BATTERY_STATUS;0;0;0;32767;[65535, 65535, 65535, 65535, 65535, 65535, 65535, 65535, 65535, 65535];-1;-1;-1;100;HEARTBEAT;6;8;0;0;0;3
5.419559001922607;20.8046875;VFR_HUD;0.0;0.2844924330711365;55;0;-0.29999998211860657;-0.07909635454416275;AHRS;0.002835814608260989;-0.001375103835016489;-7.23512566764839e-05;0.0;0.0;0.0008672156254760921;0.00647315289825201;GPS_RAW_INT;0;1;0;0;-17000;9999;9999;0;0;0;RC_CHANNELS;792645;16;0;0;0;0;0;0;0;0;0;0;0;0;0;0;0;0;0;0;0;MISSION_CURRENT;0;SYS_STATUS;52485167;52461615;53510447;34;0;-1;-1;0;0;0;0;0;0;GLOBAL_POSITION_INT;792645;0;0;-300;-307;22;-17;7;5558;RAW_IMU;792645711;20;14;-998;-3;1;0;301;-450;267;BATTERY_STATUS;0;0;0;32767;[65535, 65535, 65535, 65535, 65535, 65535, 65535, 65535, 65535, 65535];-1;-1;-1;100;HEARTBEAT;6;8;0;0;0;3
5.679555416107178;20.796875;VFR_HUD;0.0;0.2844924330711365;55;0;-0.29999998211860657;-0.07909635454416275;AHRS;0.002835814608260989;-0.001375103835016489;-7.23512566764839e-05;0.0;0.0;0.0008672156254760921;0.00647315289825201;GPS_RAW_INT;0;1;0;0;-17000;9999;9999;0;0;0;RC_CHANNELS;792645;16;0;0;0;0;0;0;0;0;0;0;0;0;0;0;0;0;0;0;0;MISSION_CURRENT;0;SYS_STATUS;52485167;52461615;53510447;34;0;-1;-1;0;0;0;0;0;0;GLOBAL_POSITION_INT;792645;0;0;-300;-307;22;-17;7;5558;RAW_IMU;792645711;20;14;-998;-3;1;0;301;-450;267;BATTERY_STATUS;0;0;0;32767;[65535, 65535, 65535, 65535, 65535, 65535, 65535, 65535, 65535, 65535];-1;-1;-1;100;HEARTBEAT;6;8;0;0;0;3
5.749041318893433;20.796875;VFR_HUD;0.0;0.2844924330711365;55;0;-0.29999998211860657;-0.07909635454416275;AHRS;0.002835814608260989;-0.001375103835016489;-7.23512566764839e-05;0.0;0.0;0.0008672156254760921;0.00647315289825201;GPS_RAW_INT;0;1;0;0;-17000;9999;9999;0;0;0;RC_CHANNELS;792645;16;0;0;0;0;0;0;0;0;0;0;0;0;0;0;0;0;0;0;0;MISSION_CURRENT;0;SYS_STATUS;52485167;52461615;53510447;34;0;-1;-1;0;0;0;0;0;0;GLOBAL_POSITION_INT;792645;0;0;-300;-307;22;-17;7;5558;RAW_IMU;792645711;20;14;-998;-3;1;0;301;-450;267;BATTERY_STATUS;0;0;0;32767;[65535, 65535, 65535, 65535, 65535, 65535, 65535, 65535, 65535, 65535];-1;-1;-1;100;HEARTBEAT;6;8;0;0;0;3
6.075903415679932;20.796875;VFR_HUD;0.0;0.29082122445106506;55;0;0.0;-0.07163460552692413;AHRS;0.0028407941572368145;-0.0013765027979388833;-7.201753760455176e-05;0.0;0.0;0.0007331605884246528;0.002771304687485099;GPS_RAW_INT;0;1;0;0;-17000;9999;9999;0;0;0;RC_CHANNELS;793645;16;0;0;0;0;0;0;0;0;0;0;0;0;0;0;0;0;0;0;0;MISSION_CURRENT;0;SYS_STATUS;52485167;52461615;53510447;34;0;-1;-1;0;0;0;0;0;0;GLOBAL_POSITION_INT;793645;0;0;0;-5;22;-18;7;5558;RAW_IMU;793645709;20;15;-998;-3;1;0;296;-451;270;BATTERY_STATUS;0;0;0;32767;[65535, 65535, 65535, 65535, 65535, 65535, 65535, 65535, 65535, 65535];-1;-1;-1;100;HEARTBEAT;10;3;193;0;5;3
6.266987085342407;20.796875;VFR_HUD;0.0;0.29082122445106506;55;0;0.0;-0.07163460552692413;AHRS;0.0028407941572368145;-0.0013765027979388833;-7.201753760455176e-05;0.0;0.0;0.0007331605884246528;0.002771304687485099;GPS_RAW_INT;0;1;0;0;-17000;9999;9999;0;0;0;RC_CHANNELS;793645;16;0;0;0;0;0;0;0;0;0;0;0;0;0;0;0;0;0;0;0;MISSION_CURRENT;0;SYS_STATUS;52485167;52461615;53510447;34;0;-1;-1;0;0;0;0;0;0;GLOBAL_POSITION_INT;793645;0;0;0;-5;22;-18;7;5558;RAW_IMU;793645709;20;15;-998;-3;1;0;296;-451;270;BATTERY_STATUS;0;0;0;32767;[65535, 65535, 65535, 65535, 65535, 65535, 65535, 65535, 65535, 65535];-1;-1;-1;100;HEARTBEAT;6;8;0;0;0;3
6.330425977706909;20.796875;VFR_HUD;0.0;0.29082122445106506;55;0;0.0;-0.07163460552692413;AHRS;0.0028407941572368145;-0.0013765027979388833;-7.201753760455176e-05;0.0;0.0;0.0007331605884246528;0.002771304687485099;GPS_RAW_INT;0;1;0;0;-17000;9999;9999;0;0;0;RC_CHANNELS;793645;16;0;0;0;0;0;0;0;0;0;0;0;0;0;0;0;0;0;0;0;MISSION_CURRENT;0;SYS_STATUS;52485167;52461615;53510447;34;0;-1;-1;0;0;0;0;0;0;GLOBAL_POSITION_INT;793645;0;0;0;-5;22;-18;7;5558;RAW_IMU;793645709;20;15;-998;-3;1;0;296;-451;270;BATTERY_STATUS;0;0;0;32767;[65535, 65535, 65535, 65535, 65535, 65535, 65535, 65535, 65535, 65535];-1;-1;-1;100;HEARTBEAT;6;8;0;0;0;3
6.6093995571136475;20.7890625;VFR_HUD;0.0;0.29082122445106506;55;0;0.0;-0.07163460552692413;AHRS;0.0028407941572368145;-0.0013765027979388833;-7.201753760455176e-05;0.0;0.0;0.0007331605884246528;0.002771304687485099;GPS_RAW_INT;0;1;0;0;-17000;9999;9999;0;0;0;RC_CHANNELS;793645;16;0;0;0;0;0;0;0;0;0;0;0;0;0;0;0;0;0;0;0;MISSION_CURRENT;0;SYS_STATUS;52485167;52461615;53510447;34;0;-1;-1;0;0;0;0;0;0;GLOBAL_POSITION_INT;793645;0;0;0;-5;22;-18;7;5558;RAW_IMU;793645709;20;15;-998;-3;1;0;296;-451;270;BATTERY_STATUS;0;0;0;32767;[65535, 65535, 65535, 65535, 65535, 65535, 65535, 65535, 65535, 65535];-1;-1;-1;100;HEARTBEAT;6;8;0;0;0;3
6.84956431388855;20.7890625;VFR_HUD;0.0;0.29082122445106506;55;0;0.0;-0.07163460552692413;AHRS;0.0028407941572368145;-0.0013765027979388833;-7.201753760455176e-05;0.0;0.0;0.0007331605884246528;0.002771304687485099;GPS_RAW_INT;0;1;0;0;-17000;9999;9999;0;0;0;RC_CHANNELS;793645;16;0;0;0;0;0;0;0;0;0;0;0;0;0;0;0;0;0;0;0;MISSION_CURRENT;0;SYS_STATUS;52485167;52461615;53510447;34;0;-1;-1;0;0;0;0;0;0;GLOBAL_POSITION_INT;793645;0;0;0;-5;22;-18;7;5558;RAW_IMU;793645709;20;15;-998;-3;1;0;296;-451;270;BATTERY_STATUS;0;0;0;32767;[65535, 65535, 65535, 65535, 65535, 65535, 65535, 65535, 65535, 65535];-1;-1;-1;100;HEARTBEAT;6;8;0;0;0;3
7.007002115249634;20.8046875;VFR_HUD;0.0;0.30154895782470703;55;0;-0.4699999988079071;-0.06608929485082626;AHRS;0.0028429748490452766;-0.0013765477342531085;-7.157140498748049e-05;0.0;0.0;0.0006987070082686841;0.003101009177044034;GPS_RAW_INT;0;1;0;0;-17000;9999;9999;0;0;0;RC_CHANNELS;794645;16;0;0;0;0;0;0;0;0;0;0;0;0;0;0;0;0;0;0;0;MISSION_CURRENT;0;SYS_STATUS;52485167;52461615;53510447;34;0;-1;-1;0;0;0;0;0;0;GLOBAL_POSITION_INT;794645;0;0;-470;-479;23;-18;6;5560;RAW_IMU;794645716;20;15;-999;-3;1;0;297;-454;265;BATTERY_STATUS;0;0;0;32767;[65535, 65535, 65535, 65535, 65535, 65535, 65535, 65535, 65535, 65535];-1;-1;-1;100;HEARTBEAT;10;3;193;0;5;3
7.3005571365356445;20.796875;VFR_HUD;0.0;0.30154895782470703;55;0;-0.4699999988079071;-0.06608929485082626;AHRS;0.0028429748490452766;-0.0013765477342531085;-7.157140498748049e-05;0.0;0.0;0.0006987070082686841;0.003101009177044034;GPS_RAW_INT;0;1;0;0;-17000;9999;9999;0;0;0;RC_CHANNELS;794645;16;0;0;0;0;0;0;0;0;0;0;0;0;0;0;0;0;0;0;0;MISSION_CURRENT;0;SYS_STATUS;52485167;52461615;53510447;34;0;-1;-1;0;0;0;0;0;0;GLOBAL_POSITION_INT;794645;0;0;-470;-479;23;-18;6;5560;RAW_IMU;794645716;20;15;-999;-3;1;0;297;-454;265;BATTERY_STATUS;0;0;0;32767;[65535, 65535, 65535, 65535, 65535, 65535, 65535, 65535, 65535, 65535];-1;-1;-1;100;HEARTBEAT;6;8;0;0;0;3
7.447723865509033;20.8046875;VFR_HUD;0.0;0.30154895782470703;55;0;-0.4699999988079071;-0.06608929485082626;AHRS;0.0028429748490452766;-0.0013765477342531085;-7.157140498748049e-05;0.0;0.0;0.0006987070082686841;0.003101009177044034;GPS_RAW_INT;0;1;0;0;-17000;9999;9999;0;0;0;RC_CHANNELS;794645;16;0;0;0;0;0;0;0;0;0;0;0;0;0;0;0;0;0;0;0;MISSION_CURRENT;0;SYS_STATUS;52485167;52461615;53510447;34;0;-1;-1;0;0;0;0;0;0;GLOBAL_POSITION_INT;794645;0;0;-470;-479;23;-18;6;5560;RAW_IMU;794645716;20;15;-999;-3;1;0;297;-454;265;BATTERY_STATUS;0;0;0;32767;[65535, 65535, 65535, 65535, 65535, 65535, 65535, 65535, 65535, 65535];-1;-1;-1;100;HEARTBEAT;6;8;0;0;0;3
7.67955470085144;20.796875;VFR_HUD;0.0;0.30154895782470703;55;0;-0.4699999988079071;-0.06608929485082626;AHRS;0.0028429748490452766;-0.0013765477342531085;-7.157140498748049e-05;0.0;0.0;0.0006987070082686841;0.003101009177044034;GPS_RAW_INT;0;1;0;0;-17000;9999;9999;0;0;0;RC_CHANNELS;794645;16;0;0;0;0;0;0;0;0;0;0;0;0;0;0;0;0;0;0;0;MISSION_CURRENT;0;SYS_STATUS;52485167;52461615;53510447;34;0;-1;-1;0;0;0;0;0;0;GLOBAL_POSITION_INT;794645;0;0;-470;-479;23;-18;6;5560;RAW_IMU;794645716;20;15;-999;-3;1;0;297;-454;265;BATTERY_STATUS;0;0;0;32767;[65535, 65535, 65535, 65535, 65535, 65535, 65535, 65535, 65535, 65535];-1;-1;-1;100;HEARTBEAT;6;8;0;0;0;3
7.922365188598633;20.796875;VFR_HUD;0.0;0.30154895782470703;55;0;-0.4699999988079071;-0.06608929485082626;AHRS;0.0028429748490452766;-0.0013765477342531085;-7.157140498748049e-05;0.0;0.0;0.0006987070082686841;0.003101009177044034;GPS_RAW_INT;0;1;0;0;-17000;9999;9999;0;0;0;RC_CHANNELS;794645;16;0;0;0;0;0;0;0;0;0;0;0;0;0;0;0;0;0;0;0;MISSION_CURRENT;0;SYS_STATUS;52485167;52461615;53510447;34;0;-1;-1;0;0;0;0;0;0;GLOBAL_POSITION_INT;794645;0;0;-470;-479;23;-18;6;5560;RAW_IMU;794645716;20;15;-999;-3;1;0;297;-454;265;BATTERY_STATUS;0;0;0;32767;[65535, 65535, 65535, 65535, 65535, 65535, 65535, 65535, 65535, 65535];-1;-1;-1;100;HEARTBEAT;6;8;0;0;0;3
8.100354671478271;20.796875;VFR_HUD;0.0;0.31193631887435913;55;0;-0.2800000011920929;-0.07721330225467682;AHRS;0.002845247508957982;-0.0013766135089099407;-7.111631566658616e-05;0.0;0.0;0.0005738111794926226;0.0019889064133167267;GPS_RAW_INT;0;1;0;0;-17000;9999;9999;0;0;0;RC_CHANNELS;795645;16;0;0;0;0;0;0;0;0;0;0;0;0;0;0;0;0;0;0;0;MISSION_CURRENT;0;SYS_STATUS;52485167;52461615;53510447;34;0;-1;-1;0;0;0;0;0;0;GLOBAL_POSITION_INT;795645;0;0;-280;-285;24;-19;7;5561;RAW_IMU;795645704;19;14;-998;-3;1;0;295;-453;275;BATTERY_STATUS;0;0;0;32767;[65535, 65535, 65535, 65535, 65535, 65535, 65535, 65535, 65535, 65535];-1;-1;-1;100;HEARTBEAT;6;8;0;0;0;3
8.267733335494995;20.796875;VFR_HUD;0.0;0.31193631887435913;55;0;-0.2800000011920929;-0.07721330225467682;AHRS;0.002845247508957982;-0.0013766135089099407;-7.111631566658616e-05;0.0;0.0;0.0005738111794926226;0.0019889064133167267;GPS_RAW_INT;0;1;0;0;-17000;9999;9999;0;0;0;RC_CHANNELS;795645;16;0;0;0;0;0;0;0;0;0;0;0;0;0;0;0;0;0;0;0;MISSION_CURRENT;0;SYS_STATUS;52485167;52461615;53510447;34;0;-1;-1;0;0;0;0;0;0;GLOBAL_POSITION_INT;795645;0;0;-280;-285;24;-19;7;5561;RAW_IMU;795645704;19;14;-998;-3;1;0;295;-453;275;BATTERY_STATUS;0;0;0;32767;[65535, 65535, 65535, 65535, 65535, 65535, 65535, 65535, 65535, 65535];-1;-1;-1;100;HEARTBEAT;6;8;0;0;0;3
8.427689790725708;20.796875;VFR_HUD;0.0;0.31193631887435913;55;0;-0.2800000011920929;-0.07721330225467682;AHRS;0.002845247508957982;-0.0013766135089099407;-7.111631566658616e-05;0.0;0.0;0.0005738111794926226;0.0019889064133167267;GPS_RAW_INT;0;1;0;0;-17000;9999;9999;0;0;0;RC_CHANNELS;795645;16;0;0;0;0;0;0;0;0;0;0;0;0;0;0;0;0;0;0;0;MISSION_CURRENT;0;SYS_STATUS;52485167;52461615;53510447;34;0;-1;-1;0;0;0;0;0;0;GLOBAL_POSITION_INT;795645;0;0;-280;-285;24;-19;7;5561;RAW_IMU;795645704;19;14;-998;-3;1;0;295;-453;275;BATTERY_STATUS;0;0;0;32767;[65535, 65535, 65535, 65535, 65535, 65535, 65535, 65535, 65535, 65535];-1;-1;-1;100;HEARTBEAT;6;8;0;0;0;3
8.606913805007935;20.796875;VFR_HUD;0.0;0.31193631887435913;55;0;-0.2800000011920929;-0.07721330225467682;AHRS;0.002845247508957982;-0.0013766135089099407;-7.111631566658616e-05;0.0;0.0;0.0005738111794926226;0.0019889064133167267;GPS_RAW_INT;0;1;0;0;-17000;9999;9999;0;0;0;RC_CHANNELS;795645;16;0;0;0;0;0;0;0;0;0;0;0;0;0;0;0;0;0;0;0;MISSION_CURRENT;0;SYS_STATUS;52485167;52461615;53510447;34;0;-1;-1;0;0;0;0;0;0;GLOBAL_POSITION_INT;795645;0;0;-280;-285;24;-19;7;5561;RAW_IMU;795645704;19;14;-998;-3;1;0;295;-453;275;BATTERY_STATUS;0;0;0;32767;[65535, 65535, 65535, 65535, 65535, 65535, 65535, 65535, 65535, 65535];-1;-1;-1;100;HEARTBEAT;6;8;0;0;0;3
8.91959834098816;20.8046875;VFR_HUD;0.0;0.31193631887435913;55;0;-0.2800000011920929;-0.07721330225467682;AHRS;0.002845247508957982;-0.0013766135089099407;-7.111631566658616e-05;0.0;0.0;0.0005738111794926226;0.0019889064133167267;GPS_RAW_INT;0;1;0;0;-17000;9999;9999;0;0;0;RC_CHANNELS;795645;16;0;0;0;0;0;0;0;0;0;0;0;0;0;0;0;0;0;0;0;MISSION_CURRENT;0;SYS_STATUS;52485167;52461615;53510447;34;0;-1;-1;0;0;0;0;0;0;GLOBAL_POSITION_INT;795645;0;0;-280;-285;24;-19;7;5561;RAW_IMU;795645704;19;14;-998;-3;1;0;295;-453;275;BATTERY_STATUS;0;0;0;32767;[65535, 65535, 65535, 65535, 65535, 65535, 65535, 65535, 65535, 65535];-1;-1;-1;100;HEARTBEAT;6;8;0;0;0;3
9.106913566589355;20.796875;VFR_HUD;0.0;0.3217116892337799;55;0;0.009999999776482582;-0.07619962841272354;AHRS;0.0028474684804677963;-0.0013765974435955286;-7.077862392179668e-05;0.0;0.0;0.0005363153177313507;0.003026964608579874;GPS_RAW_INT;0;1;0;0;-17000;9999;9999;0;0;0;RC_CHANNELS;796645;16;0;0;0;0;0;0;0;0;0;0;0;0;0;0;0;0;0;0;0;MISSION_CURRENT;0;SYS_STATUS;52485167;52461615;53510447;34;0;-1;-1;0;0;0;0;0;0;GLOBAL_POSITION_INT;796645;0;0;10;18;25;-20;7;5563;RAW_IMU;796645727;19;13;-998;-3;1;0;297;-455;268;BATTERY_STATUS;0;0;0;32767;[65535, 65535, 65535, 65535, 65535, 65535, 65535, 65535, 65535, 65535];-1;-1;-1;100;HEARTBEAT;10;3;193;0;5;3
9.26757287979126;20.796875;VFR_HUD;0.0;0.3217116892337799;55;0;0.009999999776482582;-0.07619962841272354;AHRS;0.0028474684804677963;-0.0013765974435955286;-7.077862392179668e-05;0.0;0.0;0.0005363153177313507;0.003026964608579874;GPS_RAW_INT;0;1;0;0;-17000;9999;9999;0;0;0;RC_CHANNELS;796645;16;0;0;0;0;0;0;0;0;0;0;0;0;0;0;0;0;0;0;0;MISSION_CURRENT;0;SYS_STATUS;52485167;52461615;53510447;34;0;-1;-1;0;0;0;0;0;0;GLOBAL_POSITION_INT;796645;0;0;10;18;25;-20;7;5563;RAW_IMU;796645727;19;13;-998;-3;1;0;297;-455;268;BATTERY_STATUS;0;0;0;32767;[65535, 65535, 65535, 65535, 65535, 65535, 65535, 65535, 65535, 65535];-1;-1;-1;100;HEARTBEAT;6;8;0;0;0;3
9.489557981491089;20.796875;VFR_HUD;0.0;0.3217116892337799;55;0;0.009999999776482582;-0.07619962841272354;AHRS;0.0028474684804677963;-0.0013765974435955286;-7.077862392179668e-05;0.0;0.0;0.0005363153177313507;0.003026964608579874;GPS_RAW_INT;0;1;0;0;-17000;9999;9999;0;0;0;RC_CHANNELS;796645;16;0;0;0;0;0;0;0;0;0;0;0;0;0;0;0;0;0;0;0;MISSION_CURRENT;0;SYS_STATUS;52485167;52461615;53510447;34;0;-1;-1;0;0;0;0;0;0;GLOBAL_POSITION_INT;796645;0;0;10;18;25;-20;7;5563;RAW_IMU;796645727;19;13;-998;-3;1;0;297;-455;268;BATTERY_STATUS;0;0;0;32767;[65535, 65535, 65535, 65535, 65535, 65535, 65535, 65535, 65535, 65535];-1;-1;-1;100;HEARTBEAT;6;8;0;0;0;3
9.59818983078003;20.796875;VFR_HUD;0.0;0.3217116892337799;55;0;0.009999999776482582;-0.07619962841272354;AHRS;0.0028474684804677963;-0.0013765974435955286;-7.077862392179668e-05;0.0;0.0;0.0005363153177313507;0.003026964608579874;GPS_RAW_INT;0;1;0;0;-17000;9999;9999;0;0;0;RC_CHANNELS;796645;16;0;0;0;0;0;0;0;0;0;0;0;0;0;0;0;0;0;0;0;MISSION_CURRENT;0;SYS_STATUS;52485167;52461615;53510447;34;0;-1;-1;0;0;0;0;0;0;GLOBAL_POSITION_INT;796645;0;0;10;18;25;-20;7;5563;RAW_IMU;796645727;19;13;-998;-3;1;0;297;-455;268;BATTERY_STATUS;0;0;0;32767;[65535, 65535, 65535, 65535, 65535, 65535, 65535, 65535, 65535, 65535];-1;-1;-1;100;HEARTBEAT;6;8;0;0;0;3
9.899557113647461;20.796875;VFR_HUD;0.0;0.3217116892337799;55;0;0.009999999776482582;-0.07619962841272354;AHRS;0.0028474684804677963;-0.0013765974435955286;-7.077862392179668e-05;0.0;0.0;0.0005363153177313507;0.003026964608579874;GPS_RAW_INT;0;1;0;0;-17000;9999;9999;0;0;0;RC_CHANNELS;796645;16;0;0;0;0;0;0;0;0;0;0;0;0;0;0;0;0;0;0;0;MISSION_CURRENT;0;SYS_STATUS;52485167;52461615;53510447;34;0;-1;-1;0;0;0;0;0;0;GLOBAL_POSITION_INT;796645;0;0;10;18;25;-20;7;5563;RAW_IMU;796645727;19;13;-998;-3;1;0;297;-455;268;BATTERY_STATUS;0;0;0;32767;[65535, 65535, 65535, 65535, 65535, 65535, 65535, 65535, 65535, 65535];-1;-1;-1;100;HEARTBEAT;6;8;0;0;0;3
10.088567733764648;20.796875;VFR_HUD;0.0;0.3311568796634674;55;0;0.08999999612569809;-0.06448331475257874;AHRS;0.0028498538304120302;-0.0013766078045591712;-7.07396466168575e-05;0.0;0.0;0.0005988824414089322;0.005765608977526426;GPS_RAW_INT;0;1;0;0;-17000;9999;9999;0;0;0;RC_CHANNELS;797645;16;0;0;0;0;0;0;0;0;0;0;0;0;0;0;0;0;0;0;0;MISSION_CURRENT;0;SYS_STATUS;52485167;52461615;53510447;35;0;-1;-1;0;0;0;0;0;0;GLOBAL_POSITION_INT;797645;0;0;90;99;25;-21;6;5563;RAW_IMU;797645721;19;15;-998;-4;1;0;299;-451;275;BATTERY_STATUS;0;0;0;32767;[65535, 65535, 65535, 65535, 65535, 65535, 65535, 65535, 65535, 65535];-1;-1;-1;100;HEARTBEAT;6;8;0;0;0;3
10.33639645576477;20.796875;VFR_HUD;0.0;0.3311568796634674;55;0;0.08999999612569809;-0.06448331475257874;AHRS;0.0028498538304120302;-0.0013766078045591712;-7.07396466168575e-05;0.0;0.0;0.0005988824414089322;0.005765608977526426;GPS_RAW_INT;0;1;0;0;-17000;9999;9999;0;0;0;RC_CHANNELS;797645;16;0;0;0;0;0;0;0;0;0;0;0;0;0;0;0;0;0;0;0;MISSION_CURRENT;0;SYS_STATUS;52485167;52461615;53510447;35;0;-1;-1;0;0;0;0;0;0;GLOBAL_POSITION_INT;797645;0;0;90;99;25;-21;6;5563;RAW_IMU;797645721;19;15;-998;-4;1;0;299;-451;275;BATTERY_STATUS;0;0;0;32767;[65535, 65535, 65535, 65535, 65535, 65535, 65535, 65535, 65535, 65535];-1;-1;-1;100;HEARTBEAT;6;8;0;0;0;3
10.562332391738892;20.796875;VFR_HUD;0.0;0.3311568796634674;55;0;0.08999999612569809;-0.06448331475257874;AHRS;0.0028498538304120302;-0.0013766078045591712;-7.07396466168575e-05;0.0;0.0;0.0005988824414089322;0.005765608977526426;GPS_RAW_INT;0;1;0;0;-17000;9999;9999;0;0;0;RC_CHANNELS;797645;16;0;0;0;0;0;0;0;0;0;0;0;0;0;0;0;0;0;0;0;MISSION_CURRENT;0;SYS_STATUS;52485167;52461615;53510447;35;0;-1;-1;0;0;0;0;0;0;GLOBAL_POSITION_INT;797645;0;0;90;99;25;-21;6;5563;RAW_IMU;797645721;19;15;-998;-4;1;0;299;-451;275;BATTERY_STATUS;0;0;0;32767;[65535, 65535, 65535, 65535, 65535, 65535, 65535, 65535, 65535, 65535];-1;-1;-1;100;HEARTBEAT;6;8;0;0;0;3
10.767037153244019;20.796875;VFR_HUD;0.0;0.3311568796634674;55;0;0.08999999612569809;-0.06448331475257874;AHRS;0.0028498538304120302;-0.0013766078045591712;-7.07396466168575e-05;0.0;0.0;0.0005988824414089322;0.005765608977526426;GPS_RAW_INT;0;1;0;0;-17000;9999;9999;0;0;0;RC_CHANNELS;797645;16;0;0;0;0;0;0;0;0;0;0;0;0;0;0;0;0;0;0;0;MISSION_CURRENT;0;SYS_STATUS;52485167;52461615;53510447;35;0;-1;-1;0;0;0;0;0;0;GLOBAL_POSITION_INT;797645;0;0;90;99;25;-21;6;5563;RAW_IMU;797645721;19;15;-998;-4;1;0;299;-451;275;BATTERY_STATUS;0;0;0;32767;[65535, 65535, 65535, 65535, 65535, 65535, 65535, 65535, 65535, 65535];-1;-1;-1;100;HEARTBEAT;6;8;0;0;0;3
10.927119255065918;20.796875;VFR_HUD;0.0;0.3311568796634674;55;0;0.08999999612569809;-0.06448331475257874;AHRS;0.0028498538304120302;-0.0013766078045591712;-7.07396466168575e-05;0.0;0.0;0.0005988824414089322;0.005765608977526426;GPS_RAW_INT;0;1;0;0;-17000;9999;9999;0;0;0;RC_CHANNELS;797645;16;0;0;0;0;0;0;0;0;0;0;0;0;0;0;0;0;0;0;0;MISSION_CURRENT;0;SYS_STATUS;52485167;52461615;53510447;35;0;-1;-1;0;0;0;0;0;0;GLOBAL_POSITION_INT;797645;0;0;90;99;25;-21;6;5563;RAW_IMU;797645721;19;15;-998;-4;1;0;299;-451;275;BATTERY_STATUS;0;0;0;32767;[65535, 65535, 65535, 65535, 65535, 65535, 65535, 65535, 65535, 65535];-1;-1;-1;100;HEARTBEAT;6;8;0;0;0;3
11.05714750289917;20.8046875;VFR_HUD;0.0;0.33411353826522827;55;0;-0.22999998927116394;-0.05410579964518547;AHRS;0.002854596823453903;-0.0013777264393866062;-7.10880703991279e-05;0.0;0.0;0.0004487546975724399;0.00897629652172327;GPS_RAW_INT;0;1;0;0;-17000;9999;9999;0;0;0;RC_CHANNELS;798645;16;0;0;0;0;0;0;0;0;0;0;0;0;0;0;0;0;0;0;0;MISSION_CURRENT;0;SYS_STATUS;52485167;52461615;53510447;35;0;-1;-1;0;0;0;0;0;0;GLOBAL_POSITION_INT;798645;0;0;-230;-231;25;-21;5;5563;RAW_IMU;798645713;20;14;-999;-3;0;0;299;-447;277;BATTERY_STATUS;0;0;0;32767;[65535, 65535, 65535, 65535, 65535, 65535, 65535, 65535, 65535, 65535];-1;-1;-1;100;HEARTBEAT;6;8;0;0;0;3
11.22599983215332;20.796875;VFR_HUD;0.0;0.33411353826522827;55;0;-0.22999998927116394;-0.05410579964518547;AHRS;0.002854596823453903;-0.0013777264393866062;-7.10880703991279e-05;0.0;0.0;0.0004487546975724399;0.00897629652172327;GPS_RAW_INT;0;1;0;0;-17000;9999;9999;0;0;0;RC_CHANNELS;798645;16;0;0;0;0;0;0;0;0;0;0;0;0;0;0;0;0;0;0;0;MISSION_CURRENT;0;SYS_STATUS;52485167;52461615;53510447;35;0;-1;-1;0;0;0;0;0;0;GLOBAL_POSITION_INT;798645;0;0;-230;-231;25;-21;5;5563;RAW_IMU;798645713;20;14;-999;-3;0;0;299;-447;277;BATTERY_STATUS;0;0;0;32767;[65535, 65535, 65535, 65535, 65535, 65535, 65535, 65535, 65535, 65535];-1;-1;-1;100;HEARTBEAT;6;8;0;0;0;3
11.430799007415771;20.796875;VFR_HUD;0.0;0.33411353826522827;55;0;-0.22999998927116394;-0.05410579964518547;AHRS;0.002854596823453903;-0.0013777264393866062;-7.10880703991279e-05;0.0;0.0;0.0004487546975724399;0.00897629652172327;GPS_RAW_INT;0;1;0;0;-17000;9999;9999;0;0;0;RC_CHANNELS;798645;16;0;0;0;0;0;0;0;0;0;0;0;0;0;0;0;0;0;0;0;MISSION_CURRENT;0;SYS_STATUS;52485167;52461615;53510447;35;0;-1;-1;0;0;0;0;0;0;GLOBAL_POSITION_INT;798645;0;0;-230;-231;25;-21;5;5563;RAW_IMU;798645713;20;14;-999;-3;0;0;299;-447;277;BATTERY_STATUS;0;0;0;32767;[65535, 65535, 65535, 65535, 65535, 65535, 65535, 65535, 65535, 65535];-1;-1;-1;100;HEARTBEAT;6;8;0;0;0;3
11.64874267578125;20.8046875;VFR_HUD;0.0;0.33411353826522827;55;0;-0.22999998927116394;-0.05410579964518547;AHRS;0.002854596823453903;-0.0013777264393866062;-7.10880703991279e-05;0.0;0.0;0.0004487546975724399;0.00897629652172327;GPS_RAW_INT;0;1;0;0;-17000;9999;9999;0;0;0;RC_CHANNELS;798645;16;0;0;0;0;0;0;0;0;0;0;0;0;0;0;0;0;0;0;0;MISSION_CURRENT;0;SYS_STATUS;52485167;52461615;53510447;35;0;-1;-1;0;0;0;0;0;0;GLOBAL_POSITION_INT;798645;0;0;-230;-231;25;-21;5;5563;RAW_IMU;798645713;20;14;-999;-3;0;0;299;-447;277;BATTERY_STATUS;0;0;0;32767;[65535, 65535, 65535, 65535, 65535, 65535, 65535, 65535, 65535, 65535];-1;-1;-1;100;HEARTBEAT;6;8;0;0;0;3
11.92754602432251;20.796875;VFR_HUD;0.0;0.33411353826522827;55;0;-0.22999998927116394;-0.05410579964518547;AHRS;0.002854596823453903;-0.0013777264393866062;-7.10880703991279e-05;0.0;0.0;0.0004487546975724399;0.00897629652172327;GPS_RAW_INT;0;1;0;0;-17000;9999;9999;0;0;0;RC_CHANNELS;798645;16;0;0;0;0;0;0;0;0;0;0;0;0;0;0;0;0;0;0;0;MISSION_CURRENT;0;SYS_STATUS;52485167;52461615;53510447;35;0;-1;-1;0;0;0;0;0;0;GLOBAL_POSITION_INT;798645;0;0;-230;-231;25;-21;5;5563;RAW_IMU;798645713;20;14;-999;-3;0;0;299;-447;277;BATTERY_STATUS;0;0;0;32767;[65535, 65535, 65535, 65535, 65535, 65535, 65535, 65535, 65535, 65535];-1;-1;-1;100;HEARTBEAT;10;3;193;0;5;3
12.139553308486938;20.796875;VFR_HUD;0.0;0.33716732263565063;55;0;-0.17000000178813934;-0.051434099674224854;AHRS;0.002857071114704013;-0.0013777419226244092;-7.149937300710008e-05;0.0;0.0;0.0006074800621718168;0.007121176924556494;GPS_RAW_INT;0;1;0;0;-17000;9999;9999;0;0;0;RC_CHANNELS;799645;16;0;0;0;0;0;0;0;0;0;0;0;0;0;0;0;0;0;0;0;MISSION_CURRENT;0;SYS_STATUS;52485167;52461615;53510447;35;0;-1;-1;0;0;0;0;0;0;GLOBAL_POSITION_INT;799645;0;0;-170;-172;25;-21;5;5562;RAW_IMU;799645715;19;14;-998;-3;1;0;297;-448;269;BATTERY_STATUS;0;0;0;32767;[65535, 65535, 65535, 65535, 65535, 65535, 65535, 65535, 65535, 65535];-1;-1;-1;100;HEARTBEAT;6;8;0;0;0;3
12.299551248550415;20.8046875;VFR_HUD;0.0;0.33716732263565063;55;0;-0.17000000178813934;-0.051434099674224854;AHRS;0.002857071114704013;-0.0013777419226244092;-7.149937300710008e-05;0.0;0.0;0.0006074800621718168;0.007121176924556494;GPS_RAW_INT;0;1;0;0;-17000;9999;9999;0;0;0;RC_CHANNELS;799645;16;0;0;0;0;0;0;0;0;0;0;0;0;0;0;0;0;0;0;0;MISSION_CURRENT;0;SYS_STATUS;52485167;52461615;53510447;35;0;-1;-1;0;0;0;0;0;0;GLOBAL_POSITION_INT;799645;0;0;-170;-172;25;-21;5;5562;RAW_IMU;799645715;19;14;-998;-3;1;0;297;-448;269;BATTERY_STATUS;0;0;0;32767;[65535, 65535, 65535, 65535, 65535, 65535, 65535, 65535, 65535, 65535];-1;-1;-1;100;HEARTBEAT;6;8;0;0;0;3
12.479557037353516;20.796875;VFR_HUD;0.0;0.33716732263565063;55;0;-0.17000000178813934;-0.051434099674224854;AHRS;0.002857071114704013;-0.0013777419226244092;-7.149937300710008e-05;0.0;0.0;0.0006074800621718168;0.007121176924556494;GPS_RAW_INT;0;1;0;0;-17000;9999;9999;0;0;0;RC_CHANNELS;799645;16;0;0;0;0;0;0;0;0;0;0;0;0;0;0;0;0;0;0;0;MISSION_CURRENT;0;SYS_STATUS;52485167;52461615;53510447;35;0;-1;-1;0;0;0;0;0;0;GLOBAL_POSITION_INT;799645;0;0;-170;-172;25;-21;5;5562;RAW_IMU;799645715;19;14;-998;-3;1;0;297;-448;269;BATTERY_STATUS;0;0;0;32767;[65535, 65535, 65535, 65535, 65535, 65535, 65535, 65535, 65535, 65535];-1;-1;-1;100;HEARTBEAT;6;8;0;0;0;3
12.747601509094238;20.796875;VFR_HUD;0.0;0.33716732263565063;55;0;-0.17000000178813934;-0.051434099674224854;AHRS;0.002857071114704013;-0.0013777419226244092;-7.149937300710008e-05;0.0;0.0;0.0006074800621718168;0.007121176924556494;GPS_RAW_INT;0;1;0;0;-17000;9999;9999;0;0;0;RC_CHANNELS;799645;16;0;0;0;0;0;0;0;0;0;0;0;0;0;0;0;0;0;0;0;MISSION_CURRENT;0;SYS_STATUS;52485167;52461615;53510447;35;0;-1;-1;0;0;0;0;0;0;GLOBAL_POSITION_INT;799645;0;0;-170;-172;25;-21;5;5562;RAW_IMU;799645715;19;14;-998;-3;1;0;297;-448;269;BATTERY_STATUS;0;0;0;32767;[65535, 65535, 65535, 65535, 65535, 65535, 65535, 65535, 65535, 65535];-1;-1;-1;100;HEARTBEAT;6;8;0;0;0;3
12.90765929222107;20.796875;VFR_HUD;0.0;0.33716732263565063;55;0;-0.17000000178813934;-0.051434099674224854;AHRS;0.002857071114704013;-0.0013777419226244092;-7.149937300710008e-05;0.0;0.0;0.0006074800621718168;0.007121176924556494;GPS_RAW_INT;0;1;0;0;-17000;9999;9999;0;0;0;RC_CHANNELS;799645;16;0;0;0;0;0;0;0;0;0;0;0;0;0;0;0;0;0;0;0;MISSION_CURRENT;0;SYS_STATUS;52485167;52461615;53510447;35;0;-1;-1;0;0;0;0;0;0;GLOBAL_POSITION_INT;799645;0;0;-170;-172;25;-21;5;5562;RAW_IMU;799645715;19;14;-998;-3;1;0;297;-448;269;BATTERY_STATUS;0;0;0;32767;[65535, 65535, 65535, 65535, 65535, 65535, 65535, 65535, 65535, 65535];-1;-1;-1;100;HEARTBEAT;10;3;193;0;5;3
13.186866044998169;20.8046875;VFR_HUD;0.0;0.33747705817222595;55;0;-0.2800000011920929;-0.04903440922498703;AHRS;0.002859949367120862;-0.001377950538881123;-7.180726242950186e-05;0.0;0.0;0.0006804938893765211;0.0055770268663764;GPS_RAW_INT;0;1;0;0;-17000;9999;9999;0;0;0;RC_CHANNELS;800645;16;0;0;0;0;0;0;0;0;0;0;0;0;0;0;0;0;0;0;0;MISSION_CURRENT;0;SYS_STATUS;52485167;52461615;53510447;35;0;-1;-1;0;0;0;0;0;0;GLOBAL_POSITION_INT;800645;0;0;-280;-285;26;-21;4;5563;RAW_IMU;800645735;20;14;-999;-4;1;0;300;-450;269;BATTERY_STATUS;0;0;0;32767;[65535, 65535, 65535, 65535, 65535, 65535, 65535, 65535, 65535, 65535];-1;-1;-1;100;HEARTBEAT;6;8;0;0;0;3
13.390238046646118;20.796875;VFR_HUD;0.0;0.33747705817222595;55;0;-0.2800000011920929;-0.04903440922498703;AHRS;0.002859949367120862;-0.001377950538881123;-7.180726242950186e-05;0.0;0.0;0.0006804938893765211;0.0055770268663764;GPS_RAW_INT;0;1;0;0;-17000;9999;9999;0;0;0;RC_CHANNELS;800645;16;0;0;0;0;0;0;0;0;0;0;0;0;0;0;0;0;0;0;0;MISSION_CURRENT;0;SYS_STATUS;52485167;52461615;53510447;35;0;-1;-1;0;0;0;0;0;0;GLOBAL_POSITION_INT;800645;0;0;-280;-285;26;-21;4;5563;RAW_IMU;800645735;20;14;-999;-4;1;0;300;-450;269;BATTERY_STATUS;0;0;0;32767;[65535, 65535, 65535, 65535, 65535, 65535, 65535, 65535, 65535, 65535];-1;-1;-1;100;HEARTBEAT;6;8;0;0;0;3
13.610777378082275;20.8046875;VFR_HUD;0.0;0.33747705817222595;55;0;-0.2800000011920929;-0.04903440922498703;AHRS;0.002859949367120862;-0.001377950538881123;-7.180726242950186e-05;0.0;0.0;0.0006804938893765211;0.0055770268663764;GPS_RAW_INT;0;1;0;0;-17000;9999;9999;0;0;0;RC_CHANNELS;800645;16;0;0;0;0;0;0;0;0;0;0;0;0;0;0;0;0;0;0;0;MISSION_CURRENT;0;SYS_STATUS;52485167;52461615;53510447;35;0;-1;-1;0;0;0;0;0;0;GLOBAL_POSITION_INT;800645;0;0;-280;-285;26;-21;4;5563;RAW_IMU;800645735;20;14;-999;-4;1;0;300;-450;269;BATTERY_STATUS;0;0;0;32767;[65535, 65535, 65535, 65535, 65535, 65535, 65535, 65535, 65535, 65535];-1;-1;-1;100;HEARTBEAT;6;8;0;0;0;3
13.747567892074585;20.796875;VFR_HUD;0.0;0.33747705817222595;55;0;-0.2800000011920929;-0.04903440922498703;AHRS;0.002859949367120862;-0.001377950538881123;-7.180726242950186e-05;0.0;0.0;0.0006804938893765211;0.0055770268663764;GPS_RAW_INT;0;1;0;0;-17000;9999;9999;0;0;0;RC_CHANNELS;800645;16;0;0;0;0;0;0;0;0;0;0;0;0;0;0;0;0;0;0;0;MISSION_CURRENT;0;SYS_STATUS;52485167;52461615;53510447;35;0;-1;-1;0;0;0;0;0;0;GLOBAL_POSITION_INT;800645;0;0;-280;-285;26;-21;4;5563;RAW_IMU;800645735;20;14;-999;-4;1;0;300;-450;269;BATTERY_STATUS;0;0;0;32767;[65535, 65535, 65535, 65535, 65535, 65535, 65535, 65535, 65535, 65535];-1;-1;-1;100;HEARTBEAT;6;8;0;0;0;3
13.959572076797485;20.796875;VFR_HUD;0.0;0.3345496654510498;55;0;-0.3199999928474426;-0.05252523347735405;AHRS;0.002859949367120862;-0.001377950538881123;-7.180726242950186e-05;0.0;0.0;0.0006804938893765211;0.0055770268663764;GPS_RAW_INT;0;1;0;0;-17000;9999;9999;0;0;0;RC_CHANNELS;800645;16;0;0;0;0;0;0;0;0;0;0;0;0;0;0;0;0;0;0;0;MISSION_CURRENT;0;SYS_STATUS;52485167;52461615;53510447;34;0;-1;-1;0;0;0;0;0;0;GLOBAL_POSITION_INT;801645;0;0;-320;-328;26;-20;5;5564;RAW_IMU;800645735;20;14;-999;-4;1;0;300;-450;269;BATTERY_STATUS;0;0;0;32767;[65535, 65535, 65535, 65535, 65535, 65535, 65535, 65535, 65535, 65535];-1;-1;-1;100;HEARTBEAT;10;3;193;0;5;3
14.08745813369751;20.8046875;VFR_HUD;0.0;0.3345496654510498;55;0;-0.3199999928474426;-0.05252523347735405;AHRS;0.0028627319261431694;-0.001378104672767222;-7.18847441021353e-05;0.0;0.0;0.0006419067503884435;0.004855615086853504;GPS_RAW_INT;0;1;0;0;-17000;9999;9999;0;0;0;RC_CHANNELS;801645;16;0;0;0;0;0;0;0;0;0;0;0;0;0;0;0;0;0;0;0;MISSION_CURRENT;0;SYS_STATUS;52485167;52461615;53510447;34;0;-1;-1;0;0;0;0;0;0;GLOBAL_POSITION_INT;801645;0;0;-320;-328;26;-20;5;5564;RAW_IMU;801645713;20;15;-999;-3;0;0;302;-450;268;BATTERY_STATUS;0;0;0;32767;[65535, 65535, 65535, 65535, 65535, 65535, 65535, 65535, 65535, 65535];-1;-1;-1;100;HEARTBEAT;6;8;0;0;0;3
14.32955265045166;20.796875;VFR_HUD;0.0;0.3345496654510498;55;0;-0.3199999928474426;-0.05252523347735405;AHRS;0.0028627319261431694;-0.001378104672767222;-7.18847441021353e-05;0.0;0.0;0.0006419067503884435;0.004855615086853504;GPS_RAW_INT;0;1;0;0;-17000;9999;9999;0;0;0;RC_CHANNELS;801645;16;0;0;0;0;0;0;0;0;0;0;0;0;0;0;0;0;0;0;0;MISSION_CURRENT;0;SYS_STATUS;52485167;52461615;53510447;34;0;-1;-1;0;0;0;0;0;0;GLOBAL_POSITION_INT;801645;0;0;-320;-328;26;-20;5;5564;RAW_IMU;801645713;20;15;-999;-3;0;0;302;-450;268;BATTERY_STATUS;0;0;0;32767;[65535, 65535, 65535, 65535, 65535, 65535, 65535, 65535, 65535, 65535];-1;-1;-1;100;HEARTBEAT;6;8;0;0;0;3
14.580565214157104;20.8046875;VFR_HUD;0.0;0.3345496654510498;55;0;-0.3199999928474426;-0.05252523347735405;AHRS;0.0028627319261431694;-0.001378104672767222;-7.18847441021353e-05;0.0;0.0;0.0006419067503884435;0.004855615086853504;GPS_RAW_INT;0;1;0;0;-17000;9999;9999;0;0;0;RC_CHANNELS;801645;16;0;0;0;0;0;0;0;0;0;0;0;0;0;0;0;0;0;0;0;MISSION_CURRENT;0;SYS_STATUS;52485167;52461615;53510447;34;0;-1;-1;0;0;0;0;0;0;GLOBAL_POSITION_INT;801645;0;0;-320;-328;26;-20;5;5564;RAW_IMU;801645713;20;15;-999;-3;0;0;302;-450;268;BATTERY_STATUS;0;0;0;32767;[65535, 65535, 65535, 65535, 65535, 65535, 65535, 65535, 65535, 65535];-1;-1;-1;100;HEARTBEAT;6;8;0;0;0;3
14.642550706863403;20.8046875;VFR_HUD;0.0;0.3345496654510498;55;0;-0.3199999928474426;-0.05252523347735405;AHRS;0.0028627319261431694;-0.001378104672767222;-7.18847441021353e-05;0.0;0.0;0.0006419067503884435;0.004855615086853504;GPS_RAW_INT;0;1;0;0;-17000;9999;9999;0;0;0;RC_CHANNELS;801645;16;0;0;0;0;0;0;0;0;0;0;0;0;0;0;0;0;0;0;0;MISSION_CURRENT;0;SYS_STATUS;52485167;52461615;53510447;34;0;-1;-1;0;0;0;0;0;0;GLOBAL_POSITION_INT;801645;0;0;-320;-328;26;-20;5;5564;RAW_IMU;801645713;20;15;-999;-3;0;0;302;-450;268;BATTERY_STATUS;0;0;0;32767;[65535, 65535, 65535, 65535, 65535, 65535, 65535, 65535, 65535, 65535];-1;-1;-1;100;HEARTBEAT;6;8;0;0;0;3
15.007410049438477;20.796875;VFR_HUD;0.0;0.33152642846107483;55;0;-0.41999998688697815;-0.052516888827085495;AHRS;0.0028653184417635202;-0.0013781596207991242;-7.176690269261599e-05;0.0;0.0;0.0006884148460812867;0.0037380049470812082;GPS_RAW_INT;0;1;0;0;-17000;9999;9999;0;0;0;RC_CHANNELS;802645;16;0;0;0;0;0;0;0;0;0;0;0;0;0;0;0;0;0;0;0;MISSION_CURRENT;0;SYS_STATUS;52485167;52461615;53510447;34;0;-1;-1;0;0;0;0;0;0;GLOBAL_POSITION_INT;802645;0;0;-420;-420;26;-20;5;5564;RAW_IMU;802645717;20;15;-999;-4;1;0;299;-454;266;BATTERY_STATUS;0;0;0;32767;[65535, 65535, 65535, 65535, 65535, 65535, 65535, 65535, 65535, 65535];-1;-1;-1;100;HEARTBEAT;10;3;193;0;5;3
15.166753053665161;20.796875;VFR_HUD;0.0;0.33152642846107483;55;0;-0.41999998688697815;-0.052516888827085495;AHRS;0.0028653184417635202;-0.0013781596207991242;-7.176690269261599e-05;0.0;0.0;0.0006884148460812867;0.0037380049470812082;GPS_RAW_INT;0;1;0;0;-17000;9999;9999;0;0;0;RC_CHANNELS;802645;16;0;0;0;0;0;0;0;0;0;0;0;0;0;0;0;0;0;0;0;MISSION_CURRENT;0;SYS_STATUS;52485167;52461615;53510447;34;0;-1;-1;0;0;0;0;0;0;GLOBAL_POSITION_INT;802645;0;0;-420;-420;26;-20;5;5564;RAW_IMU;802645717;20;15;-999;-4;1;0;299;-454;266;BATTERY_STATUS;0;0;0;32767;[65535, 65535, 65535, 65535, 65535, 65535, 65535, 65535, 65535, 65535];-1;-1;-1;100;HEARTBEAT;6;8;0;0;0;3
15.339549541473389;20.8046875;VFR_HUD;0.0;0.33152642846107483;55;0;-0.41999998688697815;-0.052516888827085495;AHRS;0.0028653184417635202;-0.0013781596207991242;-7.176690269261599e-05;0.0;0.0;0.0006884148460812867;0.0037380049470812082;GPS_RAW_INT;0;1;0;0;-17000;9999;9999;0;0;0;RC_CHANNELS;802645;16;0;0;0;0;0;0;0;0;0;0;0;0;0;0;0;0;0;0;0;MISSION_CURRENT;0;SYS_STATUS;52485167;52461615;53510447;34;0;-1;-1;0;0;0;0;0;0;GLOBAL_POSITION_INT;802645;0;0;-420;-420;26;-20;5;5564;RAW_IMU;802645717;20;15;-999;-4;1;0;299;-454;266;BATTERY_STATUS;0;0;0;32767;[65535, 65535, 65535, 65535, 65535, 65535, 65535, 65535, 65535, 65535];-1;-1;-1;100;HEARTBEAT;6;8;0;0;0;3
15.489628791809082;20.796875;VFR_HUD;0.0;0.33152642846107483;55;0;-0.41999998688697815;-0.052516888827085495;AHRS;0.0028653184417635202;-0.0013781596207991242;-7.176690269261599e-05;0.0;0.0;0.0006884148460812867;0.0037380049470812082;GPS_RAW_INT;0;1;0;0;-17000;9999;9999;0;0;0;RC_CHANNELS;802645;16;0;0;0;0;0;0;0;0;0;0;0;0;0;0;0;0;0;0;0;MISSION_CURRENT;0;SYS_STATUS;52485167;52461615;53510447;34;0;-1;-1;0;0;0;0;0;0;GLOBAL_POSITION_INT;802645;0;0;-420;-420;26;-20;5;5564;RAW_IMU;802645717;20;15;-999;-4;1;0;299;-454;266;BATTERY_STATUS;0;0;0;32767;[65535, 65535, 65535, 65535, 65535, 65535, 65535, 65535, 65535, 65535];-1;-1;-1;100;HEARTBEAT;6;8;0;0;0;3
15.746771097183228;20.796875;VFR_HUD;0.0;0.33152642846107483;55;0;-0.41999998688697815;-0.052516888827085495;AHRS;0.0028653184417635202;-0.0013781596207991242;-7.176690269261599e-05;0.0;0.0;0.0006884148460812867;0.0037380049470812082;GPS_RAW_INT;0;1;0;0;-17000;9999;9999;0;0;0;RC_CHANNELS;802645;16;0;0;0;0;0;0;0;0;0;0;0;0;0;0;0;0;0;0;0;MISSION_CURRENT;0;SYS_STATUS;52485167;52461615;53510447;34;0;-1;-1;0;0;0;0;0;0;GLOBAL_POSITION_INT;802645;0;0;-420;-420;26;-20;5;5564;RAW_IMU;802645717;20;15;-999;-4;1;0;299;-454;266;BATTERY_STATUS;0;0;0;32767;[65535, 65535, 65535, 65535, 65535, 65535, 65535, 65535, 65535, 65535];-1;-1;-1;100;HEARTBEAT;6;8;0;0;0;3
15.967586755752563;20.8046875;VFR_HUD;0.0;0.32869961857795715;55;0;-0.2199999988079071;-0.056184038519859314;AHRS;0.0028679065871983767;-0.0013781968737021089;-7.16075228410773e-05;0.0;0.0;0.0005466179572977126;0.003104911185801029;GPS_RAW_INT;0;1;0;0;-17000;9999;9999;0;0;0;RC_CHANNELS;803645;16;0;0;0;0;0;0;0;0;0;0;0;0;0;0;0;0;0;0;0;MISSION_CURRENT;0;SYS_STATUS;52485167;52461615;53510447;34;0;-1;-1;0;0;0;0;0;0;GLOBAL_POSITION_INT;803645;0;0;-220;-221;26;-19;5;5566;RAW_IMU;803645711;19;15;-997;-4;1;0;301;-452;270;BATTERY_STATUS;0;0;0;32767;[65535, 65535, 65535, 65535, 65535, 65535, 65535, 65535, 65535, 65535];-1;-1;-1;100;HEARTBEAT;10;3;193;0;5;3
16.187647104263306;20.8046875;VFR_HUD;0.0;0.32869961857795715;55;0;-0.2199999988079071;-0.056184038519859314;AHRS;0.0028679065871983767;-0.0013781968737021089;-7.16075228410773e-05;0.0;0.0;0.0005466179572977126;0.003104911185801029;GPS_RAW_INT;0;1;0;0;-17000;9999;9999;0;0;0;RC_CHANNELS;803645;16;0;0;0;0;0;0;0;0;0;0;0;0;0;0;0;0;0;0;0;MISSION_CURRENT;0;SYS_STATUS;52485167;52461615;53510447;34;0;-1;-1;0;0;0;0;0;0;GLOBAL_POSITION_INT;803645;0;0;-220;-221;26;-19;5;5566;RAW_IMU;803645711;19;15;-997;-4;1;0;301;-452;270;BATTERY_STATUS;0;0;0;32767;[65535, 65535, 65535, 65535, 65535, 65535, 65535, 65535, 65535, 65535];-1;-1;-1;100;HEARTBEAT;6;8;0;0;0;3
16.407376050949097;20.8046875;VFR_HUD;0.0;0.32869961857795715;55;0;-0.2199999988079071;-0.056184038519859314;AHRS;0.0028679065871983767;-0.0013781968737021089;-7.16075228410773e-05;0.0;0.0;0.0005466179572977126;0.003104911185801029;GPS_RAW_INT;0;1;0;0;-17000;9999;9999;0;0;0;RC_CHANNELS;803645;16;0;0;0;0;0;0;0;0;0;0;0;0;0;0;0;0;0;0;0;MISSION_CURRENT;0;SYS_STATUS;52485167;52461615;53510447;34;0;-1;-1;0;0;0;0;0;0;GLOBAL_POSITION_INT;803645;0;0;-220;-221;26;-19;5;5566;RAW_IMU;803645711;19;15;-997;-4;1;0;301;-452;270;BATTERY_STATUS;0;0;0;32767;[65535, 65535, 65535, 65535, 65535, 65535, 65535, 65535, 65535, 65535];-1;-1;-1;100;HEARTBEAT;6;8;0;0;0;3
16.61780071258545;20.8046875;VFR_HUD;0.0;0.32869961857795715;55;0;-0.2199999988079071;-0.056184038519859314;AHRS;0.0028679065871983767;-0.0013781968737021089;-7.16075228410773e-05;0.0;0.0;0.0005466179572977126;0.003104911185801029;GPS_RAW_INT;0;1;0;0;-17000;9999;9999;0;0;0;RC_CHANNELS;803645;16;0;0;0;0;0;0;0;0;0;0;0;0;0;0;0;0;0;0;0;MISSION_CURRENT;0;SYS_STATUS;52485167;52461615;53510447;34;0;-1;-1;0;0;0;0;0;0;GLOBAL_POSITION_INT;803645;0;0;-220;-221;26;-19;5;5566;RAW_IMU;803645711;19;15;-997;-4;1;0;301;-452;270;BATTERY_STATUS;0;0;0;32767;[65535, 65535, 65535, 65535, 65535, 65535, 65535, 65535, 65535, 65535];-1;-1;-1;100;HEARTBEAT;6;8;0;0;0;3
16.726670503616333;20.796875;VFR_HUD;0.0;0.32869961857795715;55;0;-0.2199999988079071;-0.056184038519859314;AHRS;0.0028679065871983767;-0.0013781968737021089;-7.16075228410773e-05;0.0;0.0;0.0005466179572977126;0.003104911185801029;GPS_RAW_INT;0;1;0;0;-17000;9999;9999;0;0;0;RC_CHANNELS;803645;16;0;0;0;0;0;0;0;0;0;0;0;0;0;0;0;0;0;0;0;MISSION_CURRENT;0;SYS_STATUS;52485167;52461615;53510447;34;0;-1;-1;0;0;0;0;0;0;GLOBAL_POSITION_INT;803645;0;0;-220;-221;26;-19;5;5566;RAW_IMU;803645711;19;15;-997;-4;1;0;301;-452;270;BATTERY_STATUS;0;0;0;32767;[65535, 65535, 65535, 65535, 65535, 65535, 65535, 65535, 65535, 65535];-1;-1;-1;100;HEARTBEAT;6;8;0;0;0;3
17.02795720100403;20.8046875;VFR_HUD;0.0;0.3274143934249878;55;0;-0.32999998331069946;-0.0496024489402771;AHRS;0.0028702449053525925;-0.0013781000161543489;-7.123947580112144e-05;0.0;0.0;0.0006575711304321885;0.004655702039599419;GPS_RAW_INT;0;1;0;0;-17000;9999;9999;0;0;0;RC_CHANNELS;804645;16;0;0;0;0;0;0;0;0;0;0;0;0;0;0;0;0;0;0;0;MISSION_CURRENT;0;SYS_STATUS;52485167;52461615;53510447;34;0;-1;-1;0;0;0;0;0;0;GLOBAL_POSITION_INT;804645;0;0;-330;-334;26;-19;4;5565;RAW_IMU;804645719;19;14;-999;-3;1;0;298;-445;270;BATTERY_STATUS;0;0;0;32767;[65535, 65535, 65535, 65535, 65535, 65535, 65535, 65535, 65535, 65535];-1;-1;-1;100;HEARTBEAT;10;3;193;0;5;3
17.226742267608643;20.796875;VFR_HUD;0.0;0.3274143934249878;55;0;-0.32999998331069946;-0.0496024489402771;AHRS;0.0028702449053525925;-0.0013781000161543489;-7.123947580112144e-05;0.0;0.0;0.0006575711304321885;0.004655702039599419;GPS_RAW_INT;0;1;0;0;-17000;9999;9999;0;0;0;RC_CHANNELS;804645;16;0;0;0;0;0;0;0;0;0;0;0;0;0;0;0;0;0;0;0;MISSION_CURRENT;0;SYS_STATUS;52485167;52461615;53510447;34;0;-1;-1;0;0;0;0;0;0;GLOBAL_POSITION_INT;804645;0;0;-330;-334;26;-19;4;5565;RAW_IMU;804645719;19;14;-999;-3;1;0;298;-445;270;BATTERY_STATUS;0;0;0;32767;[65535, 65535, 65535, 65535, 65535, 65535, 65535, 65535, 65535, 65535];-1;-1;-1;100;HEARTBEAT;6;8;0;0;0;3
17.279685974121094;20.8046875;VFR_HUD;0.0;0.3274143934249878;55;0;-0.32999998331069946;-0.0496024489402771;AHRS;0.0028702449053525925;-0.0013781000161543489;-7.123947580112144e-05;0.0;0.0;0.0006575711304321885;0.004655702039599419;GPS_RAW_INT;0;1;0;0;-17000;9999;9999;0;0;0;RC_CHANNELS;804645;16;0;0;0;0;0;0;0;0;0;0;0;0;0;0;0;0;0;0;0;MISSION_CURRENT;0;SYS_STATUS;52485167;52461615;53510447;34;0;-1;-1;0;0;0;0;0;0;GLOBAL_POSITION_INT;804645;0;0;-330;-334;26;-19;4;5565;RAW_IMU;804645719;19;14;-999;-3;1;0;298;-445;270;BATTERY_STATUS;0;0;0;32767;[65535, 65535, 65535, 65535, 65535, 65535, 65535, 65535, 65535, 65535];-1;-1;-1;100;HEARTBEAT;6;8;0;0;0;3
17.568294286727905;20.8046875;VFR_HUD;0.0;0.3274143934249878;55;0;-0.32999998331069946;-0.0496024489402771;AHRS;0.0028702449053525925;-0.0013781000161543489;-7.123947580112144e-05;0.0;0.0;0.0006575711304321885;0.004655702039599419;GPS_RAW_INT;0;1;0;0;-17000;9999;9999;0;0;0;RC_CHANNELS;804645;16;0;0;0;0;0;0;0;0;0;0;0;0;0;0;0;0;0;0;0;MISSION_CURRENT;0;SYS_STATUS;52485167;52461615;53510447;34;0;-1;-1;0;0;0;0;0;0;GLOBAL_POSITION_INT;804645;0;0;-330;-334;26;-19;4;5565;RAW_IMU;804645719;19;14;-999;-3;1;0;298;-445;270;BATTERY_STATUS;0;0;0;32767;[65535, 65535, 65535, 65535, 65535, 65535, 65535, 65535, 65535, 65535];-1;-1;-1;100;HEARTBEAT;6;8;0;0;0;3
17.72754216194153;20.796875;VFR_HUD;0.0;0.3274143934249878;55;0;-0.32999998331069946;-0.0496024489402771;AHRS;0.0028702449053525925;-0.0013781000161543489;-7.123947580112144e-05;0.0;0.0;0.0006575711304321885;0.004655702039599419;GPS_RAW_INT;0;1;0;0;-17000;9999;9999;0;0;0;RC_CHANNELS;804645;16;0;0;0;0;0;0;0;0;0;0;0;0;0;0;0;0;0;0;0;MISSION_CURRENT;0;SYS_STATUS;52485167;52461615;53510447;34;0;-1;-1;0;0;0;0;0;0;GLOBAL_POSITION_INT;804645;0;0;-330;-334;26;-19;4;5565;RAW_IMU;804645719;19;14;-999;-3;1;0;298;-445;270;BATTERY_STATUS;0;0;0;32767;[65535, 65535, 65535, 65535, 65535, 65535, 65535, 65535, 65535, 65535];-1;-1;-1;100;HEARTBEAT;6;8;0;0;0;3
18.066593885421753;20.796875;VFR_HUD;0.0;0.3279276192188263;55;0;-0.5299999713897705;-0.05427765101194382;AHRS;0.002875300357118249;-0.0013792957179248333;-7.108884892659262e-05;0.0;0.0;0.0006145982188172638;0.003720971755683422;GPS_RAW_INT;0;1;0;0;-17000;9999;9999;0;0;0;RC_CHANNELS;805645;16;0;0;0;0;0;0;0;0;0;0;0;0;0;0;0;0;0;0;0;MISSION_CURRENT;0;SYS_STATUS;52485167;52461615;53510447;35;0;-1;-1;0;0;0;0;0;0;GLOBAL_POSITION_INT;805645;0;0;-530;-533;26;-19;5;5566;RAW_IMU;805645734;20;15;-999;-3;1;0;300;-453;265;BATTERY_STATUS;0;0;0;32767;[65535, 65535, 65535, 65535, 65535, 65535, 65535, 65535, 65535, 65535];-1;-1;-1;100;HEARTBEAT;6;8;0;0;0;3
