Time (s),TMP117 Temp (C),SHTC3 Temp (C),SHTC Humidity (%),Micro Pressure (psi),BME280 Temp (C),BME280 Press. (Pa),BME280 Humidity (%),BME280 Altitude (m),CCS811 tVOC (ppb),CCS811 CO2 (ppm),mavpackettype,airspeed,groundspeed,heading,throttle,alt,climb,mavpackettype,time_boot_ms,coordinate_frame,type_mask,lat_int,lon_int,alt,vx,vy,vz,afx,afy,afz,yaw,yaw_rate,mavpackettype,omegaIx,omegaIy,omegaIz,accel_weight,renorm_val,error_rp,error_yaw,mavpackettype,time_usec,fix_type,lat,lon,alt,eph,epv,vel,cog,satellites_visible,time (ms),mavpackettype,time_boot_ms,chancount,chan1_raw,chan2_raw,chan3_raw,chan4_raw,chan5_raw,chan6_raw,chan7_raw,chan8_raw,chan9_raw,chan10_raw,chan11_raw,chan12_raw,chan13_raw,chan14_raw,chan15_raw,chan16_raw,chan17_raw,chan18_raw,rssi,mavpackettype,seq,mavpackettype,nav_roll,nav_pitch,nav_bearing,target_bearing,wp_dist,alt_error,aspd_error,xtrack_error,time (ms),mavpackettype,onboard_control_sensors_present,onboard_control_sensors_enabled,onboard_control_sensors_health,load,voltage_battery,current_battery,battery_remaining,drop_rate_comm,errors_comm,errors_count1,errors_count2,errors_count3,errors_count4,mavpackettype,time_boot_ms,lat,lon,alt,relative_alt,vx,vy,vz,hdg,mavpackettype,time_usec,xacc,yacc,zacc,xgyro,ygyro,zgyro,xmag,ymag,zmag
10.305704593658447,24.6640625,26.4569091796875,42.65594482421875,14.453125116415329,24.538795713286163,99833.48475022147,42.65767198349583,124.92221209571339,4,427,VFR_HUD,0.0,0.0,339,0,-1.5099999904632568,-0.0,POSITION_TARGET_GLOBAL_INT,14848208,0,65016,0,0,100.0,0.0,0.0,0.0,0.0,0.0,0.0,0.0,0.0,AHRS,0.003566521918401122,0.0010450517293065786,-0.00633727153763175,0.0,0.0,0.004843738861382008,0.1210748702287674,GPS_RAW_INT,0,0,0,0,0,65535,65535,0,0,0,RC_CHANNELS,14848208,16,1500,1500,0,1500,0,0,0,0,0,0,0,0,0,0,0,0,0,0,255,MISSION_CURRENT,0,NAV_CONTROLLER_OUTPUT,0.0,0.0,0,0,0,101.41000366210938,0.0,0.0,SYS_STATUS,325188639,272759823,17890319,30,0,-1,-1,0,0,0,0,0,0,GLOBAL_POSITION_INT,14848708,0,0,-1510,-1518,0,0,0,33959,RAW_IMU,14848208485,-966,-68,31,-1,-1,5,-168,-221,44
10.305704593658447,24.6640625,26.4569091796875,42.65594482421875,14.453125116415329,24.538795713286163,99833.48475022147,42.65767198349583,124.92221209571339,4,427,VFR_HUD,0.0,0.0,339,0,-1.5099999904632568,-0.0,POSITION_TARGET_GLOBAL_INT,14848208,0,65016,0,0,100.0,0.0,0.0,0.0,0.0,0.0,0.0,0.0,0.0,AHRS,0.003566521918401122,0.0010450517293065786,-0.00633727153763175,0.0,0.0,0.004843738861382008,0.1210748702287674,GPS_RAW_INT,0,0,0,0,0,65535,65535,0,0,0,RC_CHANNELS,14848708,16,1500,1500,0,1500,0,0,0,0,0,0,0,0,0,0,0,0,0,0,255,MISSION_CURRENT,0,NAV_CONTROLLER_OUTPUT,0.0,0.0,0,0,0,101.41000366210938,0.0,0.0,SYS_STATUS,325188639,272759823,17890319,30,0,-1,-1,0,0,0,0,0,0,GLOBAL_POSITION_INT,14848708,0,0,-1510,-1518,0,0,0,33959,RAW_IMU,14848208485,-966,-68,31,-1,-1,5,-168,-221,44
10.417191982269287,24.6640625,26.448898315429688,42.63763427734375,14.453125116415329,24.542325384009587,99830.75044757823,42.68060718694455,125.15260792127427,4,427,VFR_HUD,0.0,0.0,339,0,-1.5099999904632568,-0.0,POSITION_TARGET_GLOBAL_INT,14848208,0,65016,0,0,100.0,0.0,0.0,0.0,0.0,0.0,0.0,0.0,0.0,AHRS,0.003566521918401122,0.0010450517293065786,-0.00633727153763175,0.0,0.0,0.004843738861382008,0.1210748702287674,GPS_RAW_INT,0,0,0,0,0,65535,65535,0,0,0,RC_CHANNELS,14848708,16,1500,1500,0,1500,0,0,0,0,0,0,0,0,0,0,0,0,0,0,255,MISSION_CURRENT,0,NAV_CONTROLLER_OUTPUT,0.0,0.0,0,0,0,101.41000366210938,0.0,0.0,SYS_STATUS,325188639,272759823,17890319,30,0,-1,-1,0,0,0,0,0,0,GLOBAL_POSITION_INT,14848708,0,0,-1510,-1518,0,0,0,33959,RAW_IMU,14848708587,-965,-68,29,-2,0,6,-167,-220,46
10.417191982269287,24.6640625,26.448898315429688,42.63763427734375,14.453125116415329,24.542325384009587,99830.75044757823,42.68060718694455,125.15260792127427,4,427,VFR_HUD,0.0,0.0,339,0,-1.5099999904632568,-0.0,POSITION_TARGET_GLOBAL_INT,14848208,0,65016,0,0,100.0,0.0,0.0,0.0,0.0,0.0,0.0,0.0,0.0,AHRS,0.003566521918401122,0.0010450517293065786,-0.00633727153763175,0.0,0.0,0.004843738861382008,0.1210748702287674,GPS_RAW_INT,0,0,0,0,0,65535,65535,0,0,0,RC_CHANNELS,14848708,16,1500,1500,0,1500,0,0,0,0,0,0,0,0,0,0,0,0,0,0,255,MISSION_CURRENT,0,NAV_CONTROLLER_OUTPUT,0.0,0.0,0,0,0,101.41000366210938,0.0,0.0,SYS_STATUS,325188639,272759823,17890319,30,0,-1,-1,0,0,0,0,0,0,GLOBAL_POSITION_INT,14848708,0,0,-1510,-1518,0,0,0,33959,RAW_IMU,14848708587,-965,-68,29,-2,0,6,-167,-220,46
10.526078939437866,24.6640625,26.494293212890625,42.6544189453125,14.453125116415329,24.539116592437153,99835.94791111488,42.66913166236525,124.71466739406243,4,427,VFR_HUD,0.0,0.0,339,0,-1.5099999904632568,-0.0,POSITION_TARGET_GLOBAL_INT,14848208,0,65016,0,0,100.0,0.0,0.0,0.0,0.0,0.0,0.0,0.0,0.0,AHRS,0.003566521918401122,0.0010450517293065786,-0.00633727153763175,0.0,0.0,0.004758425988256931,0.11996516585350037,GPS_RAW_INT,0,0,0,0,0,65535,65535,0,0,0,RC_CHANNELS,14848708,16,1500,1500,0,1500,0,0,0,0,0,0,0,0,0,0,0,0,0,0,255,MISSION_CURRENT,0,NAV_CONTROLLER_OUTPUT,0.0,0.0,0,0,0,101.41000366210938,0.0,0.0,SYS_STATUS,325188639,272759823,17890319,30,0,-1,-1,0,0,0,0,0,0,GLOBAL_POSITION_INT,14848708,0,0,-1510,-1518,0,0,0,33959,RAW_IMU,14848708587,-965,-68,29,-2,0,6,-167,-220,46
10.526078939437866,24.6640625,26.494293212890625,42.6544189453125,14.453125116415329,24.539116592437153,99835.94791111488,42.66913166236525,124.71466739406243,4,427,VFR_HUD,0.0,0.0,339,0,-1.5099999904632568,-0.0,POSITION_TARGET_GLOBAL_INT,14848708,0,65016,0,0,100.0,0.0,0.0,0.0,0.0,0.0,0.0,0.0,0.0,AHRS,0.003566521918401122,0.0010450517293065786,-0.00633727153763175,0.0,0.0,0.004758425988256931,0.11996516585350037,GPS_RAW_INT,0,0,0,0,0,65535,65535,0,0,0,RC_CHANNELS,14848708,16,1500,1500,0,1500,0,0,0,0,0,0,0,0,0,0,0,0,0,0,255,MISSION_CURRENT,0,NAV_CONTROLLER_OUTPUT,0.0,0.0,0,0,0,101.41000366210938,0.0,0.0,SYS_STATUS,325188639,272759823,17890319,30,0,-1,-1,0,0,0,0,0,0,GLOBAL_POSITION_INT,14848708,0,0,-1510,-1518,0,0,0,33959,RAW_IMU,14848708587,-965,-68,29,-2,0,6,-167,-220,46
10.629563331604004,24.6640625,26.507644653320312,42.596435546875,14.453125116415329,24.540400109052484,99829.76527558737,42.68632555755427,125.23562102095518,4,427,VFR_HUD,0.0,0.0,339,0,-1.5099999904632568,-0.0,POSITION_TARGET_GLOBAL_INT,14848708,0,65016,0,0,100.0,0.0,0.0,0.0,0.0,0.0,0.0,0.0,0.0,AHRS,0.003566521918401122,0.0010450517293065786,-0.00633727153763175,0.0,0.0,0.004758425988256931,0.11996516585350037,GPS_RAW_INT,0,0,0,0,0,65535,65535,0,0,0,RC_CHANNELS,14848708,16,1500,1500,0,1500,0,0,0,0,0,0,0,0,0,0,0,0,0,0,255,MISSION_CURRENT,0,NAV_CONTROLLER_OUTPUT,0.0,0.0,0,0,0,101.41000366210938,0.0,0.0,SYS_STATUS,325188639,272759823,17890319,30,0,-1,-1,0,0,0,0,0,0,GLOBAL_POSITION_INT,14849208,0,0,-1780,-1786,0,0,0,33967,RAW_IMU,14848708587,-965,-68,29,-2,0,6,-167,-220,46
10.629563331604004,24.6640625,26.507644653320312,42.596435546875,14.453125116415329,24.540400109052484,99829.76527558737,42.68632555755427,125.23562102095518,4,427,VFR_HUD,0.0,0.0,339,0,-1.5099999904632568,-0.0,POSITION_TARGET_GLOBAL_INT,14848708,0,65016,0,0,100.0,0.0,0.0,0.0,0.0,0.0,0.0,0.0,0.0,AHRS,0.003566521918401122,0.0010450517293065786,-0.00633727153763175,0.0,0.0,0.004758425988256931,0.11996516585350037,GPS_RAW_INT,0,0,0,0,0,65535,65535,0,0,0,RC_CHANNELS,14848708,16,1500,1500,0,1500,0,0,0,0,0,0,0,0,0,0,0,0,0,0,255,MISSION_CURRENT,0,NAV_CONTROLLER_OUTPUT,0.0,0.0,0,0,0,101.41000366210938,0.0,0.0,SYS_STATUS,325188639,272759823,17890319,28,0,-1,-1,0,0,0,0,0,0,GLOBAL_POSITION_INT,14849208,0,0,-1780,-1786,0,0,0,33967,RAW_IMU,14848708587,-965,-68,29,-2,0,6,-167,-220,46
10.732288599014282,24.65625,26.464920043945312,42.6727294921875,14.453125116415329,24.540400109052484,99829.76527558737,42.68632555755427,125.23562102095518,4,427,VFR_HUD,0.0,0.0,339,0,-1.5099999904632568,-0.0,POSITION_TARGET_GLOBAL_INT,14848708,0,65016,0,0,100.0,0.0,0.0,0.0,0.0,0.0,0.0,0.0,0.0,AHRS,0.003566521918401122,0.0010450517293065786,-0.00633727153763175,0.0,0.0,0.004758425988256931,0.11996516585350037,GPS_RAW_INT,0,0,0,0,0,65535,65535,0,0,0,RC_CHANNELS,14848708,16,1500,1500,0,1500,0,0,0,0,0,0,0,0,0,0,0,0,0,0,255,MISSION_CURRENT,0,NAV_CONTROLLER_OUTPUT,0.0,0.0,0,0,0,101.41000366210938,0.0,0.0,SYS_STATUS,325188639,272759823,17890319,28,0,-1,-1,0,0,0,0,0,0,GLOBAL_POSITION_INT,14849208,0,0,-1780,-1786,0,0,0,33967,RAW_IMU,14848708587,-965,-68,29,-2,0,6,-167,-220,46
10.821577548980713,24.65625,26.472930908203125,42.6116943359375,14.453125116415329,24.533340767893264,99832.47510357511,42.709202004468885,125.00728561390773,4,427,VFR_HUD,0.0,0.0,339,0,-1.5099999904632568,-0.0,POSITION_TARGET_GLOBAL_INT,14848708,0,65016,0,0,100.0,0.0,0.0,0.0,0.0,0.0,0.0,0.0,0.0,AHRS,0.003566521918401122,0.0010450517293065786,-0.00633727153763175,0.0,0.0,0.004758425988256931,0.11996516585350037,GPS_RAW_INT,0,0,0,0,0,65535,65535,0,0,0,RC_CHANNELS,14848708,16,1500,1500,0,1500,0,0,0,0,0,0,0,0,0,0,0,0,0,0,255,MISSION_CURRENT,0,NAV_CONTROLLER_OUTPUT,0.0,0.0,0,0,0,101.41000366210938,0.0,0.0,SYS_STATUS,325188639,272759823,17890319,28,0,-1,-1,0,0,0,0,0,0,GLOBAL_POSITION_INT,14849208,0,0,-1780,-1786,0,0,0,33967,RAW_IMU,14848708587,-965,-68,29,-2,0,6,-167,-220,46
10.821577548980713,24.65625,26.472930908203125,42.6116943359375,14.453125116415329,24.533340767893264,99832.47510357511,42.709202004468885,125.00728561390773,4,427,VFR_HUD,0.0,0.0,339,0,-1.7799999713897705,-0.0,POSITION_TARGET_GLOBAL_INT,14848708,0,65016,0,0,100.0,0.0,0.0,0.0,0.0,0.0,0.0,0.0,0.0,AHRS,0.003566521918401122,0.0010450517293065786,-0.00633727153763175,0.0,0.0,0.004758425988256931,0.11996516585350037,GPS_RAW_INT,0,0,0,0,0,65535,65535,0,0,0,RC_CHANNELS,14848708,16,1500,1500,0,1500,0,0,0,0,0,0,0,0,0,0,0,0,0,0,255,MISSION_CURRENT,0,NAV_CONTROLLER_OUTPUT,0.0,0.0,0,0,0,101.41000366210938,0.0,0.0,SYS_STATUS,325188639,272759823,17890319,28,0,-1,-1,0,0,0,0,0,0,GLOBAL_POSITION_INT,14849208,0,0,-1780,-1786,0,0,0,33967,RAW_IMU,14848708587,-965,-68,29,-2,0,6,-167,-220,46
10.909343957901001,24.6640625,26.472930908203125,42.70172119140625,14.453125116415329,24.540079229896946,99835.06112527983,42.755070375329744,124.7893870461659,4,427,VFR_HUD,0.0,0.0,339,0,-1.7799999713897705,-0.0,POSITION_TARGET_GLOBAL_INT,14848708,0,65016,0,0,100.0,0.0,0.0,0.0,0.0,0.0,0.0,0.0,0.0,AHRS,0.003566521918401122,0.0010450517293065786,-0.00633727153763175,0.0,0.0,0.004758425988256931,0.11996516585350037,GPS_RAW_INT,0,0,0,0,0,65535,65535,0,0,0,RC_CHANNELS,14849208,16,1500,1500,0,1500,0,0,0,0,0,0,0,0,0,0,0,0,0,0,255,MISSION_CURRENT,0,NAV_CONTROLLER_OUTPUT,0.0,0.0,0,0,0,101.41000366210938,0.0,0.0,SYS_STATUS,325188639,272759823,17890319,28,0,-1,-1,0,0,0,0,0,0,GLOBAL_POSITION_INT,14849208,0,0,-1780,-1786,0,0,0,33967,RAW_IMU,14848708587,-965,-68,29,-2,0,6,-167,-220,46
10.909343957901001,24.6640625,26.472930908203125,42.70172119140625,14.453125116415329,24.540079229896946,99835.06112527983,42.755070375329744,124.7893870461659,4,427,VFR_HUD,0.0,0.0,339,0,-1.7799999713897705,-0.0,POSITION_TARGET_GLOBAL_INT,14848708,0,65016,0,0,100.0,0.0,0.0,0.0,0.0,0.0,0.0,0.0,0.0,AHRS,0.003566521918401122,0.0010450517293065786,-0.00633727153763175,0.0,0.0,0.004758425988256931,0.11996516585350037,GPS_RAW_INT,0,0,0,0,0,65535,65535,0,0,0,RC_CHANNELS,14849208,16,1500,1500,0,1500,0,0,0,0,0,0,0,0,0,0,0,0,0,0,255,MISSION_CURRENT,0,NAV_CONTROLLER_OUTPUT,0.0,0.0,0,0,0,101.41000366210938,0.0,0.0,SYS_STATUS,325188639,272759823,17890319,28,0,-1,-1,0,0,0,0,0,0,GLOBAL_POSITION_INT,14849208,0,0,-1780,-1786,0,0,0,33967,RAW_IMU,14849208427,-968,-67,30,-2,-1,7,-196,-240,47
11.000897884368896,24.6640625,26.464920043945312,42.633056640625,14.453125116415329,24.54136274652592,99834.91327708248,42.663414956968005,124.80184463376493,0,400,VFR_HUD,0.0,0.0,339,0,-1.7799999713897705,-0.0,POSITION_TARGET_GLOBAL_INT,14848708,0,65016,0,0,100.0,0.0,0.0,0.0,0.0,0.0,0.0,0.0,0.0,AHRS,0.003566521918401122,0.0010450517293065786,-0.00633727153763175,0.0,0.0,0.004758425988256931,0.11996516585350037,GPS_RAW_INT,0,0,0,0,0,65535,65535,0,0,0,RC_CHANNELS,14849208,16,1500,1500,0,1500,0,0,0,0,0,0,0,0,0,0,0,0,0,0,255,MISSION_CURRENT,0,NAV_CONTROLLER_OUTPUT,0.0,0.0,0,0,0,101.41000366210938,0.0,0.0,SYS_STATUS,325188639,272759823,17890319,28,0,-1,-1,0,0,0,0,0,0,GLOBAL_POSITION_INT,14849208,0,0,-1780,-1786,0,0,0,33967,RAW_IMU,14849208427,-968,-67,30,-2,-1,7,-196,-240,47
11.087591171264648,24.6640625,26.48895263671875,42.73529052734375,14.453125116415329,24.52692318549873,99831.31771763624,42.71489503141203,125.10480860314476,0,400,VFR_HUD,0.0,0.0,339,0,-1.7799999713897705,-0.0,POSITION_TARGET_GLOBAL_INT,14848708,0,65016,0,0,100.0,0.0,0.0,0.0,0.0,0.0,0.0,0.0,0.0,AHRS,0.003566521918401122,0.0010450517293065786,-0.00633727153763175,0.0,0.0,0.0048399418592453,0.12078607082366943,GPS_RAW_INT,0,0,0,0,0,65535,65535,0,0,0,RC_CHANNELS,14849208,16,1500,1500,0,1500,0,0,0,0,0,0,0,0,0,0,0,0,0,0,255,MISSION_CURRENT,0,NAV_CONTROLLER_OUTPUT,0.0,0.0,0,0,0,101.41000366210938,0.0,0.0,SYS_STATUS,325188639,272759823,17890319,28,0,-1,-1,0,0,0,0,0,0,GLOBAL_POSITION_INT,14849208,0,0,-1780,-1786,0,0,0,33967,RAW_IMU,14849208427,-968,-67,30,-2,-1,7,-196,-240,47
11.087591171264648,24.6640625,26.48895263671875,42.73529052734375,14.453125116415329,24.52692318549873,99831.31771763624,42.71489503141203,125.10480860314476,0,400,VFR_HUD,0.0,0.0,339,0,-1.7799999713897705,-0.0,POSITION_TARGET_GLOBAL_INT,14849208,0,65016,0,0,100.0,0.0,0.0,0.0,0.0,0.0,0.0,0.0,0.0,AHRS,0.003566521918401122,0.0010450517293065786,-0.00633727153763175,0.0,0.0,0.0048399418592453,0.12078607082366943,GPS_RAW_INT,0,0,0,0,0,65535,65535,0,0,0,RC_CHANNELS,14849208,16,1500,1500,0,1500,0,0,0,0,0,0,0,0,0,0,0,0,0,0,255,MISSION_CURRENT,0,NAV_CONTROLLER_OUTPUT,0.0,0.0,0,0,0,101.41000366210938,0.0,0.0,SYS_STATUS,325188639,272759823,17890319,28,0,-1,-1,0,0,0,0,0,0,GLOBAL_POSITION_INT,14849208,0,0,-1780,-1786,0,0,0,33967,RAW_IMU,14849208427,-968,-67,30,-2,-1,7,-196,-240,47
11.177005767822266,24.671875,26.4569091796875,42.63153076171875,14.453125116415329,24.532699009633347,99835.99743815622,42.67482542165692,124.71049431292144,0,400,VFR_HUD,0.0,0.0,339,0,-1.7799999713897705,-0.0,POSITION_TARGET_GLOBAL_INT,14849208,0,65016,0,0,100.0,0.0,0.0,0.0,0.0,0.0,0.0,0.0,0.0,AHRS,0.003566521918401122,0.0010450517293065786,-0.00633727153763175,0.0,0.0,0.0048399418592453,0.12078607082366943,GPS_RAW_INT,0,0,0,0,0,65535,65535,0,0,0,RC_CHANNELS,14849208,16,1500,1500,0,1500,0,0,0,0,0,0,0,0,0,0,0,0,0,0,255,MISSION_CURRENT,0,NAV_CONTROLLER_OUTPUT,0.0,0.0,0,0,0,101.41000366210938,0.0,0.0,SYS_STATUS,325188639,272759823,17890319,28,0,-1,-1,0,0,0,0,0,0,GLOBAL_POSITION_INT,14849208,0,0,-1780,-1786,0,0,0,33967,RAW_IMU,14849208427,-968,-67,30,-2,-1,7,-196,-240,47
11.177005767822266,24.671875,26.4569091796875,42.63153076171875,14.453125116415329,24.532699009633347,99835.99743815622,42.67482542165692,124.71049431292144,0,400,VFR_HUD,0.0,0.0,339,0,-1.7799999713897705,-0.0,POSITION_TARGET_GLOBAL_INT,14849208,0,65016,0,0,100.0,0.0,0.0,0.0,0.0,0.0,0.0,0.0,0.0,AHRS,0.003566521918401122,0.0010450517293065786,-0.00633727153763175,0.0,0.0,0.0048399418592453,0.12078607082366943,GPS_RAW_INT,0,0,0,0,0,65535,65535,0,0,0,RC_CHANNELS,14849208,16,1500,1500,0,1500,0,0,0,0,0,0,0,0,0,0,0,0,0,0,255,MISSION_CURRENT,0,NAV_CONTROLLER_OUTPUT,0.0,0.0,0,0,0,101.41000366210938,0.0,0.0,SYS_STATUS,325188639,272759823,17890319,28,0,-1,-1,0,0,0,0,0,0,GLOBAL_POSITION_INT,14849208,0,0,-1780,-1786,0,0,0,33967,RAW_IMU,14849208427,-968,-67,30,-2,-1,7,-196,-240,47
11.273950338363647,24.671875,26.4569091796875,42.65899658203125,14.453125116415329,24.525639669074394,99834.22425924684,42.686244219700114,124.85990100054268,0,400,VFR_HUD,0.0,0.0,339,0,-1.7799999713897705,-0.0,POSITION_TARGET_GLOBAL_INT,14849208,0,65016,0,0,100.0,0.0,0.0,0.0,0.0,0.0,0.0,0.0,0.0,AHRS,0.003566521918401122,0.0010450517293065786,-0.00633727153763175,0.0,0.0,0.0048399418592453,0.12078607082366943,GPS_RAW_INT,0,0,0,0,0,65535,65535,0,0,0,RC_CHANNELS,14849208,16,1500,1500,0,1500,0,0,0,0,0,0,0,0,0,0,0,0,0,0,255,MISSION_CURRENT,0,NAV_CONTROLLER_OUTPUT,0.0,0.0,0,0,0,101.41000366210938,0.0,0.0,SYS_STATUS,325188639,272759823,17890319,28,0,-1,-1,0,0,0,0,0,0,GLOBAL_POSITION_INT,14849708,0,0,-1440,-1443,0,0,0,33968,RAW_IMU,14849208427,-968,-67,30,-2,-1,7,-196,-240,47
11.273950338363647,24.671875,26.4569091796875,42.65899658203125,14.453125116415329,24.525639669074394,99834.22425924684,42.686244219700114,124.85990100054268,0,400,VFR_HUD,0.0,0.0,339,0,-1.7799999713897705,-0.0,POSITION_TARGET_GLOBAL_INT,14849208,0,65016,0,0,100.0,0.0,0.0,0.0,0.0,0.0,0.0,0.0,0.0,AHRS,0.003566521918401122,0.0010450517293065786,-0.00633727153763175,0.0,0.0,0.0048399418592453,0.12078607082366943,GPS_RAW_INT,0,0,0,0,0,65535,65535,0,0,0,RC_CHANNELS,14849208,16,1500,1500,0,1500,0,0,0,0,0,0,0,0,0,0,0,0,0,0,255,MISSION_CURRENT,0,NAV_CONTROLLER_OUTPUT,0.0,0.0,0,0,0,101.41000366210938,0.0,0.0,SYS_STATUS,325188639,272759823,17890319,30,0,-1,-1,0,0,0,0,0,0,GLOBAL_POSITION_INT,14849708,0,0,-1440,-1443,0,0,0,33968,RAW_IMU,14849208427,-968,-67,30,-2,-1,7,-196,-240,47
11.36981749534607,24.671875,26.4569091796875,42.59033203125,14.453125116415329,24.537191317548263,99830.30733889612,42.71495227656837,125.18994530467106,0,400,VFR_HUD,0.0,0.0,339,0,-1.7799999713897705,-0.0,POSITION_TARGET_GLOBAL_INT,14849208,0,65016,0,0,100.0,0.0,0.0,0.0,0.0,0.0,0.0,0.0,0.0,AHRS,0.003566521918401122,0.0010450517293065786,-0.00633727153763175,0.0,0.0,0.0048399418592453,0.12078607082366943,GPS_RAW_INT,0,0,0,0,0,65535,65535,0,0,0,RC_CHANNELS,14849208,16,1500,1500,0,1500,0,0,0,0,0,0,0,0,0,0,0,0,0,0,255,MISSION_CURRENT,0,NAV_CONTROLLER_OUTPUT,0.0,0.0,0,0,0,101.30999755859375,0.0,0.0,SYS_STATUS,325188639,272759823,17890319,30,0,-1,-1,0,0,0,0,0,0,GLOBAL_POSITION_INT,14849708,0,0,-1440,-1443,0,0,0,33968,RAW_IMU,14849208427,-968,-67,30,-2,-1,7,-196,-240,47
11.46761679649353,24.671875,26.448898315429688,42.66204833984375,14.453125116415329,24.538795713286163,99831.76052896534,42.703503447544506,125.06749658113442,0,400,VFR_HUD,0.0,0.0,339,0,-1.7799999713897705,-0.0,POSITION_TARGET_GLOBAL_INT,14849208,0,65016,0,0,100.0,0.0,0.0,0.0,0.0,0.0,0.0,0.0,0.0,AHRS,0.003566521918401122,0.0010450517293065786,-0.00633727153763175,0.0,0.0,0.0048399418592453,0.12078607082366943,GPS_RAW_INT,0,0,0,0,0,65535,65535,0,0,0,RC_CHANNELS,14849208,16,1500,1500,0,1500,0,0,0,0,0,0,0,0,0,0,0,0,0,0,255,MISSION_CURRENT,0,NAV_CONTROLLER_OUTPUT,0.0,0.0,0,0,0,101.30999755859375,0.0,0.0,SYS_STATUS,325188639,272759823,17890319,30,0,-1,-1,0,0,0,0,0,0,GLOBAL_POSITION_INT,14849708,0,0,-1440,-1443,0,0,0,33968,RAW_IMU,14849208427,-968,-67,30,-2,-1,7,-196,-240,47
11.46761679649353,24.671875,26.448898315429688,42.66204833984375,14.453125116415329,24.538795713286163,99831.76052896534,42.703503447544506,125.06749658113442,0,400,VFR_HUD,0.0,0.0,339,0,-1.4399999380111694,-0.0,POSITION_TARGET_GLOBAL_INT,14849208,0,65016,0,0,100.0,0.0,0.0,0.0,0.0,0.0,0.0,0.0,0.0,AHRS,0.003566521918401122,0.0010450517293065786,-0.00633727153763175,0.0,0.0,0.0048399418592453,0.12078607082366943,GPS_RAW_INT,0,0,0,0,0,65535,65535,0,0,0,RC_CHANNELS,14849208,16,1500,1500,0,1500,0,0,0,0,0,0,0,0,0,0,0,0,0,0,255,MISSION_CURRENT,0,NAV_CONTROLLER_OUTPUT,0.0,0.0,0,0,0,101.30999755859375,0.0,0.0,SYS_STATUS,325188639,272759823,17890319,30,0,-1,-1,0,0,0,0,0,0,GLOBAL_POSITION_INT,14849708,0,0,-1440,-1443,0,0,0,33968,RAW_IMU,14849208427,-968,-67,30,-2,-1,7,-196,-240,47
11.561498165130615,24.671875,26.464920043945312,42.66357421875,14.453125116415329,24.52660230639094,99829.88911951066,42.697707041805074,125.2251855802899,0,400,VFR_HUD,0.0,0.0,339,0,-1.4399999380111694,-0.0,POSITION_TARGET_GLOBAL_INT,14849208,0,65016,0,0,100.0,0.0,0.0,0.0,0.0,0.0,0.0,0.0,0.0,AHRS,0.003566521918401122,0.0010450517293065786,-0.00633727153763175,0.0,0.0,0.0048399418592453,0.12078607082366943,GPS_RAW_INT,0,0,0,0,0,65535,65535,0,0,0,RC_CHANNELS,14849708,16,1500,1500,0,1500,0,0,0,0,0,0,0,0,0,0,0,0,0,0,255,MISSION_CURRENT,0,NAV_CONTROLLER_OUTPUT,0.0,0.0,0,0,0,101.30999755859375,0.0,0.0,SYS_STATUS,325188639,272759823,17890319,30,0,-1,-1,0,0,0,0,0,0,GLOBAL_POSITION_INT,14849708,0,0,-1440,-1443,0,0,0,33968,RAW_IMU,14849208427,-968,-67,30,-2,-1,7,-196,-240,47
11.561498165130615,24.671875,26.464920043945312,42.66357421875,14.453125116415329,24.52660230639094,99829.88911951066,42.697707041805074,125.2251855802899,0,400,VFR_HUD,0.0,0.0,339,0,-1.4399999380111694,-0.0,POSITION_TARGET_GLOBAL_INT,14849208,0,65016,0,0,100.0,0.0,0.0,0.0,0.0,0.0,0.0,0.0,0.0,AHRS,0.003566521918401122,0.0010450517293065786,-0.00633727153763175,0.0,0.0,0.0048399418592453,0.12078607082366943,GPS_RAW_INT,0,0,0,0,0,65535,65535,0,0,0,RC_CHANNELS,14849708,16,1500,1500,0,1500,0,0,0,0,0,0,0,0,0,0,0,0,0,0,255,MISSION_CURRENT,0,NAV_CONTROLLER_OUTPUT,0.0,0.0,0,0,0,101.30999755859375,0.0,0.0,SYS_STATUS,325188639,272759823,17890319,30,0,-1,-1,0,0,0,0,0,0,GLOBAL_POSITION_INT,14849708,0,0,-1440,-1443,0,0,0,33968,RAW_IMU,14849708422,-967,-69,30,-1,0,5,-188,-237,44
11.64788293838501,24.671875,26.472930908203125,42.63153076171875,14.453125116415329,24.532699009633347,99832.72144767529,42.70346962360791,124.98652842698844,0,400,VFR_HUD,0.0,0.0,339,0,-1.4399999380111694,-0.0,POSITION_TARGET_GLOBAL_INT,14849208,0,65016,0,0,100.0,0.0,0.0,0.0,0.0,0.0,0.0,0.0,0.0,AHRS,0.003566521918401122,0.0010450517293065786,-0.00633727153763175,0.0,0.0,0.0048399418592453,0.12078607082366943,GPS_RAW_INT,0,0,0,0,0,65535,65535,0,0,0,RC_CHANNELS,14849708,16,1500,1500,0,1500,0,0,0,0,0,0,0,0,0,0,0,0,0,0,255,MISSION_CURRENT,0,NAV_CONTROLLER_OUTPUT,0.0,0.0,0,0,0,101.30999755859375,0.0,0.0,SYS_STATUS,325188639,272759823,17890319,30,0,-1,-1,0,0,0,0,0,0,GLOBAL_POSITION_INT,14849708,0,0,-1440,-1443,0,0,0,33968,RAW_IMU,14849708422,-967,-69,30,-1,0,5,-188,-237,44
11.735595226287842,24.671875,26.515655517578125,42.6483154296875,14.453125116415329,24.530131976639154,99833.70681757809,42.70345537749176,124.90350064155672,0,400,VFR_HUD,0.0,0.0,339,0,-1.4399999380111694,-0.0,POSITION_TARGET_GLOBAL_INT,14849208,0,65016,0,0,100.0,0.0,0.0,0.0,0.0,0.0,0.0,0.0,0.0,AHRS,0.003566521918401122,0.0010450517293065786,-0.00633727153763175,0.0,0.0,0.004687510430812836,0.12818683683872223,GPS_RAW_INT,0,0,0,0,0,65535,65535,0,0,0,RC_CHANNELS,14849708,16,1500,1500,0,1500,0,0,0,0,0,0,0,0,0,0,0,0,0,0,255,MISSION_CURRENT,0,NAV_CONTROLLER_OUTPUT,0.0,0.0,0,0,0,101.30999755859375,0.0,0.0,SYS_STATUS,325188639,272759823,17890319,30,0,-1,-1,0,0,0,0,0,0,GLOBAL_POSITION_INT,14849708,0,0,-1440,-1443,0,0,0,33968,RAW_IMU,14849708422,-967,-69,30,-1,0,5,-188,-237,44
11.735595226287842,24.671875,26.515655517578125,42.6483154296875,14.453125116415329,24.530131976639154,99833.70681757809,42.70345537749176,124.90350064155672,0,400,VFR_HUD,0.0,0.0,339,0,-1.4399999380111694,-0.0,POSITION_TARGET_GLOBAL_INT,14849708,0,65016,0,0,100.0,0.0,0.0,0.0,0.0,0.0,0.0,0.0,0.0,AHRS,0.003566521918401122,0.0010450517293065786,-0.00633727153763175,0.0,0.0,0.004687510430812836,0.12818683683872223,GPS_RAW_INT,0,0,0,0,0,65535,65535,0,0,0,RC_CHANNELS,14849708,16,1500,1500,0,1500,0,0,0,0,0,0,0,0,0,0,0,0,0,0,255,MISSION_CURRENT,0,NAV_CONTROLLER_OUTPUT,0.0,0.0,0,0,0,101.30999755859375,0.0,0.0,SYS_STATUS,325188639,272759823,17890319,30,0,-1,-1,0,0,0,0,0,0,GLOBAL_POSITION_INT,14849708,0,0,-1440,-1443,0,0,0,33968,RAW_IMU,14849708422,-967,-69,30,-1,0,5,-188,-237,44
11.824079036712646,24.6796875,26.480941772460938,42.61932373046875,14.453125116415329,24.523393515375574,99833.36225714964,42.70341796886595,124.93253340874189,0,400,VFR_HUD,0.0,0.0,339,0,-1.4399999380111694,-0.0,POSITION_TARGET_GLOBAL_INT,14849708,0,65016,0,0,100.0,0.0,0.0,0.0,0.0,0.0,0.0,0.0,0.0,AHRS,0.003566521918401122,0.0010450517293065786,-0.00633727153763175,0.0,0.0,0.004687510430812836,0.12818683683872223,GPS_RAW_INT,0,0,0,0,0,65535,65535,0,0,0,RC_CHANNELS,14849708,16,1500,1500,0,1500,0,0,0,0,0,0,0,0,0,0,0,0,0,0,255,MISSION_CURRENT,0,NAV_CONTROLLER_OUTPUT,0.0,0.0,0,0,0,101.30999755859375,0.0,0.0,SYS_STATUS,325188639,272759823,17890319,30,0,-1,-1,0,0,0,0,0,0,GLOBAL_POSITION_INT,14850208,0,0,-1310,-1314,0,0,0,33975,RAW_IMU,14849708422,-967,-69,30,-1,0,5,-188,-237,44
11.916934490203857,24.6796875,26.480941772460938,42.62542724609375,14.453125116415329,24.523393515375574,99830.08631658698,42.71487534362596,125.20856921626898,0,400,VFR_HUD,0.0,0.0,339,0,-1.4399999380111694,-0.0,POSITION_TARGET_GLOBAL_INT,14849708,0,65016,0,0,100.0,0.0,0.0,0.0,0.0,0.0,0.0,0.0,0.0,AHRS,0.003566521918401122,0.0010450517293065786,-0.00633727153763175,0.0,0.0,0.004687510430812836,0.12818683683872223,GPS_RAW_INT,0,0,0,0,0,65535,65535,0,0,0,RC_CHANNELS,14849708,16,1500,1500,0,1500,0,0,0,0,0,0,0,0,0,0,0,0,0,0,255,MISSION_CURRENT,0,NAV_CONTROLLER_OUTPUT,0.0,0.0,0,0,0,101.4800033569336,0.0,0.0,SYS_STATUS,325188639,272759823,17890319,29,0,-1,-1,0,0,0,0,0,0,GLOBAL_POSITION_INT,14850208,0,0,-1310,-1314,0,0,0,33975,RAW_IMU,14849708422,-967,-69,30,-1,0,5,-188,-237,44
11.916934490203857,24.6796875,26.480941772460938,42.62542724609375,14.453125116415329,24.523393515375574,99830.08631658698,42.71487534362596,125.20856921626898,0,400,VFR_HUD,0.0,0.0,339,0,-1.4399999380111694,-0.0,POSITION_TARGET_GLOBAL_INT,14849708,0,65016,0,0,100.0,0.0,0.0,0.0,0.0,0.0,0.0,0.0,0.0,AHRS,0.003566521918401122,0.0010450517293065786,-0.00633727153763175,0.0,0.0,0.004687510430812836,0.12818683683872223,GPS_RAW_INT,0,0,0,0,0,65535,65535,0,0,0,RC_CHANNELS,14849708,16,1500,1500,0,1500,0,0,0,0,0,0,0,0,0,0,0,0,0,0,255,MISSION_CURRENT,0,NAV_CONTROLLER_OUTPUT,0.0,0.0,0,0,0,101.4800033569336,0.0,0.0,SYS_STATUS,325188639,272759823,17890319,29,0,-1,-1,0,0,0,0,0,0,GLOBAL_POSITION_INT,14850208,0,0,-1310,-1314,0,0,0,33975,RAW_IMU,14849708422,-967,-69,30,-1,0,5,-188,-237,44
12.004502773284912,24.6796875,26.464920043945312,42.6055908203125,14.453125116415329,24.523393515375574,99829.93877150815,42.70338767235806,125.22100176492141,4,427,VFR_HUD,0.0,0.0,339,0,-1.309999942779541,-0.0,POSITION_TARGET_GLOBAL_INT,14849708,0,65016,0,0,100.0,0.0,0.0,0.0,0.0,0.0,0.0,0.0,0.0,AHRS,0.003566521918401122,0.0010450517293065786,-0.00633727153763175,0.0,0.0,0.004687510430812836,0.12818683683872223,GPS_RAW_INT,0,0,0,0,0,65535,65535,0,0,0,RC_CHANNELS,14849708,16,1500,1500,0,1500,0,0,0,0,0,0,0,0,0,0,0,0,0,0,255,MISSION_CURRENT,0,NAV_CONTROLLER_OUTPUT,0.0,0.0,0,0,0,101.4800033569336,0.0,0.0,SYS_STATUS,325188639,272759823,17890319,29,0,-1,-1,0,0,0,0,0,0,GLOBAL_POSITION_INT,14850208,0,0,-1310,-1314,0,0,0,33975,RAW_IMU,14849708422,-967,-69,30,-1,0,5,-188,-237,44
12.004502773284912,24.6796875,26.464920043945312,42.6055908203125,14.453125116415329,24.523393515375574,99829.93877150815,42.70338767235806,125.22100176492141,4,427,VFR_HUD,0.0,0.0,339,0,-1.309999942779541,-0.0,POSITION_TARGET_GLOBAL_INT,14849708,0,65016,0,0,100.0,0.0,0.0,0.0,0.0,0.0,0.0,0.0,0.0,AHRS,0.003566521918401122,0.0010450517293065786,-0.00633727153763175,0.0,0.0,0.004687510430812836,0.12818683683872223,GPS_RAW_INT,0,0,0,0,0,65535,65535,0,0,0,RC_CHANNELS,14850208,16,1500,1500,0,1500,0,0,0,0,0,0,0,0,0,0,0,0,0,0,255,MISSION_CURRENT,0,NAV_CONTROLLER_OUTPUT,0.0,0.0,0,0,0,101.4800033569336,0.0,0.0,SYS_STATUS,325188639,272759823,17890319,29,0,-1,-1,0,0,0,0,0,0,GLOBAL_POSITION_INT,14850208,0,0,-1310,-1314,0,0,0,33975,RAW_IMU,14849708422,-967,-69,30,-1,0,5,-188,-237,44
12.093703746795654,24.671875,26.480941772460938,42.63458251953125,14.453125116415329,24.51793857091036,99829.93877150815,42.70338767235806,125.22100176492141,4,427,VFR_HUD,0.0,0.0,339,0,-1.309999942779541,-0.0,POSITION_TARGET_GLOBAL_INT,14849708,0,65016,0,0,100.0,0.0,0.0,0.0,0.0,0.0,0.0,0.0,0.0,AHRS,0.003566521918401122,0.0010450517293065786,-0.00633727153763175,0.0,0.0,0.004687510430812836,0.12818683683872223,GPS_RAW_INT,0,0,0,0,0,65535,65535,0,0,0,RC_CHANNELS,14850208,16,1500,1500,0,1500,0,0,0,0,0,0,0,0,0,0,0,0,0,0,255,MISSION_CURRENT,0,NAV_CONTROLLER_OUTPUT,0.0,0.0,0,0,0,101.4800033569336,0.0,0.0,SYS_STATUS,325188639,272759823,17890319,29,0,-1,-1,0,0,0,0,0,0,GLOBAL_POSITION_INT,14850208,0,0,-1310,-1314,0,0,0,33975,RAW_IMU,14850208389,-968,-68,31,0,-1,6,-174,-221,44
12.180062294006348,24.671875,26.507644653320312,42.596435546875,14.453125116415329,24.531736372252,99831.02192028564,42.75502312767612,125.12973305649466,4,427,VFR_HUD,0.0,0.0,339,0,-1.309999942779541,-0.0,POSITION_TARGET_GLOBAL_INT,14849708,0,65016,0,0,100.0,0.0,0.0,0.0,0.0,0.0,0.0,0.0,0.0,AHRS,0.003566521918401122,0.0010450517293065786,-0.00633727153763175,0.0,0.0,0.004687510430812836,0.12818683683872223,GPS_RAW_INT,0,0,0,0,0,65535,65535,0,0,0,RC_CHANNELS,14850208,16,1500,1500,0,1500,0,0,0,0,0,0,0,0,0,0,0,0,0,0,255,MISSION_CURRENT,0,NAV_CONTROLLER_OUTPUT,0.0,0.0,0,0,0,101.4800033569336,0.0,0.0,SYS_STATUS,325188639,272759823,17890319,29,0,-1,-1,0,0,0,0,0,0,GLOBAL_POSITION_INT,14850208,0,0,-1310,-1314,0,0,0,33975,RAW_IMU,14850208389,-968,-68,31,0,-1,6,-174,-221,44
12.180062294006348,24.671875,26.507644653320312,42.596435546875,14.453125116415329,24.531736372252,99831.02192028564,42.75502312767612,125.12973305649466,4,427,VFR_HUD,0.0,0.0,339,0,-1.309999942779541,-0.0,POSITION_TARGET_GLOBAL_INT,14849708,0,65016,0,0,100.0,0.0,0.0,0.0,0.0,0.0,0.0,0.0,0.0,AHRS,0.003566521918401122,0.0010450517293065786,-0.00633727153763175,0.0,0.0,0.0046192072331905365,0.13786737620830536,GPS_RAW_INT,0,0,0,0,0,65535,65535,0,0,0,RC_CHANNELS,14850208,16,1500,1500,0,1500,0,0,0,0,0,0,0,0,0,0,0,0,0,0,255,MISSION_CURRENT,0,NAV_CONTROLLER_OUTPUT,0.0,0.0,0,0,0,101.4800033569336,0.0,0.0,SYS_STATUS,325188639,272759823,17890319,29,0,-1,-1,0,0,0,0,0,0,GLOBAL_POSITION_INT,14850208,0,0,-1310,-1314,0,0,0,33975,RAW_IMU,14850208389,-968,-68,31,0,-1,6,-174,-221,44
12.26675820350647,24.6796875,26.44622802734375,42.66204833984375,14.453125116415329,24.5352660427003,99831.39122512286,42.657652765123515,125.09861473030169,4,427,VFR_HUD,0.0,0.0,339,0,-1.309999942779541,-0.0,POSITION_TARGET_GLOBAL_INT,14850208,0,65016,0,0,100.0,0.0,0.0,0.0,0.0,0.0,0.0,0.0,0.0,AHRS,0.003566521918401122,0.0010450517293065786,-0.00633727153763175,0.0,0.0,0.0046192072331905365,0.13786737620830536,GPS_RAW_INT,0,0,0,0,0,65535,65535,0,0,0,RC_CHANNELS,14850208,16,1500,1500,0,1500,0,0,0,0,0,0,0,0,0,0,0,0,0,0,255,MISSION_CURRENT,0,NAV_CONTROLLER_OUTPUT,0.0,0.0,0,0,0,101.4800033569336,0.0,0.0,SYS_STATUS,325188639,272759823,17890319,29,0,-1,-1,0,0,0,0,0,0,GLOBAL_POSITION_INT,14850208,0,0,-1310,-1314,0,0,0,33975,RAW_IMU,14850208389,-968,-68,31,0,-1,6,-174,-221,44
12.26675820350647,24.6796875,26.44622802734375,42.66204833984375,14.453125116415329,24.5352660427003,99831.39122512286,42.657652765123515,125.09861473030169,4,427,VFR_HUD,0.0,0.0,339,0,-1.309999942779541,-0.0,POSITION_TARGET_GLOBAL_INT,14850208,0,65016,0,0,100.0,0.0,0.0,0.0,0.0,0.0,0.0,0.0,0.0,AHRS,0.003566521918401122,0.0010450517293065786,-0.00633727153763175,0.0,0.0,0.0046192072331905365,0.13786737620830536,GPS_RAW_INT,0,0,0,0,0,65535,65535,0,0,0,RC_CHANNELS,14850208,16,1500,1500,0,1500,0,0,0,0,0,0,0,0,0,0,0,0,0,0,255,MISSION_CURRENT,0,NAV_CONTROLLER_OUTPUT,0.0,0.0,0,0,0,101.4800033569336,0.0,0.0,SYS_STATUS,325188639,272759823,17890319,29,0,-1,-1,0,0,0,0,0,0,GLOBAL_POSITION_INT,14850208,0,0,-1310,-1314,0,0,0,33975,RAW_IMU,14850208389,-968,-68,31,0,-1,6,-174,-221,44
12.356567859649658,24.6875,26.46759033203125,42.62542724609375,14.453125116415329,24.535586921838785,99835.06131988163,42.709214495877355,124.78937064916333,4,427,VFR_HUD,0.0,0.0,339,0,-1.309999942779541,-0.0,POSITION_TARGET_GLOBAL_INT,14850208,0,65016,0,0,100.0,0.0,0.0,0.0,0.0,0.0,0.0,0.0,0.0,AHRS,0.003566521918401122,0.0010450517293065786,-0.00633727153763175,0.0,0.0,0.0046192072331905365,0.13786737620830536,GPS_RAW_INT,0,0,0,0,0,65535,65535,0,0,0,RC_CHANNELS,14850208,16,1500,1500,0,1500,0,0,0,0,0,0,0,0,0,0,0,0,0,0,255,MISSION_CURRENT,0,NAV_CONTROLLER_OUTPUT,0.0,0.0,0,0,0,101.4800033569336,0.0,0.0,SYS_STATUS,325188639,272759823,17890319,29,0,-1,-1,0,0,0,0,0,0,GLOBAL_POSITION_INT,14850708,0,0,-1700,-1700,0,0,0,33975,RAW_IMU,14850208389,-968,-68,31,0,-1,6,-174,-221,44
12.446433067321777,24.6796875,26.475601196289062,42.64068603515625,14.453125116415329,24.53045285575945,99833.92848674646,42.70345715840076,124.88482277245201,4,427,VFR_HUD,0.0,0.0,339,0,-1.309999942779541,-0.0,POSITION_TARGET_GLOBAL_INT,14850208,0,65016,0,0,100.0,0.0,0.0,0.0,0.0,0.0,0.0,0.0,0.0,AHRS,0.003566521918401122,0.0010450517293065786,-0.00633727153763175,0.0,0.0,0.0046192072331905365,0.13786737620830536,GPS_RAW_INT,0,0,0,0,0,65535,65535,0,0,0,RC_CHANNELS,14850208,16,1500,1500,0,1500,0,0,0,0,0,0,0,0,0,0,0,0,0,0,255,MISSION_CURRENT,0,NAV_CONTROLLER_OUTPUT,0.0,0.0,0,0,0,101.4800033569336,0.0,0.0,SYS_STATUS,325188639,272759823,17890319,30,0,-1,-1,0,0,0,0,0,0,GLOBAL_POSITION_INT,14850708,0,0,-1700,-1700,0,0,0,33975,RAW_IMU,14850208389,-968,-68,31,0,-1,6,-174,-221,44
12.446433067321777,24.6796875,26.475601196289062,42.64068603515625,14.453125116415329,24.53045285575945,99833.92848674646,42.70345715840076,124.88482277245201,4,427,VFR_HUD,0.0,0.0,339,0,-1.309999942779541,-0.0,POSITION_TARGET_GLOBAL_INT,14850208,0,65016,0,0,100.0,0.0,0.0,0.0,0.0,0.0,0.0,0.0,0.0,AHRS,0.003566521918401122,0.0010450517293065786,-0.00633727153763175,0.0,0.0,0.0046192072331905365,0.13786737620830536,GPS_RAW_INT,0,0,0,0,0,65535,65535,0,0,0,RC_CHANNELS,14850208,16,1500,1500,0,1500,0,0,0,0,0,0,0,0,0,0,0,0,0,0,255,MISSION_CURRENT,0,NAV_CONTROLLER_OUTPUT,0.0,0.0,0,0,0,101.58000183105469,0.0,0.0,SYS_STATUS,325188639,272759823,17890319,30,0,-1,-1,0,0,0,0,0,0,GLOBAL_POSITION_INT,14850708,0,0,-1700,-1700,0,0,0,33975,RAW_IMU,14850208389,-968,-68,31,0,-1,6,-174,-221,44
12.53341794013977,24.6796875,26.48895263671875,42.6666259765625,14.453125116415329,24.542004504847228,99830.52877762084,42.70352124363024,125.17128633830278,4,427,VFR_HUD,0.0,0.0,339,0,-1.309999942779541,-0.0,POSITION_TARGET_GLOBAL_INT,14850208,0,65016,0,0,100.0,0.0,0.0,0.0,0.0,0.0,0.0,0.0,0.0,AHRS,0.003566521918401122,0.0010450517293065786,-0.00633727153763175,0.0,0.0,0.0046192072331905365,0.13786737620830536,GPS_RAW_INT,0,0,0,0,0,65535,65535,0,0,0,RC_CHANNELS,14850208,16,1500,1500,0,1500,0,0,0,0,0,0,0,0,0,0,0,0,0,0,255,MISSION_CURRENT,0,NAV_CONTROLLER_OUTPUT,0.0,0.0,0,0,0,101.58000183105469,0.0,0.0,SYS_STATUS,325188639,272759823,17890319,30,0,-1,-1,0,0,0,0,0,0,GLOBAL_POSITION_INT,14850708,0,0,-1700,-1700,0,0,0,33975,RAW_IMU,14850208389,-968,-68,31,0,-1,6,-174,-221,44
12.53341794013977,24.6796875,26.48895263671875,42.6666259765625,14.453125116415329,24.542004504847228,99830.52877762084,42.70352124363024,125.17128633830278,4,427,VFR_HUD,0.0,0.0,339,0,-1.6999999284744263,-0.0,POSITION_TARGET_GLOBAL_INT,14850208,0,65016,0,0,100.0,0.0,0.0,0.0,0.0,0.0,0.0,0.0,0.0,AHRS,0.003566521918401122,0.0010450517293065786,-0.00633727153763175,0.0,0.0,0.0046192072331905365,0.13786737620830536,GPS_RAW_INT,0,0,0,0,0,65535,65535,0,0,0,RC_CHANNELS,14850208,16,1500,1500,0,1500,0,0,0,0,0,0,0,0,0,0,0,0,0,0,255,MISSION_CURRENT,0,NAV_CONTROLLER_OUTPUT,0.0,0.0,0,0,0,101.58000183105469,0.0,0.0,SYS_STATUS,325188639,272759823,17890319,30,0,-1,-1,0,0,0,0,0,0,GLOBAL_POSITION_INT,14850708,0,0,-1700,-1700,0,0,0,33975,RAW_IMU,14850208389,-968,-68,31,0,-1,6,-174,-221,44
12.628727197647095,24.6875,26.432876586914062,42.7215576171875,14.453125116415329,24.540079229896946,99832.81963240808,42.703510566474215,124.97825530008055,4,427,VFR_HUD,0.0,0.0,339,0,-1.6999999284744263,-0.0,POSITION_TARGET_GLOBAL_INT,14850208,0,65016,0,0,100.0,0.0,0.0,0.0,0.0,0.0,0.0,0.0,0.0,AHRS,0.003566521918401122,0.0010450517293065786,-0.00633727153763175,0.0,0.0,0.0046192072331905365,0.13786737620830536,GPS_RAW_INT,0,0,0,0,0,65535,65535,0,0,0,RC_CHANNELS,14850708,16,1500,1500,0,1500,0,0,0,0,0,0,0,0,0,0,0,0,0,0,255,MISSION_CURRENT,0,NAV_CONTROLLER_OUTPUT,0.0,0.0,0,0,0,101.58000183105469,0.0,0.0,SYS_STATUS,325188639,272759823,17890319,30,0,-1,-1,0,0,0,0,0,0,GLOBAL_POSITION_INT,14850708,0,0,-1700,-1700,0,0,0,33975,RAW_IMU,14850208389,-968,-68,31,0,-1,6,-174,-221,44
12.72213101387024,24.6796875,26.48895263671875,42.6849365234375,14.453125116415329,24.53366164702493,99827.17931278994,42.70347496522027,125.45352398455883,4,427,VFR_HUD,0.0,0.0,339,0,-1.6999999284744263,-0.0,POSITION_TARGET_GLOBAL_INT,14850208,0,65016,0,0,100.0,0.0,0.0,0.0,0.0,0.0,0.0,0.0,0.0,AHRS,0.003566521918401122,0.0010450517293065786,-0.00633727153763175,0.0,0.0,0.0046192072331905365,0.13786737620830536,GPS_RAW_INT,0,0,0,0,0,65535,65535,0,0,0,RC_CHANNELS,14850708,16,1500,1500,0,1500,0,0,0,0,0,0,0,0,0,0,0,0,0,0,255,MISSION_CURRENT,0,NAV_CONTROLLER_OUTPUT,0.0,0.0,0,0,0,101.58000183105469,0.0,0.0,SYS_STATUS,325188639,272759823,17890319,30,0,-1,-1,0,0,0,0,0,0,GLOBAL_POSITION_INT,14850708,0,0,-1700,-1700,0,0,0,33975,RAW_IMU,14850708652,-968,-68,30,-1,0,7,-193,-239,41
12.72213101387024,24.6796875,26.48895263671875,42.6849365234375,14.453125116415329,24.53366164702493,99827.17931278994,42.70347496522027,125.45352398455883,4,427,VFR_HUD,0.0,0.0,339,0,-1.6999999284744263,-0.0,POSITION_TARGET_GLOBAL_INT,14850208,0,65016,0,0,100.0,0.0,0.0,0.0,0.0,0.0,0.0,0.0,0.0,AHRS,0.003566521918401122,0.0010450517293065786,-0.00633727153763175,0.0,0.0,0.0046192072331905365,0.13786737620830536,GPS_RAW_INT,0,0,0,0,0,65535,65535,0,0,0,RC_CHANNELS,14850708,16,1500,1500,0,1500,0,0,0,0,0,0,0,0,0,0,0,0,0,0,255,MISSION_CURRENT,0,NAV_CONTROLLER_OUTPUT,0.0,0.0,0,0,0,101.58000183105469,0.0,0.0,SYS_STATUS,325188639,272759823,17890319,30,0,-1,-1,0,0,0,0,0,0,GLOBAL_POSITION_INT,14850708,0,0,-1700,-1700,0,0,0,33975,RAW_IMU,14850708652,-968,-68,30,-1,0,7,-193,-239,41
12.817064762115479,24.6796875,26.46759033203125,42.71240234375,14.453125116415329,24.539758350742545,99830.0116268352,42.697779875141755,125.21486277553846,4,427,VFR_HUD,0.0,0.0,339,0,-1.6999999284744263,-0.0,POSITION_TARGET_GLOBAL_INT,14850208,0,65016,0,0,100.0,0.0,0.0,0.0,0.0,0.0,0.0,0.0,0.0,AHRS,0.003566521918401122,0.0010450517293065786,-0.00633727153763175,0.0,0.0,0.004586453549563885,0.11945448070764542,GPS_RAW_INT,0,0,0,0,0,65535,65535,0,0,0,RC_CHANNELS,14850708,16,1500,1500,0,1500,0,0,0,0,0,0,0,0,0,0,0,0,0,0,255,MISSION_CURRENT,0,NAV_CONTROLLER_OUTPUT,0.0,0.0,0,0,0,101.58000183105469,0.0,0.0,SYS_STATUS,325188639,272759823,17890319,30,0,-1,-1,0,0,0,0,0,0,GLOBAL_POSITION_INT,14850708,0,0,-1700,-1700,0,0,0,33975,RAW_IMU,14850708652,-968,-68,30,-1,0,7,-193,-239,41
12.817064762115479,24.6796875,26.46759033203125,42.71240234375,14.453125116415329,24.539758350742545,99830.0116268352,42.697779875141755,125.21486277553846,4,427,VFR_HUD,0.0,0.0,339,0,-1.6999999284744263,-0.0,POSITION_TARGET_GLOBAL_INT,14850708,0,65016,0,0,100.0,0.0,0.0,0.0,0.0,0.0,0.0,0.0,0.0,AHRS,0.003566521918401122,0.0010450517293065786,-0.00633727153763175,0.0,0.0,0.004586453549563885,0.11945448070764542,GPS_RAW_INT,0,0,0,0,0,65535,65535,0,0,0,RC_CHANNELS,14850708,16,1500,1500,0,1500,0,0,0,0,0,0,0,0,0,0,0,0,0,0,255,MISSION_CURRENT,0,NAV_CONTROLLER_OUTPUT,0.0,0.0,0,0,0,101.58000183105469,0.0,0.0,SYS_STATUS,325188639,272759823,17890319,30,0,-1,-1,0,0,0,0,0,0,GLOBAL_POSITION_INT,14850708,0,0,-1700,-1700,0,0,0,33975,RAW_IMU,14850708652,-968,-68,30,-1,0,7,-193,-239,41
12.911391973495483,24.6796875,26.518325805664062,42.6361083984375,14.453125116415329,24.528848460169343,99826.95788592983,42.70344825344287,125.47218245808114,4,427,VFR_HUD,0.0,0.0,339,0,-1.6999999284744263,-0.0,POSITION_TARGET_GLOBAL_INT,14850708,0,65016,0,0,100.0,0.0,0.0,0.0,0.0,0.0,0.0,0.0,0.0,AHRS,0.003566521918401122,0.0010450517293065786,-0.00633727153763175,0.0,0.0,0.004586453549563885,0.11945448070764542,GPS_RAW_INT,0,0,0,0,0,65535,65535,0,0,0,RC_CHANNELS,14850708,16,1500,1500,0,1500,0,0,0,0,0,0,0,0,0,0,0,0,0,0,255,MISSION_CURRENT,0,NAV_CONTROLLER_OUTPUT,0.0,0.0,0,0,0,101.58000183105469,0.0,0.0,SYS_STATUS,325188639,272759823,17890319,30,0,-1,-1,0,0,0,0,0,0,GLOBAL_POSITION_INT,14851208,0,0,-1300,-1303,0,0,0,33984,RAW_IMU,14850708652,-968,-68,30,-1,0,7,-193,-239,41
12.998114109039307,24.6875,26.459579467773438,42.608642578125,14.453125116415329,24.532378130505094,99832.6721990849,42.69773902596204,124.99067815648597,5,436,VFR_HUD,0.0,0.0,339,0,-1.6999999284744263,-0.0,POSITION_TARGET_GLOBAL_INT,14850708,0,65016,0,0,100.0,0.0,0.0,0.0,0.0,0.0,0.0,0.0,0.0,AHRS,0.003566521918401122,0.0010450517293065786,-0.00633727153763175,0.0,0.0,0.004586453549563885,0.11945448070764542,GPS_RAW_INT,0,0,0,0,0,65535,65535,0,0,0,RC_CHANNELS,14850708,16,1500,1500,0,1500,0,0,0,0,0,0,0,0,0,0,0,0,0,0,255,MISSION_CURRENT,0,NAV_CONTROLLER_OUTPUT,0.0,0.0,0,0,0,101.58000183105469,0.0,0.0,SYS_STATUS,325188639,272759823,17890319,28,0,-1,-1,0,0,0,0,0,0,GLOBAL_POSITION_INT,14851208,0,0,-1300,-1303,0,0,0,33984,RAW_IMU,14850708652,-968,-68,30,-1,0,7,-193,-239,41
12.998114109039307,24.6875,26.459579467773438,42.608642578125,14.453125116415329,24.532378130505094,99832.6721990849,42.69773902596204,124.99067815648597,5,436,VFR_HUD,0.0,0.0,339,0,-1.6999999284744263,-0.0,POSITION_TARGET_GLOBAL_INT,14850708,0,65016,0,0,100.0,0.0,0.0,0.0,0.0,0.0,0.0,0.0,0.0,AHRS,0.003566521918401122,0.0010450517293065786,-0.00633727153763175,0.0,0.0,0.004586453549563885,0.11945448070764542,GPS_RAW_INT,0,0,0,0,0,65535,65535,0,0,0,RC_CHANNELS,14850708,16,1500,1500,0,1500,0,0,0,0,0,0,0,0,0,0,0,0,0,0,255,MISSION_CURRENT,0,NAV_CONTROLLER_OUTPUT,0.0,0.0,0,0,0,101.44999694824219,0.0,0.0,SYS_STATUS,325188639,272759823,17890319,28,0,-1,-1,0,0,0,0,0,0,GLOBAL_POSITION_INT,14851208,0,0,-1300,-1303,0,0,0,33984,RAW_IMU,14850708652,-968,-68,30,-1,0,7,-193,-239,41
13.084926843643188,24.671875,26.472930908203125,42.64984130859375,14.453125116415329,24.53045285575945,99829.44557114504,42.714914714202756,125.26256027362636,5,436,VFR_HUD,0.0,0.0,339,0,-1.6999999284744263,-0.0,POSITION_TARGET_GLOBAL_INT,14850708,0,65016,0,0,100.0,0.0,0.0,0.0,0.0,0.0,0.0,0.0,0.0,AHRS,0.003566521918401122,0.0010450517293065786,-0.00633727153763175,0.0,0.0,0.004586453549563885,0.11945448070764542,GPS_RAW_INT,0,0,0,0,0,65535,65535,0,0,0,RC_CHANNELS,14850708,16,1500,1500,0,1500,0,0,0,0,0,0,0,0,0,0,0,0,0,0,255,MISSION_CURRENT,0,NAV_CONTROLLER_OUTPUT,0.0,0.0,0,0,0,101.44999694824219,0.0,0.0,SYS_STATUS,325188639,272759823,17890319,28,0,-1,-1,0,0,0,0,0,0,GLOBAL_POSITION_INT,14851208,0,0,-1300,-1303,0,0,0,33984,RAW_IMU,14850708652,-968,-68,30,-1,0,7,-193,-239,41
13.084926843643188,24.671875,26.472930908203125,42.64984130859375,14.453125116415329,24.53045285575945,99829.44557114504,42.714914714202756,125.26256027362636,5,436,VFR_HUD,0.0,0.0,339,0,-1.2999999523162842,-0.0,POSITION_TARGET_GLOBAL_INT,14850708,0,65016,0,0,100.0,0.0,0.0,0.0,0.0,0.0,0.0,0.0,0.0,AHRS,0.003566521918401122,0.0010450517293065786,-0.00633727153763175,0.0,0.0,0.004586453549563885,0.11945448070764542,GPS_RAW_INT,0,0,0,0,0,65535,65535,0,0,0,RC_CHANNELS,14850708,16,1500,1500,0,1500,0,0,0,0,0,0,0,0,0,0,0,0,0,0,255,MISSION_CURRENT,0,NAV_CONTROLLER_OUTPUT,0.0,0.0,0,0,0,101.44999694824219,0.0,0.0,SYS_STATUS,325188639,272759823,17890319,28,0,-1,-1,0,0,0,0,0,0,GLOBAL_POSITION_INT,14851208,0,0,-1300,-1303,0,0,0,33984,RAW_IMU,14850708652,-968,-68,30,-1,0,7,-193,-239,41
13.172385692596436,24.6796875,26.472930908203125,42.5811767578125,14.453125116415329,24.53045285575945,99829.64266904551,42.62897692489437,125.24595220668184,5,436,VFR_HUD,0.0,0.0,339,0,-1.2999999523162842,-0.0,POSITION_TARGET_GLOBAL_INT,14850708,0,65016,0,0,100.0,0.0,0.0,0.0,0.0,0.0,0.0,0.0,0.0,AHRS,0.003566521918401122,0.0010450517293065786,-0.00633727153763175,0.0,0.0,0.004586453549563885,0.11945448070764542,GPS_RAW_INT,0,0,0,0,0,65535,65535,0,0,0,RC_CHANNELS,14851208,16,1500,1500,0,1500,0,0,0,0,0,0,0,0,0,0,0,0,0,0,255,MISSION_CURRENT,0,NAV_CONTROLLER_OUTPUT,0.0,0.0,0,0,0,101.44999694824219,0.0,0.0,SYS_STATUS,325188639,272759823,17890319,28,0,-1,-1,0,0,0,0,0,0,GLOBAL_POSITION_INT,14851208,0,0,-1300,-1303,0,0,0,33984,RAW_IMU,14850708652,-968,-68,30,-1,0,7,-193,-239,41
13.261342525482178,24.6796875,26.440887451171875,42.559814453125,14.453125116415329,24.529490218401975,99829.64266904551,42.62897692489437,125.24595220668184,5,436,VFR_HUD,0.0,0.0,339,0,-1.2999999523162842,-0.0,POSITION_TARGET_GLOBAL_INT,14850708,0,65016,0,0,100.0,0.0,0.0,0.0,0.0,0.0,0.0,0.0,0.0,AHRS,0.003566521918401122,0.0010450517293065786,-0.00633727153763175,0.0,0.0,0.004586453549563885,0.11945448070764542,GPS_RAW_INT,0,0,0,0,0,65535,65535,0,0,0,RC_CHANNELS,14851208,16,1500,1500,0,1500,0,0,0,0,0,0,0,0,0,0,0,0,0,0,255,MISSION_CURRENT,0,NAV_CONTROLLER_OUTPUT,0.0,0.0,0,0,0,101.44999694824219,0.0,0.0,SYS_STATUS,325188639,272759823,17890319,28,0,-1,-1,0,0,0,0,0,0,GLOBAL_POSITION_INT,14851208,0,0,-1300,-1303,0,0,0,33984,RAW_IMU,14851208500,-967,-68,31,-2,0,5,-191,-237,44
13.261342525482178,24.6796875,26.440887451171875,42.559814453125,14.453125116415329,24.529490218401975,99829.64266904551,42.62897692489437,125.24595220668184,5,436,VFR_HUD,0.0,0.0,339,0,-1.2999999523162842,-0.0,POSITION_TARGET_GLOBAL_INT,14850708,0,65016,0,0,100.0,0.0,0.0,0.0,0.0,0.0,0.0,0.0,0.0,AHRS,0.003566521918401122,0.0010450517293065786,-0.00633727153763175,0.0,0.0,0.004586453549563885,0.11945448070764542,GPS_RAW_INT,0,0,0,0,0,65535,65535,0,0,0,RC_CHANNELS,14851208,16,1500,1500,0,1500,0,0,0,0,0,0,0,0,0,0,0,0,0,0,255,MISSION_CURRENT,0,NAV_CONTROLLER_OUTPUT,0.0,0.0,0,0,0,101.44999694824219,0.0,0.0,SYS_STATUS,325188639,272759823,17890319,28,0,-1,-1,0,0,0,0,0,0,GLOBAL_POSITION_INT,14851208,0,0,-1300,-1303,0,0,0,33984,RAW_IMU,14851208500,-967,-68,31,-2,0,5,-191,-237,44
13.349070310592651,24.671875,26.491622924804688,42.6513671875,14.453125116415329,24.537833075840012,99830.23341135563,42.69204032434012,125.19617462678173,5,436,VFR_HUD,0.0,0.0,339,0,-1.2999999523162842,-0.0,POSITION_TARGET_GLOBAL_INT,14850708,0,65016,0,0,100.0,0.0,0.0,0.0,0.0,0.0,0.0,0.0,0.0,AHRS,0.003566521918401122,0.0010450517293065786,-0.00633727153763175,0.0,0.0,0.004642587620764971,0.1133635938167572,GPS_RAW_INT,0,0,0,0,0,65535,65535,0,0,0,RC_CHANNELS,14851208,16,1500,1500,0,1500,0,0,0,0,0,0,0,0,0,0,0,0,0,0,255,MISSION_CURRENT,0,NAV_CONTROLLER_OUTPUT,0.0,0.0,0,0,0,101.44999694824219,0.0,0.0,SYS_STATUS,325188639,272759823,17890319,28,0,-1,-1,0,0,0,0,0,0,GLOBAL_POSITION_INT,14851208,0,0,-1300,-1303,0,0,0,33984,RAW_IMU,14851208500,-967,-68,31,-2,0,5,-191,-237,44
13.349070310592651,24.671875,26.491622924804688,42.6513671875,14.453125116415329,24.537833075840012,99830.23341135563,42.69204032434012,125.19617462678173,5,436,VFR_HUD,0.0,0.0,339,0,-1.2999999523162842,-0.0,POSITION_TARGET_GLOBAL_INT,14851208,0,65016,0,0,100.0,0.0,0.0,0.0,0.0,0.0,0.0,0.0,0.0,AHRS,0.003566521918401122,0.0010450517293065786,-0.00633727153763175,0.0,0.0,0.004642587620764971,0.1133635938167572,GPS_RAW_INT,0,0,0,0,0,65535,65535,0,0,0,RC_CHANNELS,14851208,16,1500,1500,0,1500,0,0,0,0,0,0,0,0,0,0,0,0,0,0,255,MISSION_CURRENT,0,NAV_CONTROLLER_OUTPUT,0.0,0.0,0,0,0,101.44999694824219,0.0,0.0,SYS_STATUS,325188639,272759823,17890319,28,0,-1,-1,0,0,0,0,0,0,GLOBAL_POSITION_INT,14851208,0,0,-1300,-1303,0,0,0,33984,RAW_IMU,14851208500,-967,-68,31,-2,0,5,-191,-237,44
13.435356855392456,24.6796875,26.483612060546875,42.64984130859375,14.453125116415329,24.542325384009587,99831.95740875794,42.65769119687273,125.05090720409092,5,436,VFR_HUD,0.0,0.0,339,0,-1.2999999523162842,-0.0,POSITION_TARGET_GLOBAL_INT,14851208,0,65016,0,0,100.0,0.0,0.0,0.0,0.0,0.0,0.0,0.0,0.0,AHRS,0.003566521918401122,0.0010450517293065786,-0.00633727153763175,0.0,0.0,0.004642587620764971,0.1133635938167572,GPS_RAW_INT,0,0,0,0,0,65535,65535,0,0,0,RC_CHANNELS,14851208,16,1500,1500,0,1500,0,0,0,0,0,0,0,0,0,0,0,0,0,0,255,MISSION_CURRENT,0,NAV_CONTROLLER_OUTPUT,0.0,0.0,0,0,0,101.44999694824219,0.0,0.0,SYS_STATUS,325188639,272759823,17890319,28,0,-1,-1,0,0,0,0,0,0,GLOBAL_POSITION_INT,14851208,0,0,-1300,-1303,0,0,0,33984,RAW_IMU,14851208500,-967,-68,31,-2,0,5,-191,-237,44
13.523489236831665,24.6796875,26.48895263671875,42.6971435546875,14.453125116415329,24.541683625686005,99830.82437631232,42.70924839093183,125.14637852470935,5,436,VFR_HUD,0.0,0.0,339,0,-1.2999999523162842,-0.0,POSITION_TARGET_GLOBAL_INT,14851208,0,65016,0,0,100.0,0.0,0.0,0.0,0.0,0.0,0.0,0.0,0.0,AHRS,0.003566521918401122,0.0010450517293065786,-0.00633727153763175,0.0,0.0,0.004642587620764971,0.1133635938167572,GPS_RAW_INT,0,0,0,0,0,65535,65535,0,0,0,RC_CHANNELS,14851208,16,1500,1500,0,1500,0,0,0,0,0,0,0,0,0,0,0,0,0,0,255,MISSION_CURRENT,0,NAV_CONTROLLER_OUTPUT,0.0,0.0,0,0,0,101.44999694824219,0.0,0.0,SYS_STATUS,325188639,272759823,17890319,28,0,-1,-1,0,0,0,0,0,0,GLOBAL_POSITION_INT,14851708,0,0,-1810,-1813,0,0,0,33981,RAW_IMU,14851208500,-967,-68,31,-2,0,5,-191,-237,44
13.523489236831665,24.6796875,26.48895263671875,42.6971435546875,14.453125116415329,24.541683625686005,99830.82437631232,42.70924839093183,125.14637852470935,5,436,VFR_HUD,0.0,0.0,339,0,-1.2999999523162842,-0.0,POSITION_TARGET_GLOBAL_INT,14851208,0,65016,0,0,100.0,0.0,0.0,0.0,0.0,0.0,0.0,0.0,0.0,AHRS,0.003566521918401122,0.0010450517293065786,-0.00633727153763175,0.0,0.0,0.004642587620764971,0.1133635938167572,GPS_RAW_INT,0,0,0,0,0,65535,65535,0,0,0,RC_CHANNELS,14851208,16,1500,1500,0,1500,0,0,0,0,0,0,0,0,0,0,0,0,0,0,255,MISSION_CURRENT,0,NAV_CONTROLLER_OUTPUT,0.0,0.0,0,0,0,101.44999694824219,0.0,0.0,SYS_STATUS,325188639,272759823,17890319,29,0,-1,-1,0,0,0,0,0,0,GLOBAL_POSITION_INT,14851708,0,0,-1810,-1813,0,0,0,33981,RAW_IMU,14851208500,-967,-68,31,-2,0,5,-191,-237,44
13.609421968460083,24.671875,26.459579467773438,42.529296875,14.453125116415329,24.54104186736697,99833.6570682187,42.697786977117595,124.90769253279451,5,436,VFR_HUD,0.0,0.0,339,0,-1.2999999523162842,-0.0,POSITION_TARGET_GLOBAL_INT,14851208,0,65016,0,0,100.0,0.0,0.0,0.0,0.0,0.0,0.0,0.0,0.0,AHRS,0.003566521918401122,0.0010450517293065786,-0.00633727153763175,0.0,0.0,0.004642587620764971,0.1133635938167572,GPS_RAW_INT,0,0,0,0,0,65535,65535,0,0,0,RC_CHANNELS,14851208,16,1500,1500,0,1500,0,0,0,0,0,0,0,0,0,0,0,0,0,0,255,MISSION_CURRENT,0,NAV_CONTROLLER_OUTPUT,0.0,0.0,0,0,0,101.19999694824219,0.0,0.0,SYS_STATUS,325188639,272759823,17890319,29,0,-1,-1,0,0,0,0,0,0,GLOBAL_POSITION_INT,14851708,0,0,-1810,-1813,0,0,0,33981,RAW_IMU,14851208500,-967,-68,31,-2,0,5,-191,-237,44
13.609421968460083,24.671875,26.459579467773438,42.529296875,14.453125116415329,24.54104186736697,99833.6570682187,42.697786977117595,124.90769253279451,5,436,VFR_HUD,0.0,0.0,339,0,-1.2999999523162842,-0.0,POSITION_TARGET_GLOBAL_INT,14851208,0,65016,0,0,100.0,0.0,0.0,0.0,0.0,0.0,0.0,0.0,0.0,AHRS,0.003566521918401122,0.0010450517293065786,-0.00633727153763175,0.0,0.0,0.004642587620764971,0.1133635938167572,GPS_RAW_INT,0,0,0,0,0,65535,65535,0,0,0,RC_CHANNELS,14851208,16,1500,1500,0,1500,0,0,0,0,0,0,0,0,0,0,0,0,0,0,255,MISSION_CURRENT,0,NAV_CONTROLLER_OUTPUT,0.0,0.0,0,0,0,101.19999694824219,0.0,0.0,SYS_STATUS,325188639,272759823,17890319,29,0,-1,-1,0,0,0,0,0,0,GLOBAL_POSITION_INT,14851708,0,0,-1810,-1813,0,0,0,33981,RAW_IMU,14851208500,-967,-68,31,-2,0,5,-191,-237,44
13.697168588638306,24.6640625,26.472930908203125,42.6513671875,14.453125116415329,24.539758350742545,99830.18404911358,42.697779875141755,125.20033401660463,5,436,VFR_HUD,0.0,0.0,339,0,-1.809999942779541,-0.0,POSITION_TARGET_GLOBAL_INT,14851208,0,65016,0,0,100.0,0.0,0.0,0.0,0.0,0.0,0.0,0.0,0.0,AHRS,0.003566521918401122,0.0010450517293065786,-0.00633727153763175,0.0,0.0,0.004642587620764971,0.1133635938167572,GPS_RAW_INT,0,0,0,0,0,65535,65535,0,0,0,RC_CHANNELS,14851208,16,1500,1500,0,1500,0,0,0,0,0,0,0,0,0,0,0,0,0,0,255,MISSION_CURRENT,0,NAV_CONTROLLER_OUTPUT,0.0,0.0,0,0,0,101.19999694824219,0.0,0.0,SYS_STATUS,325188639,272759823,17890319,29,0,-1,-1,0,0,0,0,0,0,GLOBAL_POSITION_INT,14851708,0,0,-1810,-1813,0,0,0,33981,RAW_IMU,14851208500,-967,-68,31,-2,0,5,-191,-237,44
13.784243106842041,24.6640625,26.46759033203125,42.71240234375,14.453125116415329,24.53366164702493,99830.97256570481,42.69201728862678,125.13389177416227,5,436,VFR_HUD,0.0,0.0,339,0,-1.809999942779541,-0.0,POSITION_TARGET_GLOBAL_INT,14851208,0,65016,0,0,100.0,0.0,0.0,0.0,0.0,0.0,0.0,0.0,0.0,AHRS,0.003566521918401122,0.0010450517293065786,-0.00633727153763175,0.0,0.0,0.004642587620764971,0.1133635938167572,GPS_RAW_INT,0,0,0,0,0,65535,65535,0,0,0,RC_CHANNELS,14851708,16,1500,1500,0,1500,0,0,0,0,0,0,0,0,0,0,0,0,0,0,255,MISSION_CURRENT,0,NAV_CONTROLLER_OUTPUT,0.0,0.0,0,0,0,101.19999694824219,0.0,0.0,SYS_STATUS,325188639,272759823,17890319,29,0,-1,-1,0,0,0,0,0,0,GLOBAL_POSITION_INT,14851708,0,0,-1810,-1813,0,0,0,33981,RAW_IMU,14851208500,-967,-68,31,-2,0,5,-191,-237,44
13.784243106842041,24.6640625,26.46759033203125,42.71240234375,14.453125116415329,24.53366164702493,99830.97256570481,42.69201728862678,125.13389177416227,5,436,VFR_HUD,0.0,0.0,339,0,-1.809999942779541,-0.0,POSITION_TARGET_GLOBAL_INT,14851208,0,65016,0,0,100.0,0.0,0.0,0.0,0.0,0.0,0.0,0.0,0.0,AHRS,0.003566521918401122,0.0010450517293065786,-0.00633727153763175,0.0,0.0,0.004642587620764971,0.1133635938167572,GPS_RAW_INT,0,0,0,0,0,65535,65535,0,0,0,RC_CHANNELS,14851708,16,1500,1500,0,1500,0,0,0,0,0,0,0,0,0,0,0,0,0,0,255,MISSION_CURRENT,0,NAV_CONTROLLER_OUTPUT,0.0,0.0,0,0,0,101.19999694824219,0.0,0.0,SYS_STATUS,325188639,272759823,17890319,29,0,-1,-1,0,0,0,0,0,0,GLOBAL_POSITION_INT,14851708,0,0,-1810,-1813,0,0,0,33981,RAW_IMU,14851708558,-966,-67,30,-1,0,5,-168,-220,47
13.869746446609497,24.6640625,26.48895263671875,42.6513671875,14.453125116415329,24.532699009633347,99833.58355017669,42.69774080246745,124.91388718121577,5,436,VFR_HUD,0.0,0.0,339,0,-1.809999942779541,-0.0,POSITION_TARGET_GLOBAL_INT,14851208,0,65016,0,0,100.0,0.0,0.0,0.0,0.0,0.0,0.0,0.0,0.0,AHRS,0.003566521918401122,0.0010450517293065786,-0.00633727153763175,0.0,0.0,0.004642587620764971,0.1133635938167572,GPS_RAW_INT,0,0,0,0,0,65535,65535,0,0,0,RC_CHANNELS,14851708,16,1500,1500,0,1500,0,0,0,0,0,0,0,0,0,0,0,0,0,0,255,MISSION_CURRENT,0,NAV_CONTROLLER_OUTPUT,0.0,0.0,0,0,0,101.19999694824219,0.0,0.0,SYS_STATUS,325188639,272759823,17890319,29,0,-1,-1,0,0,0,0,0,0,GLOBAL_POSITION_INT,14851708,0,0,-1810,-1813,0,0,0,33981,RAW_IMU,14851708558,-966,-67,30,-1,0,5,-168,-220,47
13.869746446609497,24.6640625,26.48895263671875,42.6513671875,14.453125116415329,24.532699009633347,99833.58355017669,42.69774080246745,124.91388718121577,5,436,VFR_HUD,0.0,0.0,339,0,-1.809999942779541,-0.0,POSITION_TARGET_GLOBAL_INT,14851208,0,65016,0,0,100.0,0.0,0.0,0.0,0.0,0.0,0.0,0.0,0.0,AHRS,0.003566521918401122,0.0010450517293065786,-0.00633727153763175,0.0,0.0,0.0046226754784584045,0.12497477233409882,GPS_RAW_INT,0,0,0,0,0,65535,65535,0,0,0,RC_CHANNELS,14851708,16,1500,1500,0,1500,0,0,0,0,0,0,0,0,0,0,0,0,0,0,255,MISSION_CURRENT,0,NAV_CONTROLLER_OUTPUT,0.0,0.0,0,0,0,101.19999694824219,0.0,0.0,SYS_STATUS,325188639,272759823,17890319,29,0,-1,-1,0,0,0,0,0,0,GLOBAL_POSITION_INT,14851708,0,0,-1810,-1813,0,0,0,33981,RAW_IMU,14851708558,-966,-67,30,-1,0,5,-168,-220,47
13.956133365631104,24.6640625,26.494293212890625,42.5048828125,14.453125116415329,24.539758350742545,99833.97734109403,42.70923768884048,124.88070630413934,5,436,VFR_HUD,0.0,0.0,339,0,-1.809999942779541,-0.0,POSITION_TARGET_GLOBAL_INT,14851708,0,65016,0,0,100.0,0.0,0.0,0.0,0.0,0.0,0.0,0.0,0.0,AHRS,0.003566521918401122,0.0010450517293065786,-0.00633727153763175,0.0,0.0,0.0046226754784584045,0.12497477233409882,GPS_RAW_INT,0,0,0,0,0,65535,65535,0,0,0,RC_CHANNELS,14851708,16,1500,1500,0,1500,0,0,0,0,0,0,0,0,0,0,0,0,0,0,255,MISSION_CURRENT,0,NAV_CONTROLLER_OUTPUT,0.0,0.0,0,0,0,101.19999694824219,0.0,0.0,SYS_STATUS,325188639,272759823,17890319,29,0,-1,-1,0,0,0,0,0,0,GLOBAL_POSITION_INT,14851708,0,0,-1810,-1813,0,0,0,33981,RAW_IMU,14851708558,-966,-67,30,-1,0,5,-168,-220,47
14.043091535568237,24.6640625,26.491622924804688,42.61932373046875,14.453125116415329,24.539758350742545,99833.97734109403,42.70923768884048,124.88070630413934,4,427,VFR_HUD,0.0,0.0,339,0,-1.809999942779541,-0.0,POSITION_TARGET_GLOBAL_INT,14851708,0,65016,0,0,100.0,0.0,0.0,0.0,0.0,0.0,0.0,0.0,0.0,AHRS,0.003566521918401122,0.0010450517293065786,-0.00633727153763175,0.0,0.0,0.0046226754784584045,0.12497477233409882,GPS_RAW_INT,0,0,0,0,0,65535,65535,0,0,0,RC_CHANNELS,14851708,16,1500,1500,0,1500,0,0,0,0,0,0,0,0,0,0,0,0,0,0,255,MISSION_CURRENT,0,NAV_CONTROLLER_OUTPUT,0.0,0.0,0,0,0,101.19999694824219,0.0,0.0,SYS_STATUS,325188639,272759823,17890319,29,0,-1,-1,0,0,0,0,0,0,GLOBAL_POSITION_INT,14852208,0,0,-1530,-1539,0,0,0,33979,RAW_IMU,14851708558,-966,-67,30,-1,0,5,-168,-220,47
14.043091535568237,24.6640625,26.491622924804688,42.61932373046875,14.453125116415329,24.539758350742545,99833.97734109403,42.70923768884048,124.88070630413934,4,427,VFR_HUD,0.0,0.0,339,0,-1.809999942779541,-0.0,POSITION_TARGET_GLOBAL_INT,14851708,0,65016,0,0,100.0,0.0,0.0,0.0,0.0,0.0,0.0,0.0,0.0,AHRS,0.003566521918401122,0.0010450517293065786,-0.00633727153763175,0.0,0.0,0.0046226754784584045,0.12497477233409882,GPS_RAW_INT,0,0,0,0,0,65535,65535,0,0,0,RC_CHANNELS,14851708,16,1500,1500,0,1500,0,0,0,0,0,0,0,0,0,0,0,0,0,0,255,MISSION_CURRENT,0,NAV_CONTROLLER_OUTPUT,0.0,0.0,0,0,0,101.19999694824219,0.0,0.0,SYS_STATUS,325188639,272759823,17890319,28,0,-1,-1,0,0,0,0,0,0,GLOBAL_POSITION_INT,14852208,0,0,-1530,-1539,0,0,0,33979,RAW_IMU,14851708558,-966,-67,30,-1,0,5,-168,-220,47
14.130038976669312,24.6640625,26.491622924804688,42.7154541015625,14.453125116415329,24.544892417349388,99830.62715316185,42.65197611260117,125.16299698632415,4,427,VFR_HUD,0.0,0.0,339,0,-1.809999942779541,-0.0,POSITION_TARGET_GLOBAL_INT,14851708,0,65016,0,0,100.0,0.0,0.0,0.0,0.0,0.0,0.0,0.0,0.0,AHRS,0.003566521918401122,0.0010450517293065786,-0.00633727153763175,0.0,0.0,0.0046226754784584045,0.12497477233409882,GPS_RAW_INT,0,0,0,0,0,65535,65535,0,0,0,RC_CHANNELS,14851708,16,1500,1500,0,1500,0,0,0,0,0,0,0,0,0,0,0,0,0,0,255,MISSION_CURRENT,0,NAV_CONTROLLER_OUTPUT,0.0,0.0,0,0,0,101.47000122070312,0.0,0.0,SYS_STATUS,325188639,272759823,17890319,28,0,-1,-1,0,0,0,0,0,0,GLOBAL_POSITION_INT,14852208,0,0,-1530,-1539,0,0,0,33979,RAW_IMU,14851708558,-966,-67,30,-1,0,5,-168,-220,47
14.130038976669312,24.6640625,26.491622924804688,42.7154541015625,14.453125116415329,24.544892417349388,99830.62715316185,42.65197611260117,125.16299698632415,4,427,VFR_HUD,0.0,0.0,339,0,-1.809999942779541,-0.0,POSITION_TARGET_GLOBAL_INT,14851708,0,65016,0,0,100.0,0.0,0.0,0.0,0.0,0.0,0.0,0.0,0.0,AHRS,0.003566521918401122,0.0010450517293065786,-0.00633727153763175,0.0,0.0,0.0046226754784584045,0.12497477233409882,GPS_RAW_INT,0,0,0,0,0,65535,65535,0,0,0,RC_CHANNELS,14851708,16,1500,1500,0,1500,0,0,0,0,0,0,0,0,0,0,0,0,0,0,255,MISSION_CURRENT,0,NAV_CONTROLLER_OUTPUT,0.0,0.0,0,0,0,101.47000122070312,0.0,0.0,SYS_STATUS,325188639,272759823,17890319,28,0,-1,-1,0,0,0,0,0,0,GLOBAL_POSITION_INT,14852208,0,0,-1530,-1539,0,0,0,33979,RAW_IMU,14851708558,-966,-67,30,-1,0,5,-168,-220,47
14.21514344215393,24.6640625,26.459579467773438,42.6300048828125,14.453125116415329,24.542004504847228,99830.52877762084,42.69206335307644,125.17128633830278,4,427,VFR_HUD,0.0,0.0,339,0,-1.5299999713897705,-0.0,POSITION_TARGET_GLOBAL_INT,14851708,0,65016,0,0,100.0,0.0,0.0,0.0,0.0,0.0,0.0,0.0,0.0,AHRS,0.003566521918401122,0.0010450517293065786,-0.00633727153763175,0.0,0.0,0.0046226754784584045,0.12497477233409882,GPS_RAW_INT,0,0,0,0,0,65535,65535,0,0,0,RC_CHANNELS,14851708,16,1500,1500,0,1500,0,0,0,0,0,0,0,0,0,0,0,0,0,0,255,MISSION_CURRENT,0,NAV_CONTROLLER_OUTPUT,0.0,0.0,0,0,0,101.47000122070312,0.0,0.0,SYS_STATUS,325188639,272759823,17890319,28,0,-1,-1,0,0,0,0,0,0,GLOBAL_POSITION_INT,14852208,0,0,-1530,-1539,0,0,0,33979,RAW_IMU,14851708558,-966,-67,30,-1,0,5,-168,-220,47
14.305115222930908,24.65625,26.475601196289062,42.6116943359375,14.453125116415329,24.536228680119166,99833.09076123337,42.66338694076957,124.95540979491196,4,427,VFR_HUD,0.0,0.0,339,0,-1.5299999713897705,-0.0,POSITION_TARGET_GLOBAL_INT,14851708,0,65016,0,0,100.0,0.0,0.0,0.0,0.0,0.0,0.0,0.0,0.0,AHRS,0.003566521918401122,0.0010450517293065786,-0.00633727153763175,0.0,0.0,0.0046226754784584045,0.12497477233409882,GPS_RAW_INT,0,0,0,0,0,65535,65535,0,0,0,RC_CHANNELS,14852208,16,1500,1500,0,1500,0,0,0,0,0,0,0,0,0,0,0,0,0,0,255,MISSION_CURRENT,0,NAV_CONTROLLER_OUTPUT,0.0,0.0,0,0,0,101.47000122070312,0.0,0.0,SYS_STATUS,325188639,272759823,17890319,28,0,-1,-1,0,0,0,0,0,0,GLOBAL_POSITION_INT,14852208,0,0,-1530,-1539,0,0,0,33979,RAW_IMU,14851708558,-966,-67,30,-1,0,5,-168,-220,47
