Time (s),TMP117 Temp (C),SHTC3 Temp (C),SHTC Humidity (%),Micro Pressure (psi),BME280 Temp (C),BME280 Press. (Pa),BME280 Humidity (%),BME280 Altitude (m),CCS811 tVOC (ppb),CCS811 CO2 (ppm),mavpackettype,airspeed,groundspeed,heading,throttle,alt,climb,mavpackettype,time_boot_ms,coordinate_frame,type_mask,lat_int,lon_int,alt,vx,vy,vz,afx,afy,afz,yaw,yaw_rate,mavpackettype,omegaIx,omegaIy,omegaIz,accel_weight,renorm_val,error_rp,error_yaw,mavpackettype,time_usec,fix_type,lat,lon,alt,eph,epv,vel,cog,satellites_visible,time (ms),mavpackettype,time_boot_ms,chancount,chan1_raw,chan2_raw,chan3_raw,chan4_raw,chan5_raw,chan6_raw,chan7_raw,chan8_raw,chan9_raw,chan10_raw,chan11_raw,chan12_raw,chan13_raw,chan14_raw,chan15_raw,chan16_raw,chan17_raw,chan18_raw,rssi,mavpackettype,seq,mavpackettype,nav_roll,nav_pitch,nav_bearing,target_bearing,wp_dist,alt_error,aspd_error,xtrack_error,time (ms),mavpackettype,onboard_control_sensors_present,onboard_control_sensors_enabled,onboard_control_sensors_health,load,voltage_battery,current_battery,battery_remaining,drop_rate_comm,errors_comm,errors_count1,errors_count2,errors_count3,errors_count4,mavpackettype,time_boot_ms,lat,lon,alt,relative_alt,vx,vy,vz,hdg,mavpackettype,time_usec,xacc,yacc,zacc,xgyro,ygyro,zgyro,xmag,ymag,zmag
10.893954515457153,24.734375,26.451568603515625,42.50946044921875,14.453125116415329,24.513446263950414,99828.73205539989,42.7892901724065,125.32268349664085,1,409,VFR_HUD,0.0,0.0,356,0,-1.5699999332427979,-0.0,POSITION_TARGET_GLOBAL_INT,15086208,0,65016,0,0,100.0,0.0,0.0,0.0,0.0,0.0,0.0,0.0,0.0,AHRS,0.0034399880096316338,0.0008808736456558108,-0.005559877958148718,0.0,0.0,0.008969718590378761,0.26998838782310486,GPS_RAW_INT,0,1,0,0,-17000,9999,9999,0,0,0,RC_CHANNELS,15086208,16,1500,1500,0,1500,0,0,0,0,0,0,0,0,0,0,0,0,0,0,255,MISSION_CURRENT,0,NAV_CONTROLLER_OUTPUT,0.0,0.0,0,0,0,101.72000122070312,0.0,0.0,SYS_STATUS,325188639,272759823,17890319,30,0,-1,-1,0,0,0,0,0,0,GLOBAL_POSITION_INT,15086708,0,0,-1570,-1577,0,0,0,35646,RAW_IMU,15086208507,-968,-68,32,-2,0,6,-196,-256,37
10.893954515457153,24.734375,26.451568603515625,42.50946044921875,14.453125116415329,24.513446263950414,99828.73205539989,42.7892901724065,125.32268349664085,1,409,VFR_HUD,0.0,0.0,356,0,-1.5699999332427979,-0.0,POSITION_TARGET_GLOBAL_INT,15086208,0,65016,0,0,100.0,0.0,0.0,0.0,0.0,0.0,0.0,0.0,0.0,AHRS,0.0034399880096316338,0.0008808736456558108,-0.005559877958148718,0.0,0.0,0.008969718590378761,0.26998838782310486,GPS_RAW_INT,0,1,0,0,-17000,9999,9999,0,0,0,RC_CHANNELS,15086708,16,1500,1500,0,1500,0,0,0,0,0,0,0,0,0,0,0,0,0,0,255,MISSION_CURRENT,0,NAV_CONTROLLER_OUTPUT,0.0,0.0,0,0,0,101.72000122070312,0.0,0.0,SYS_STATUS,325188639,272759823,17890319,30,0,-1,-1,0,0,0,0,0,0,GLOBAL_POSITION_INT,15086708,0,0,-1570,-1577,0,0,0,35646,RAW_IMU,15086208507,-968,-68,32,-2,0,6,-196,-256,37
10.981250524520874,24.734375,26.491622924804688,42.57354736328125,14.453125116415329,24.52692318549873,99833.73158241024,42.71489503141203,124.90141395233857,1,409,VFR_HUD,0.0,0.0,356,0,-1.5699999332427979,-0.0,POSITION_TARGET_GLOBAL_INT,15086208,0,65016,0,0,100.0,0.0,0.0,0.0,0.0,0.0,0.0,0.0,0.0,AHRS,0.0034399880096316338,0.0008808736456558108,-0.005559877958148718,0.0,0.0,0.008969718590378761,0.26998838782310486,GPS_RAW_INT,0,1,0,0,-17000,9999,9999,0,0,0,RC_CHANNELS,15086708,16,1500,1500,0,1500,0,0,0,0,0,0,0,0,0,0,0,0,0,0,255,MISSION_CURRENT,0,NAV_CONTROLLER_OUTPUT,0.0,0.0,0,0,0,101.72000122070312,0.0,0.0,SYS_STATUS,325188639,272759823,17890319,30,0,-1,-1,0,0,0,0,0,0,GLOBAL_POSITION_INT,15086708,0,0,-1570,-1577,0,0,0,35646,RAW_IMU,15086708555,-968,-69,30,-1,0,7,-194,-245,38
10.981250524520874,24.734375,26.491622924804688,42.57354736328125,14.453125116415329,24.52692318549873,99833.73158241024,42.71489503141203,124.90141395233857,1,409,VFR_HUD,0.0,0.0,356,0,-1.5699999332427979,-0.0,POSITION_TARGET_GLOBAL_INT,15086208,0,65016,0,0,100.0,0.0,0.0,0.0,0.0,0.0,0.0,0.0,0.0,AHRS,0.0034399880096316338,0.0008808736456558108,-0.005559877958148718,0.0,0.0,0.008969718590378761,0.26998838782310486,GPS_RAW_INT,0,0,0,0,0,65535,65535,0,0,0,RC_CHANNELS,15086708,16,1500,1500,0,1500,0,0,0,0,0,0,0,0,0,0,0,0,0,0,255,MISSION_CURRENT,0,NAV_CONTROLLER_OUTPUT,0.0,0.0,0,0,0,101.72000122070312,0.0,0.0,SYS_STATUS,325188639,272759823,17890319,30,0,-1,-1,0,0,0,0,0,0,GLOBAL_POSITION_INT,15086708,0,0,-1570,-1577,0,0,0,35646,RAW_IMU,15086708555,-968,-69,30,-1,0,7,-194,-245,38
11.073297500610352,24.734375,26.502304077148438,42.49114990234375,14.453125116415329,24.52916933928509,99831.3176161813,42.6977212586373,125.10481715192256,2,414,VFR_HUD,0.0,0.0,356,0,-1.5699999332427979,-0.0,POSITION_TARGET_GLOBAL_INT,15086208,0,65016,0,0,100.0,0.0,0.0,0.0,0.0,0.0,0.0,0.0,0.0,AHRS,0.0034399880096316338,0.0008808736456558108,-0.005559877958148718,0.0,0.0,0.009088143706321716,0.26462823152542114,GPS_RAW_INT,0,0,0,0,0,65535,65535,0,0,0,RC_CHANNELS,15086708,16,1500,1500,0,1500,0,0,0,0,0,0,0,0,0,0,0,0,0,0,255,MISSION_CURRENT,0,NAV_CONTROLLER_OUTPUT,0.0,0.0,0,0,0,101.72000122070312,0.0,0.0,SYS_STATUS,325188639,272759823,17890319,30,0,-1,-1,0,0,0,0,0,0,GLOBAL_POSITION_INT,15086708,0,0,-1570,-1577,0,0,0,35646,RAW_IMU,15086708555,-968,-69,30,-1,0,7,-194,-245,38
11.164329767227173,24.7265625,26.518325805664062,42.5262451171875,14.453125116415329,24.52916933928509,99833.90390902934,42.69199247313286,124.88689369201157,2,414,VFR_HUD,0.0,0.0,356,0,-1.5699999332427979,-0.0,POSITION_TARGET_GLOBAL_INT,15086708,0,65016,0,0,100.0,0.0,0.0,0.0,0.0,0.0,0.0,0.0,0.0,AHRS,0.0034399880096316338,0.0008808736456558108,-0.005559877958148718,0.0,0.0,0.009088143706321716,0.26462823152542114,GPS_RAW_INT,0,0,0,0,0,65535,65535,0,0,0,RC_CHANNELS,15086708,16,1500,1500,0,1500,0,0,0,0,0,0,0,0,0,0,0,0,0,0,255,MISSION_CURRENT,0,NAV_CONTROLLER_OUTPUT,0.0,0.0,0,0,0,101.72000122070312,0.0,0.0,SYS_STATUS,325188639,272759823,17890319,30,0,-1,-1,0,0,0,0,0,0,GLOBAL_POSITION_INT,15086708,0,0,-1570,-1577,0,0,0,35646,RAW_IMU,15086708555,-968,-69,30,-1,0,7,-194,-245,38
11.164329767227173,24.7265625,26.518325805664062,42.5262451171875,14.453125116415329,24.52916933928509,99833.90390902934,42.69199247313286,124.88689369201157,2,414,VFR_HUD,0.0,0.0,356,0,-1.5699999332427979,-0.0,POSITION_TARGET_GLOBAL_INT,15086708,0,65016,0,0,100.0,0.0,0.0,0.0,0.0,0.0,0.0,0.0,0.0,AHRS,0.0034399880096316338,0.0008808736456558108,-0.005559877958148718,0.0,0.0,0.009088143706321716,0.26462823152542114,GPS_RAW_INT,0,0,0,0,0,65535,65535,0,0,0,RC_CHANNELS,15086708,16,1500,1500,0,1500,0,0,0,0,0,0,0,0,0,0,0,0,0,0,255,MISSION_CURRENT,0,NAV_CONTROLLER_OUTPUT,0.0,0.0,0,0,0,101.72000122070312,0.0,0.0,SYS_STATUS,325188639,272759823,17890319,30,0,-1,-1,0,0,0,0,0,0,GLOBAL_POSITION_INT,15087208,0,0,-1640,-1647,0,0,0,35647,RAW_IMU,15086708555,-968,-69,30,-1,0,7,-194,-245,38
11.253416776657104,24.734375,26.523666381835938,42.49420166015625,14.453125116415329,24.528848460169343,99833.1649817384,42.697719481677765,124.94915593180929,2,414,VFR_HUD,0.0,0.0,356,0,-1.5699999332427979,-0.0,POSITION_TARGET_GLOBAL_INT,15086708,0,65016,0,0,100.0,0.0,0.0,0.0,0.0,0.0,0.0,0.0,0.0,AHRS,0.0034399880096316338,0.0008808736456558108,-0.005559877958148718,0.0,0.0,0.009088143706321716,0.26462823152542114,GPS_RAW_INT,0,0,0,0,0,65535,65535,0,0,0,RC_CHANNELS,15086708,16,1500,1500,0,1500,0,0,0,0,0,0,0,0,0,0,0,0,0,0,255,MISSION_CURRENT,0,NAV_CONTROLLER_OUTPUT,0.0,0.0,0,0,0,101.72000122070312,0.0,0.0,SYS_STATUS,325188639,272759823,17890319,28,0,-1,-1,0,0,0,0,0,0,GLOBAL_POSITION_INT,15087208,0,0,-1640,-1647,0,0,0,35647,RAW_IMU,15086708555,-968,-69,30,-1,0,7,-194,-245,38
11.253416776657104,24.734375,26.523666381835938,42.49420166015625,14.453125116415329,24.528848460169343,99833.1649817384,42.697719481677765,124.94915593180929,2,414,VFR_HUD,0.0,0.0,356,0,-1.5699999332427979,-0.0,POSITION_TARGET_GLOBAL_INT,15086708,0,65016,0,0,100.0,0.0,0.0,0.0,0.0,0.0,0.0,0.0,0.0,AHRS,0.0034399880096316338,0.0008808736456558108,-0.005559877958148718,0.0,0.0,0.009088143706321716,0.26462823152542114,GPS_RAW_INT,0,0,0,0,0,65535,65535,0,0,0,RC_CHANNELS,15086708,16,1500,1500,0,1500,0,0,0,0,0,0,0,0,0,0,0,0,0,0,255,MISSION_CURRENT,0,NAV_CONTROLLER_OUTPUT,0.0,0.0,0,0,0,101.58000183105469,0.0,0.0,SYS_STATUS,325188639,272759823,17890319,28,0,-1,-1,0,0,0,0,0,0,GLOBAL_POSITION_INT,15087208,0,0,-1640,-1647,0,0,0,35647,RAW_IMU,15086708555,-968,-69,30,-1,0,7,-194,-245,38
11.34302830696106,24.734375,26.51031494140625,42.5689697265625,14.453125116415329,24.507028682965597,99826.71262533203,42.691870049982164,125.49284931407401,2,414,VFR_HUD,0.0,0.0,356,0,-1.5699999332427979,-0.0,POSITION_TARGET_GLOBAL_INT,15086708,0,65016,0,0,100.0,0.0,0.0,0.0,0.0,0.0,0.0,0.0,0.0,AHRS,0.0034399880096316338,0.0008808736456558108,-0.005559877958148718,0.0,0.0,0.009088143706321716,0.26462823152542114,GPS_RAW_INT,0,0,0,0,0,65535,65535,0,0,0,RC_CHANNELS,15086708,16,1500,1500,0,1500,0,0,0,0,0,0,0,0,0,0,0,0,0,0,255,MISSION_CURRENT,0,NAV_CONTROLLER_OUTPUT,0.0,0.0,0,0,0,101.58000183105469,0.0,0.0,SYS_STATUS,325188639,272759823,17890319,28,0,-1,-1,0,0,0,0,0,0,GLOBAL_POSITION_INT,15087208,0,0,-1640,-1647,0,0,0,35647,RAW_IMU,15086708555,-968,-69,30,-1,0,7,-194,-245,38
11.43309998512268,24.734375,26.4996337890625,42.47894287109375,14.453125116415329,24.522430878093132,99828.73165045181,42.68622652599839,125.32271761901546,2,414,VFR_HUD,0.0,0.0,356,0,-1.6399999856948853,-0.0,POSITION_TARGET_GLOBAL_INT,15086708,0,65016,0,0,100.0,0.0,0.0,0.0,0.0,0.0,0.0,0.0,0.0,AHRS,0.0034399880096316338,0.0008808736456558108,-0.005559877958148718,0.0,0.0,0.009088143706321716,0.26462823152542114,GPS_RAW_INT,0,0,0,0,0,65535,65535,0,0,0,RC_CHANNELS,15086708,16,1500,1500,0,1500,0,0,0,0,0,0,0,0,0,0,0,0,0,0,255,MISSION_CURRENT,0,NAV_CONTROLLER_OUTPUT,0.0,0.0,0,0,0,101.58000183105469,0.0,0.0,SYS_STATUS,325188639,272759823,17890319,28,0,-1,-1,0,0,0,0,0,0,GLOBAL_POSITION_INT,15087208,0,0,-1640,-1647,0,0,0,35647,RAW_IMU,15086708555,-968,-69,30,-1,0,7,-194,-245,38
11.43309998512268,24.734375,26.4996337890625,42.47894287109375,14.453125116415329,24.522430878093132,99828.73165045181,42.68622652599839,125.32271761901546,2,414,VFR_HUD,0.0,0.0,356,0,-1.6399999856948853,-0.0,POSITION_TARGET_GLOBAL_INT,15086708,0,65016,0,0,100.0,0.0,0.0,0.0,0.0,0.0,0.0,0.0,0.0,AHRS,0.0034399880096316338,0.0008808736456558108,-0.005559877958148718,0.0,0.0,0.009088143706321716,0.26462823152542114,GPS_RAW_INT,0,0,0,0,0,65535,65535,0,0,0,RC_CHANNELS,15087208,16,1500,1500,0,1500,0,0,0,0,0,0,0,0,0,0,0,0,0,0,255,MISSION_CURRENT,0,NAV_CONTROLLER_OUTPUT,0.0,0.0,0,0,0,101.58000183105469,0.0,0.0,SYS_STATUS,325188639,272759823,17890319,28,0,-1,-1,0,0,0,0,0,0,GLOBAL_POSITION_INT,15087208,0,0,-1640,-1647,0,0,0,35647,RAW_IMU,15086708555,-968,-69,30,-1,0,7,-194,-245,38
11.520796537399292,24.734375,26.48895263671875,42.535400390625,14.453125116415329,24.51601329647167,99828.95362054948,42.69191975263881,125.30401363887319,2,414,VFR_HUD,0.0,0.0,356,0,-1.6399999856948853,-0.0,POSITION_TARGET_GLOBAL_INT,15086708,0,65016,0,0,100.0,0.0,0.0,0.0,0.0,0.0,0.0,0.0,0.0,AHRS,0.0034399880096316338,0.0008808736456558108,-0.005559877958148718,0.0,0.0,0.009088143706321716,0.26462823152542114,GPS_RAW_INT,0,0,0,0,0,65535,65535,0,0,0,RC_CHANNELS,15087208,16,1500,1500,0,1500,0,0,0,0,0,0,0,0,0,0,0,0,0,0,255,MISSION_CURRENT,0,NAV_CONTROLLER_OUTPUT,0.0,0.0,0,0,0,101.58000183105469,0.0,0.0,SYS_STATUS,325188639,272759823,17890319,28,0,-1,-1,0,0,0,0,0,0,GLOBAL_POSITION_INT,15087208,0,0,-1640,-1647,0,0,0,35647,RAW_IMU,15087208424,-968,-67,30,-2,-1,6,-167,-226,40
11.520796537399292,24.734375,26.48895263671875,42.535400390625,14.453125116415329,24.51601329647167,99828.95362054948,42.69191975263881,125.30401363887319,2,414,VFR_HUD,0.0,0.0,356,0,-1.6399999856948853,-0.0,POSITION_TARGET_GLOBAL_INT,15086708,0,65016,0,0,100.0,0.0,0.0,0.0,0.0,0.0,0.0,0.0,0.0,AHRS,0.0034399880096316338,0.0008808736456558108,-0.005559877958148718,0.0,0.0,0.009088143706321716,0.26462823152542114,GPS_RAW_INT,0,0,0,0,0,65535,65535,0,0,0,RC_CHANNELS,15087208,16,1500,1500,0,1500,0,0,0,0,0,0,0,0,0,0,0,0,0,0,255,MISSION_CURRENT,0,NAV_CONTROLLER_OUTPUT,0.0,0.0,0,0,0,101.58000183105469,0.0,0.0,SYS_STATUS,325188639,272759823,17890319,28,0,-1,-1,0,0,0,0,0,0,GLOBAL_POSITION_INT,15087208,0,0,-1640,-1647,0,0,0,35647,RAW_IMU,15087208424,-968,-67,30,-2,-1,6,-167,-226,40
11.610306978225708,24.734375,26.51031494140625,42.65899658203125,14.453125116415329,24.51601329647167,99828.95362054948,42.69191975263881,125.30401363887319,2,414,VFR_HUD,0.0,0.0,356,0,-1.6399999856948853,-0.0,POSITION_TARGET_GLOBAL_INT,15086708,0,65016,0,0,100.0,0.0,0.0,0.0,0.0,0.0,0.0,0.0,0.0,AHRS,0.0034399880096316338,0.0008808736456558108,-0.005559877958148718,0.0,0.0,0.00914422795176506,0.2545047104358673,GPS_RAW_INT,0,0,0,0,0,65535,65535,0,0,0,RC_CHANNELS,15087208,16,1500,1500,0,1500,0,0,0,0,0,0,0,0,0,0,0,0,0,0,255,MISSION_CURRENT,0,NAV_CONTROLLER_OUTPUT,0.0,0.0,0,0,0,101.58000183105469,0.0,0.0,SYS_STATUS,325188639,272759823,17890319,28,0,-1,-1,0,0,0,0,0,0,GLOBAL_POSITION_INT,15087208,0,0,-1640,-1647,0,0,0,35647,RAW_IMU,15087208424,-968,-67,30,-2,-1,6,-167,-226,40
11.699622869491577,24.734375,26.518325805664062,42.58880615234375,14.453125116415329,24.521468240820923,99830.82533432505,42.640391299582234,125.14629780048729,2,414,VFR_HUD,0.0,0.0,356,0,-1.6399999856948853,-0.0,POSITION_TARGET_GLOBAL_INT,15087208,0,65016,0,0,100.0,0.0,0.0,0.0,0.0,0.0,0.0,0.0,0.0,AHRS,0.0034399880096316338,0.0008808736456558108,-0.005559877958148718,0.0,0.0,0.00914422795176506,0.2545047104358673,GPS_RAW_INT,0,0,0,0,0,65535,65535,0,0,0,RC_CHANNELS,15087208,16,1500,1500,0,1500,0,0,0,0,0,0,0,0,0,0,0,0,0,0,255,MISSION_CURRENT,0,NAV_CONTROLLER_OUTPUT,0.0,0.0,0,0,0,101.58000183105469,0.0,0.0,SYS_STATUS,325188639,272759823,17890319,28,0,-1,-1,0,0,0,0,0,0,GLOBAL_POSITION_INT,15087208,0,0,-1640,-1647,0,0,0,35647,RAW_IMU,15087208424,-968,-67,30,-2,-1,6,-167,-226,40
11.699622869491577,24.734375,26.518325805664062,42.58880615234375,14.453125116415329,24.521468240820923,99830.82533432505,42.640391299582234,125.14629780048729,2,414,VFR_HUD,0.0,0.0,356,0,-1.6399999856948853,-0.0,POSITION_TARGET_GLOBAL_INT,15087208,0,65016,0,0,100.0,0.0,0.0,0.0,0.0,0.0,0.0,0.0,0.0,AHRS,0.0034399880096316338,0.0008808736456558108,-0.005559877958148718,0.0,0.0,0.00914422795176506,0.2545047104358673,GPS_RAW_INT,0,0,0,0,0,65535,65535,0,0,0,RC_CHANNELS,15087208,16,1500,1500,0,1500,0,0,0,0,0,0,0,0,0,0,0,0,0,0,255,MISSION_CURRENT,0,NAV_CONTROLLER_OUTPUT,0.0,0.0,0,0,0,101.58000183105469,0.0,0.0,SYS_STATUS,325188639,272759823,17890319,28,0,-1,-1,0,0,0,0,0,0,GLOBAL_POSITION_INT,15087708,0,0,-1580,-1582,0,0,0,35652,RAW_IMU,15087208424,-968,-67,30,-2,-1,6,-167,-226,40
11.787039041519165,24.7421875,26.48895263671875,42.53997802734375,14.453125116415329,24.52692318549873,99830.80046108601,42.72635245819453,125.14839367349018,2,414,VFR_HUD,0.0,0.0,356,0,-1.6399999856948853,-0.0,POSITION_TARGET_GLOBAL_INT,15087208,0,65016,0,0,100.0,0.0,0.0,0.0,0.0,0.0,0.0,0.0,0.0,AHRS,0.0034399880096316338,0.0008808736456558108,-0.005559877958148718,0.0,0.0,0.00914422795176506,0.2545047104358673,GPS_RAW_INT,0,0,0,0,0,65535,65535,0,0,0,RC_CHANNELS,15087208,16,1500,1500,0,1500,0,0,0,0,0,0,0,0,0,0,0,0,0,0,255,MISSION_CURRENT,0,NAV_CONTROLLER_OUTPUT,0.0,0.0,0,0,0,101.58000183105469,0.0,0.0,SYS_STATUS,325188639,272759823,17890319,29,0,-1,-1,0,0,0,0,0,0,GLOBAL_POSITION_INT,15087708,0,0,-1580,-1582,0,0,0,35652,RAW_IMU,15087208424,-968,-67,30,-2,-1,6,-167,-226,40
11.787039041519165,24.7421875,26.48895263671875,42.53997802734375,14.453125116415329,24.52692318549873,99830.80046108601,42.72635245819453,125.14839367349018,2,414,VFR_HUD,0.0,0.0,356,0,-1.6399999856948853,-0.0,POSITION_TARGET_GLOBAL_INT,15087208,0,65016,0,0,100.0,0.0,0.0,0.0,0.0,0.0,0.0,0.0,0.0,AHRS,0.0034399880096316338,0.0008808736456558108,-0.005559877958148718,0.0,0.0,0.00914422795176506,0.2545047104358673,GPS_RAW_INT,0,0,0,0,0,65535,65535,0,0,0,RC_CHANNELS,15087208,16,1500,1500,0,1500,0,0,0,0,0,0,0,0,0,0,0,0,0,0,255,MISSION_CURRENT,0,NAV_CONTROLLER_OUTPUT,0.0,0.0,0,0,0,101.75,0.0,0.0,SYS_STATUS,325188639,272759823,17890319,29,0,-1,-1,0,0,0,0,0,0,GLOBAL_POSITION_INT,15087708,0,0,-1580,-1582,0,0,0,35652,RAW_IMU,15087208424,-968,-67,30,-2,-1,6,-167,-226,40
11.876283645629883,24.734375,26.48895263671875,42.5140380859375,14.453125116415329,24.528206701941258,99830.48019527768,42.691987154474276,125.17538000201482,2,414,VFR_HUD,0.0,0.0,356,0,-1.6399999856948853,-0.0,POSITION_TARGET_GLOBAL_INT,15087208,0,65016,0,0,100.0,0.0,0.0,0.0,0.0,0.0,0.0,0.0,0.0,AHRS,0.0034399880096316338,0.0008808736456558108,-0.005559877958148718,0.0,0.0,0.00914422795176506,0.2545047104358673,GPS_RAW_INT,0,0,0,0,0,65535,65535,0,0,0,RC_CHANNELS,15087208,16,1500,1500,0,1500,0,0,0,0,0,0,0,0,0,0,0,0,0,0,255,MISSION_CURRENT,0,NAV_CONTROLLER_OUTPUT,0.0,0.0,0,0,0,101.75,0.0,0.0,SYS_STATUS,325188639,272759823,17890319,29,0,-1,-1,0,0,0,0,0,0,GLOBAL_POSITION_INT,15087708,0,0,-1580,-1582,0,0,0,35652,RAW_IMU,15087208424,-968,-67,30,-2,-1,6,-167,-226,40
11.96748661994934,24.734375,26.480941772460938,42.55523681640625,14.453125116415329,24.52756494371772,99831.24379498929,42.646153142557566,125.11103746186534,2,414,VFR_HUD,0.0,0.0,356,0,-1.5799999237060547,-0.0,POSITION_TARGET_GLOBAL_INT,15087208,0,65016,0,0,100.0,0.0,0.0,0.0,0.0,0.0,0.0,0.0,0.0,AHRS,0.0034399880096316338,0.0008808736456558108,-0.005559877958148718,0.0,0.0,0.00914422795176506,0.2545047104358673,GPS_RAW_INT,0,0,0,0,0,65535,65535,0,0,0,RC_CHANNELS,15087208,16,1500,1500,0,1500,0,0,0,0,0,0,0,0,0,0,0,0,0,0,255,MISSION_CURRENT,0,NAV_CONTROLLER_OUTPUT,0.0,0.0,0,0,0,101.75,0.0,0.0,SYS_STATUS,325188639,272759823,17890319,29,0,-1,-1,0,0,0,0,0,0,GLOBAL_POSITION_INT,15087708,0,0,-1580,-1582,0,0,0,35652,RAW_IMU,15087208424,-968,-67,30,-2,-1,6,-167,-226,40
11.96748661994934,24.734375,26.480941772460938,42.55523681640625,14.453125116415329,24.52756494371772,99831.24379498929,42.646153142557566,125.11103746186534,2,414,VFR_HUD,0.0,0.0,356,0,-1.5799999237060547,-0.0,POSITION_TARGET_GLOBAL_INT,15087208,0,65016,0,0,100.0,0.0,0.0,0.0,0.0,0.0,0.0,0.0,0.0,AHRS,0.0034399880096316338,0.0008808736456558108,-0.005559877958148718,0.0,0.0,0.00914422795176506,0.2545047104358673,GPS_RAW_INT,0,0,0,0,0,65535,65535,0,0,0,RC_CHANNELS,15087708,16,1500,1500,0,1500,0,0,0,0,0,0,0,0,0,0,0,0,0,0,255,MISSION_CURRENT,0,NAV_CONTROLLER_OUTPUT,0.0,0.0,0,0,0,101.75,0.0,0.0,SYS_STATUS,325188639,272759823,17890319,29,0,-1,-1,0,0,0,0,0,0,GLOBAL_POSITION_INT,15087708,0,0,-1580,-1582,0,0,0,35652,RAW_IMU,15087208424,-968,-67,30,-2,-1,6,-167,-226,40
12.056638479232788,24.734375,26.507644653320312,42.5262451171875,14.453125116415329,24.536870438404094,99834.56863170264,42.69203500902552,124.83088427483709,3,422,VFR_HUD,0.0,0.0,356,0,-1.5799999237060547,-0.0,POSITION_TARGET_GLOBAL_INT,15087208,0,65016,0,0,100.0,0.0,0.0,0.0,0.0,0.0,0.0,0.0,0.0,AHRS,0.0034399880096316338,0.0008808736456558108,-0.005559877958148718,0.0,0.0,0.00914422795176506,0.2545047104358673,GPS_RAW_INT,0,0,0,0,0,65535,65535,0,0,0,RC_CHANNELS,15087708,16,1500,1500,0,1500,0,0,0,0,0,0,0,0,0,0,0,0,0,0,255,MISSION_CURRENT,0,NAV_CONTROLLER_OUTPUT,0.0,0.0,0,0,0,101.75,0.0,0.0,SYS_STATUS,325188639,272759823,17890319,29,0,-1,-1,0,0,0,0,0,0,GLOBAL_POSITION_INT,15087708,0,0,-1580,-1582,0,0,0,35652,RAW_IMU,15087708491,-967,-69,30,-2,0,7,-178,-235,38
12.056638479232788,24.734375,26.507644653320312,42.5262451171875,14.453125116415329,24.536870438404094,99834.56863170264,42.69203500902552,124.83088427483709,3,422,VFR_HUD,0.0,0.0,356,0,-1.5799999237060547,-0.0,POSITION_TARGET_GLOBAL_INT,15087208,0,65016,0,0,100.0,0.0,0.0,0.0,0.0,0.0,0.0,0.0,0.0,AHRS,0.0034399880096316338,0.0008808736456558108,-0.005559877958148718,0.0,0.0,0.00914422795176506,0.2545047104358673,GPS_RAW_INT,0,0,0,0,0,65535,65535,0,0,0,RC_CHANNELS,15087708,16,1500,1500,0,1500,0,0,0,0,0,0,0,0,0,0,0,0,0,0,255,MISSION_CURRENT,0,NAV_CONTROLLER_OUTPUT,0.0,0.0,0,0,0,101.75,0.0,0.0,SYS_STATUS,325188639,272759823,17890319,29,0,-1,-1,0,0,0,0,0,0,GLOBAL_POSITION_INT,15087708,0,0,-1580,-1582,0,0,0,35652,RAW_IMU,15087708491,-967,-69,30,-2,0,7,-178,-235,38
12.146023750305176,24.734375,26.51031494140625,42.5384521484375,14.453125116415329,24.528206701941258,99835.65277374968,42.67480077724453,124.73953530181333,3,422,VFR_HUD,0.0,0.0,356,0,-1.5799999237060547,-0.0,POSITION_TARGET_GLOBAL_INT,15087208,0,65016,0,0,100.0,0.0,0.0,0.0,0.0,0.0,0.0,0.0,0.0,AHRS,0.0034399880096316338,0.0008808736456558108,-0.005559877958148718,0.0,0.0,0.009063775651156902,0.26288557052612305,GPS_RAW_INT,0,0,0,0,0,65535,65535,0,0,0,RC_CHANNELS,15087708,16,1500,1500,0,1500,0,0,0,0,0,0,0,0,0,0,0,0,0,0,255,MISSION_CURRENT,0,NAV_CONTROLLER_OUTPUT,0.0,0.0,0,0,0,101.75,0.0,0.0,SYS_STATUS,325188639,272759823,17890319,29,0,-1,-1,0,0,0,0,0,0,GLOBAL_POSITION_INT,15087708,0,0,-1580,-1582,0,0,0,35652,RAW_IMU,15087708491,-967,-69,30,-2,0,7,-178,-235,38
12.146023750305176,24.734375,26.51031494140625,42.5384521484375,14.453125116415329,24.528206701941258,99835.65277374968,42.67480077724453,124.73953530181333,3,422,VFR_HUD,0.0,0.0,356,0,-1.5799999237060547,-0.0,POSITION_TARGET_GLOBAL_INT,15087708,0,65016,0,0,100.0,0.0,0.0,0.0,0.0,0.0,0.0,0.0,0.0,AHRS,0.0034399880096316338,0.0008808736456558108,-0.005559877958148718,0.0,0.0,0.009063775651156902,0.26288557052612305,GPS_RAW_INT,0,0,0,0,0,65535,65535,0,0,0,RC_CHANNELS,15087708,16,1500,1500,0,1500,0,0,0,0,0,0,0,0,0,0,0,0,0,0,255,MISSION_CURRENT,0,NAV_CONTROLLER_OUTPUT,0.0,0.0,0,0,0,101.75,0.0,0.0,SYS_STATUS,325188639,272759823,17890319,29,0,-1,-1,0,0,0,0,0,0,GLOBAL_POSITION_INT,15087708,0,0,-1580,-1582,0,0,0,35652,RAW_IMU,15087708491,-967,-69,30,-2,0,7,-178,-235,38
12.241568565368652,24.734375,26.491622924804688,42.57659912109375,14.453125116415329,24.52114736173246,99832.84509394992,42.6804907454742,124.97610989055268,3,422,VFR_HUD,0.0,0.0,356,0,-1.5799999237060547,-0.0,POSITION_TARGET_GLOBAL_INT,15087708,0,65016,0,0,100.0,0.0,0.0,0.0,0.0,0.0,0.0,0.0,0.0,AHRS,0.0034399880096316338,0.0008808736456558108,-0.005559877958148718,0.0,0.0,0.009063775651156902,0.26288557052612305,GPS_RAW_INT,0,0,0,0,0,65535,65535,0,0,0,RC_CHANNELS,15087708,16,1500,1500,0,1500,0,0,0,0,0,0,0,0,0,0,0,0,0,0,255,MISSION_CURRENT,0,NAV_CONTROLLER_OUTPUT,0.0,0.0,0,0,0,101.75,0.0,0.0,SYS_STATUS,325188639,272759823,17890319,29,0,-1,-1,0,0,0,0,0,0,GLOBAL_POSITION_INT,15088208,0,0,-1260,-1266,0,0,0,35654,RAW_IMU,15087708491,-967,-69,30,-2,0,7,-178,-235,38
12.332951545715332,24.7421875,26.4996337890625,42.5537109375,14.453125116415329,24.527244064607657,99830.67729008544,42.67479549524627,125.15877233503548,3,422,VFR_HUD,0.0,0.0,356,0,-1.5799999237060547,-0.0,POSITION_TARGET_GLOBAL_INT,15087708,0,65016,0,0,100.0,0.0,0.0,0.0,0.0,0.0,0.0,0.0,0.0,AHRS,0.0034399880096316338,0.0008808736456558108,-0.005559877958148718,0.0,0.0,0.009063775651156902,0.26288557052612305,GPS_RAW_INT,0,0,0,0,0,65535,65535,0,0,0,RC_CHANNELS,15087708,16,1500,1500,0,1500,0,0,0,0,0,0,0,0,0,0,0,0,0,0,255,MISSION_CURRENT,0,NAV_CONTROLLER_OUTPUT,0.0,0.0,0,0,0,101.75,0.0,0.0,SYS_STATUS,325188639,272759823,17890319,28,0,-1,-1,0,0,0,0,0,0,GLOBAL_POSITION_INT,15088208,0,0,-1260,-1266,0,0,0,35654,RAW_IMU,15087708491,-967,-69,30,-2,0,7,-178,-235,38
12.332951545715332,24.7421875,26.4996337890625,42.5537109375,14.453125116415329,24.527244064607657,99830.67729008544,42.67479549524627,125.15877233503548,3,422,VFR_HUD,0.0,0.0,356,0,-1.5799999237060547,-0.0,POSITION_TARGET_GLOBAL_INT,15087708,0,65016,0,0,100.0,0.0,0.0,0.0,0.0,0.0,0.0,0.0,0.0,AHRS,0.0034399880096316338,0.0008808736456558108,-0.005559877958148718,0.0,0.0,0.009063775651156902,0.26288557052612305,GPS_RAW_INT,0,0,0,0,0,65535,65535,0,0,0,RC_CHANNELS,15087708,16,1500,1500,0,1500,0,0,0,0,0,0,0,0,0,0,0,0,0,0,255,MISSION_CURRENT,0,NAV_CONTROLLER_OUTPUT,0.0,0.0,0,0,0,101.5999984741211,0.0,0.0,SYS_STATUS,325188639,272759823,17890319,28,0,-1,-1,0,0,0,0,0,0,GLOBAL_POSITION_INT,15088208,0,0,-1260,-1266,0,0,0,35654,RAW_IMU,15087708491,-967,-69,30,-2,0,7,-178,-235,38
12.422802448272705,24.7421875,26.537017822265625,42.5384521484375,14.453125116415329,24.52307263628029,99831.2439933872,42.66904385646923,125.11102074449002,3,422,VFR_HUD,0.0,0.0,356,0,-1.5799999237060547,-0.0,POSITION_TARGET_GLOBAL_INT,15087708,0,65016,0,0,100.0,0.0,0.0,0.0,0.0,0.0,0.0,0.0,0.0,AHRS,0.0034399880096316338,0.0008808736456558108,-0.005559877958148718,0.0,0.0,0.009063775651156902,0.26288557052612305,GPS_RAW_INT,0,0,0,0,0,65535,65535,0,0,0,RC_CHANNELS,15087708,16,1500,1500,0,1500,0,0,0,0,0,0,0,0,0,0,0,0,0,0,255,MISSION_CURRENT,0,NAV_CONTROLLER_OUTPUT,0.0,0.0,0,0,0,101.5999984741211,0.0,0.0,SYS_STATUS,325188639,272759823,17890319,28,0,-1,-1,0,0,0,0,0,0,GLOBAL_POSITION_INT,15088208,0,0,-1260,-1266,0,0,0,35654,RAW_IMU,15087708491,-967,-69,30,-2,0,7,-178,-235,38
12.422802448272705,24.7421875,26.537017822265625,42.5384521484375,14.453125116415329,24.52307263628029,99831.2439933872,42.66904385646923,125.11102074449002,3,422,VFR_HUD,0.0,0.0,356,0,-1.2599999904632568,-0.0,POSITION_TARGET_GLOBAL_INT,15087708,0,65016,0,0,100.0,0.0,0.0,0.0,0.0,0.0,0.0,0.0,0.0,AHRS,0.0034399880096316338,0.0008808736456558108,-0.005559877958148718,0.0,0.0,0.009063775651156902,0.26288557052612305,GPS_RAW_INT,0,0,0,0,0,65535,65535,0,0,0,RC_CHANNELS,15087708,16,1500,1500,0,1500,0,0,0,0,0,0,0,0,0,0,0,0,0,0,255,MISSION_CURRENT,0,NAV_CONTROLLER_OUTPUT,0.0,0.0,0,0,0,101.5999984741211,0.0,0.0,SYS_STATUS,325188639,272759823,17890319,28,0,-1,-1,0,0,0,0,0,0,GLOBAL_POSITION_INT,15088208,0,0,-1260,-1266,0,0,0,35654,RAW_IMU,15087708491,-967,-69,30,-2,0,7,-178,-235,38
12.513296842575073,24.7421875,26.515655517578125,42.55218505859375,14.453125116415329,24.51601329647167,99835.33301060302,42.67473384447935,124.7664782145053,3,422,VFR_HUD,0.0,0.0,356,0,-1.2599999904632568,-0.0,POSITION_TARGET_GLOBAL_INT,15087708,0,65016,0,0,100.0,0.0,0.0,0.0,0.0,0.0,0.0,0.0,0.0,AHRS,0.0034399880096316338,0.0008808736456558108,-0.005559877958148718,0.0,0.0,0.009063775651156902,0.26288557052612305,GPS_RAW_INT,0,0,0,0,0,65535,65535,0,0,0,RC_CHANNELS,15088208,16,1500,1500,0,1500,0,0,0,0,0,0,0,0,0,0,0,0,0,0,255,MISSION_CURRENT,0,NAV_CONTROLLER_OUTPUT,0.0,0.0,0,0,0,101.5999984741211,0.0,0.0,SYS_STATUS,325188639,272759823,17890319,28,0,-1,-1,0,0,0,0,0,0,GLOBAL_POSITION_INT,15088208,0,0,-1260,-1266,0,0,0,35654,RAW_IMU,15087708491,-967,-69,30,-2,0,7,-178,-235,38
12.513296842575073,24.7421875,26.515655517578125,42.55218505859375,14.453125116415329,24.51601329647167,99835.33301060302,42.67473384447935,124.7664782145053,3,422,VFR_HUD,0.0,0.0,356,0,-1.2599999904632568,-0.0,POSITION_TARGET_GLOBAL_INT,15087708,0,65016,0,0,100.0,0.0,0.0,0.0,0.0,0.0,0.0,0.0,0.0,AHRS,0.0034399880096316338,0.0008808736456558108,-0.005559877958148718,0.0,0.0,0.009063775651156902,0.26288557052612305,GPS_RAW_INT,0,0,0,0,0,65535,65535,0,0,0,RC_CHANNELS,15088208,16,1500,1500,0,1500,0,0,0,0,0,0,0,0,0,0,0,0,0,0,255,MISSION_CURRENT,0,NAV_CONTROLLER_OUTPUT,0.0,0.0,0,0,0,101.5999984741211,0.0,0.0,SYS_STATUS,325188639,272759823,17890319,28,0,-1,-1,0,0,0,0,0,0,GLOBAL_POSITION_INT,15088208,0,0,-1260,-1266,0,0,0,35654,RAW_IMU,15088208495,-970,-68,28,-1,0,5,-166,-236,43
12.603301286697388,24.734375,26.51031494140625,42.4896240234375,14.453125116415329,24.525318789971152,99835.20952092319,42.657598577379986,124.77688334616454,3,422,VFR_HUD,0.0,0.0,356,0,-1.2599999904632568,-0.0,POSITION_TARGET_GLOBAL_INT,15087708,0,65016,0,0,100.0,0.0,0.0,0.0,0.0,0.0,0.0,0.0,0.0,AHRS,0.0034399880096316338,0.0008808736456558108,-0.005559877958148718,0.0,0.0,0.009063775651156902,0.26288557052612305,GPS_RAW_INT,0,0,0,0,0,65535,65535,0,0,0,RC_CHANNELS,15088208,16,1500,1500,0,1500,0,0,0,0,0,0,0,0,0,0,0,0,0,0,255,MISSION_CURRENT,0,NAV_CONTROLLER_OUTPUT,0.0,0.0,0,0,0,101.5999984741211,0.0,0.0,SYS_STATUS,325188639,272759823,17890319,28,0,-1,-1,0,0,0,0,0,0,GLOBAL_POSITION_INT,15088208,0,0,-1260,-1266,0,0,0,35654,RAW_IMU,15088208495,-970,-68,28,-1,0,5,-166,-236,43
12.694351434707642,24.7421875,26.515655517578125,42.620849609375,14.453125116415329,24.508953957213294,99831.83569672614,42.62886627898728,125.06116283339847,3,422,VFR_HUD,0.0,0.0,356,0,-1.2599999904632568,-0.0,POSITION_TARGET_GLOBAL_INT,15087708,0,65016,0,0,100.0,0.0,0.0,0.0,0.0,0.0,0.0,0.0,0.0,AHRS,0.0034399880096316338,0.0008808736456558108,-0.005559877958148718,0.0,0.0,0.008965988643467426,0.26379045844078064,GPS_RAW_INT,0,0,0,0,0,65535,65535,0,0,0,RC_CHANNELS,15088208,16,1500,1500,0,1500,0,0,0,0,0,0,0,0,0,0,0,0,0,0,255,MISSION_CURRENT,0,NAV_CONTROLLER_OUTPUT,0.0,0.0,0,0,0,101.5999984741211,0.0,0.0,SYS_STATUS,325188639,272759823,17890319,28,0,-1,-1,0,0,0,0,0,0,GLOBAL_POSITION_INT,15088208,0,0,-1260,-1266,0,0,0,35654,RAW_IMU,15088208495,-970,-68,28,-1,0,5,-166,-236,43
12.694351434707642,24.7421875,26.515655517578125,42.620849609375,14.453125116415329,24.508953957213294,99831.83569672614,42.62886627898728,125.06116283339847,3,422,VFR_HUD,0.0,0.0,356,0,-1.2599999904632568,-0.0,POSITION_TARGET_GLOBAL_INT,15088208,0,65016,0,0,100.0,0.0,0.0,0.0,0.0,0.0,0.0,0.0,0.0,AHRS,0.0034399880096316338,0.0008808736456558108,-0.005559877958148718,0.0,0.0,0.008965988643467426,0.26379045844078064,GPS_RAW_INT,0,0,0,0,0,65535,65535,0,0,0,RC_CHANNELS,15088208,16,1500,1500,0,1500,0,0,0,0,0,0,0,0,0,0,0,0,0,0,255,MISSION_CURRENT,0,NAV_CONTROLLER_OUTPUT,0.0,0.0,0,0,0,101.5999984741211,0.0,0.0,SYS_STATUS,325188639,272759823,17890319,28,0,-1,-1,0,0,0,0,0,0,GLOBAL_POSITION_INT,15088208,0,0,-1260,-1266,0,0,0,35654,RAW_IMU,15088208495,-970,-68,28,-1,0,5,-166,-236,43
12.784250974655151,24.7421875,26.534347534179688,42.5811767578125,14.453125116415329,24.508953957213294,99831.83569672614,42.72634886251038,124.89518544687701,3,422,VFR_HUD,0.0,0.0,356,0,-1.2599999904632568,-0.0,POSITION_TARGET_GLOBAL_INT,15088208,0,65016,0,0,100.0,0.0,0.0,0.0,0.0,0.0,0.0,0.0,0.0,AHRS,0.0034399880096316338,0.0008808736456558108,-0.005559877958148718,0.0,0.0,0.008965988643467426,0.26379045844078064,GPS_RAW_INT,0,0,0,0,0,65535,65535,0,0,0,RC_CHANNELS,15088208,16,1500,1500,0,1500,0,0,0,0,0,0,0,0,0,0,0,0,0,0,255,MISSION_CURRENT,0,NAV_CONTROLLER_OUTPUT,0.0,0.0,0,0,0,101.5999984741211,0.0,0.0,SYS_STATUS,325188639,272759823,17890319,28,0,-1,-1,0,0,0,0,0,0,GLOBAL_POSITION_INT,15088208,0,0,-1260,-1266,0,0,0,35654,RAW_IMU,15088208495,-970,-68,28,-1,0,5,-166,-236,43
12.784250974655151,24.7421875,26.534347534179688,42.5811767578125,14.453125116415329,24.508953957213294,99831.83569672614,42.72634886251038,124.89518544687701,3,422,VFR_HUD,0.0,0.0,356,0,-1.2599999904632568,-0.0,POSITION_TARGET_GLOBAL_INT,15088208,0,65016,0,0,100.0,0.0,0.0,0.0,0.0,0.0,0.0,0.0,0.0,AHRS,0.0034399880096316338,0.0008808736456558108,-0.005559877958148718,0.0,0.0,0.008965988643467426,0.26379045844078064,GPS_RAW_INT,0,0,0,0,0,65535,65535,0,0,0,RC_CHANNELS,15088208,16,1500,1500,0,1500,0,0,0,0,0,0,0,0,0,0,0,0,0,0,255,MISSION_CURRENT,0,NAV_CONTROLLER_OUTPUT,0.0,0.0,0,0,0,101.5999984741211,0.0,0.0,SYS_STATUS,325188639,272759823,17890319,28,0,-1,-1,0,0,0,0,0,0,GLOBAL_POSITION_INT,15088708,0,0,-1650,-1652,0,0,0,35664,RAW_IMU,15088208495,-970,-68,28,-1,0,5,-166,-236,43
12.873732805252075,24.7421875,26.491622924804688,42.53082275390625,14.453125116415329,24.52628142728429,99833.8055023563,42.72634886251038,124.89518544687701,3,422,VFR_HUD,0.0,0.0,356,0,-1.2599999904632568,-0.0,POSITION_TARGET_GLOBAL_INT,15088208,0,65016,0,0,100.0,0.0,0.0,0.0,0.0,0.0,0.0,0.0,0.0,AHRS,0.0034399880096316338,0.0008808736456558108,-0.005559877958148718,0.0,0.0,0.008965988643467426,0.26379045844078064,GPS_RAW_INT,0,0,0,0,0,65535,65535,0,0,0,RC_CHANNELS,15088208,16,1500,1500,0,1500,0,0,0,0,0,0,0,0,0,0,0,0,0,0,255,MISSION_CURRENT,0,NAV_CONTROLLER_OUTPUT,0.0,0.0,0,0,0,101.5999984741211,0.0,0.0,SYS_STATUS,325188639,272759823,17890319,29,0,-1,-1,0,0,0,0,0,0,GLOBAL_POSITION_INT,15088708,0,0,-1650,-1652,0,0,0,35664,RAW_IMU,15088208495,-970,-68,28,-1,0,5,-166,-236,43
12.873732805252075,24.7421875,26.491622924804688,42.53082275390625,14.453125116415329,24.52628142728429,99833.8055023563,42.72634886251038,124.89518544687701,3,422,VFR_HUD,0.0,0.0,356,0,-1.2599999904632568,-0.0,POSITION_TARGET_GLOBAL_INT,15088208,0,65016,0,0,100.0,0.0,0.0,0.0,0.0,0.0,0.0,0.0,0.0,AHRS,0.0034399880096316338,0.0008808736456558108,-0.005559877958148718,0.0,0.0,0.008965988643467426,0.26379045844078064,GPS_RAW_INT,0,0,0,0,0,65535,65535,0,0,0,RC_CHANNELS,15088208,16,1500,1500,0,1500,0,0,0,0,0,0,0,0,0,0,0,0,0,0,255,MISSION_CURRENT,0,NAV_CONTROLLER_OUTPUT,0.0,0.0,0,0,0,101.5199966430664,0.0,0.0,SYS_STATUS,325188639,272759823,17890319,29,0,-1,-1,0,0,0,0,0,0,GLOBAL_POSITION_INT,15088708,0,0,-1650,-1652,0,0,0,35664,RAW_IMU,15088208495,-970,-68,28,-1,0,5,-166,-236,43
12.964657306671143,24.7421875,26.51031494140625,42.4896240234375,14.453125116415329,24.524035273569552,99835.18493811294,42.64040519252388,124.77895467335225,3,422,VFR_HUD,0.0,0.0,356,0,-1.2599999904632568,-0.0,POSITION_TARGET_GLOBAL_INT,15088208,0,65016,0,0,100.0,0.0,0.0,0.0,0.0,0.0,0.0,0.0,0.0,AHRS,0.0034399880096316338,0.0008808736456558108,-0.005559877958148718,0.0,0.0,0.008965988643467426,0.26379045844078064,GPS_RAW_INT,0,0,0,0,0,65535,65535,0,0,0,RC_CHANNELS,15088208,16,1500,1500,0,1500,0,0,0,0,0,0,0,0,0,0,0,0,0,0,255,MISSION_CURRENT,0,NAV_CONTROLLER_OUTPUT,0.0,0.0,0,0,0,101.5199966430664,0.0,0.0,SYS_STATUS,325188639,272759823,17890319,29,0,-1,-1,0,0,0,0,0,0,GLOBAL_POSITION_INT,15088708,0,0,-1650,-1652,0,0,0,35664,RAW_IMU,15088208495,-970,-68,28,-1,0,5,-166,-236,43
13.056379318237305,24.7421875,26.5423583984375,42.52777099609375,14.453125116415329,24.52916933928509,99836.83504291899,42.64043297048054,124.63991912867695,3,424,VFR_HUD,0.0,0.0,356,0,-1.649999976158142,-0.0,POSITION_TARGET_GLOBAL_INT,15088208,0,65016,0,0,100.0,0.0,0.0,0.0,0.0,0.0,0.0,0.0,0.0,AHRS,0.0034399880096316338,0.0008808736456558108,-0.005559877958148718,0.0,0.0,0.008965988643467426,0.26379045844078064,GPS_RAW_INT,0,0,0,0,0,65535,65535,0,0,0,RC_CHANNELS,15088208,16,1500,1500,0,1500,0,0,0,0,0,0,0,0,0,0,0,0,0,0,255,MISSION_CURRENT,0,NAV_CONTROLLER_OUTPUT,0.0,0.0,0,0,0,101.5199966430664,0.0,0.0,SYS_STATUS,325188639,272759823,17890319,29,0,-1,-1,0,0,0,0,0,0,GLOBAL_POSITION_INT,15088708,0,0,-1650,-1652,0,0,0,35664,RAW_IMU,15088208495,-970,-68,28,-1,0,5,-166,-236,43
13.056379318237305,24.7421875,26.5423583984375,42.52777099609375,14.453125116415329,24.52916933928509,99836.83504291899,42.64043297048054,124.63991912867695,3,424,VFR_HUD,0.0,0.0,356,0,-1.649999976158142,-0.0,POSITION_TARGET_GLOBAL_INT,15088208,0,65016,0,0,100.0,0.0,0.0,0.0,0.0,0.0,0.0,0.0,0.0,AHRS,0.0034399880096316338,0.0008808736456558108,-0.005559877958148718,0.0,0.0,0.008965988643467426,0.26379045844078064,GPS_RAW_INT,0,0,0,0,0,65535,65535,0,0,0,RC_CHANNELS,15088708,16,1500,1500,0,1500,0,0,0,0,0,0,0,0,0,0,0,0,0,0,255,MISSION_CURRENT,0,NAV_CONTROLLER_OUTPUT,0.0,0.0,0,0,0,101.5199966430664,0.0,0.0,SYS_STATUS,325188639,272759823,17890319,29,0,-1,-1,0,0,0,0,0,0,GLOBAL_POSITION_INT,15088708,0,0,-1650,-1652,0,0,0,35664,RAW_IMU,15088208495,-970,-68,28,-1,0,5,-166,-236,43
13.145520210266113,24.7421875,26.523666381835938,42.59796142578125,14.453125116415329,24.530131976639154,99837.67247560881,42.67481134012638,124.56935892229613,3,424,VFR_HUD,0.0,0.0,356,0,-1.649999976158142,-0.0,POSITION_TARGET_GLOBAL_INT,15088208,0,65016,0,0,100.0,0.0,0.0,0.0,0.0,0.0,0.0,0.0,0.0,AHRS,0.0034399880096316338,0.0008808736456558108,-0.005559877958148718,0.0,0.0,0.008965988643467426,0.26379045844078064,GPS_RAW_INT,0,0,0,0,0,65535,65535,0,0,0,RC_CHANNELS,15088708,16,1500,1500,0,1500,0,0,0,0,0,0,0,0,0,0,0,0,0,0,255,MISSION_CURRENT,0,NAV_CONTROLLER_OUTPUT,0.0,0.0,0,0,0,101.5199966430664,0.0,0.0,SYS_STATUS,325188639,272759823,17890319,29,0,-1,-1,0,0,0,0,0,0,GLOBAL_POSITION_INT,15088708,0,0,-1650,-1652,0,0,0,35664,RAW_IMU,15088708521,-965,-69,31,-1,0,6,-169,-225,43
13.145520210266113,24.7421875,26.523666381835938,42.59796142578125,14.453125116415329,24.530131976639154,99837.67247560881,42.67481134012638,124.56935892229613,3,424,VFR_HUD,0.0,0.0,356,0,-1.649999976158142,-0.0,POSITION_TARGET_GLOBAL_INT,15088208,0,65016,0,0,100.0,0.0,0.0,0.0,0.0,0.0,0.0,0.0,0.0,AHRS,0.0034399880096316338,0.0008808736456558108,-0.005559877958148718,0.0,0.0,0.008965988643467426,0.26379045844078064,GPS_RAW_INT,0,0,0,0,0,65535,65535,0,0,0,RC_CHANNELS,15088708,16,1500,1500,0,1500,0,0,0,0,0,0,0,0,0,0,0,0,0,0,255,MISSION_CURRENT,0,NAV_CONTROLLER_OUTPUT,0.0,0.0,0,0,0,101.5199966430664,0.0,0.0,SYS_STATUS,325188639,272759823,17890319,29,0,-1,-1,0,0,0,0,0,0,GLOBAL_POSITION_INT,15088708,0,0,-1650,-1652,0,0,0,35664,RAW_IMU,15088708521,-965,-69,31,-1,0,6,-169,-225,43
13.234979629516602,24.7421875,26.502304077148438,42.50640869140625,14.453125116415329,24.52916933928509,99837.69714152526,42.6977212586373,124.56728063458128,3,424,VFR_HUD,0.0,0.0,356,0,-1.649999976158142,-0.0,POSITION_TARGET_GLOBAL_INT,15088208,0,65016,0,0,100.0,0.0,0.0,0.0,0.0,0.0,0.0,0.0,0.0,AHRS,0.0034399880096316338,0.0008808736456558108,-0.005559877958148718,0.0,0.0,0.00903644971549511,0.2568278908729553,GPS_RAW_INT,0,0,0,0,0,65535,65535,0,0,0,RC_CHANNELS,15088708,16,1500,1500,0,1500,0,0,0,0,0,0,0,0,0,0,0,0,0,0,255,MISSION_CURRENT,0,NAV_CONTROLLER_OUTPUT,0.0,0.0,0,0,0,101.5199966430664,0.0,0.0,SYS_STATUS,325188639,272759823,17890319,29,0,-1,-1,0,0,0,0,0,0,GLOBAL_POSITION_INT,15088708,0,0,-1650,-1652,0,0,0,35664,RAW_IMU,15088708521,-965,-69,31,-1,0,6,-169,-225,43
13.325592994689941,24.7421875,26.545028686523438,42.48504638671875,14.453125116415329,24.52916933928509,99837.35230206074,42.64616184260745,124.59633597313157,3,424,VFR_HUD,0.0,0.0,356,0,-1.649999976158142,-0.0,POSITION_TARGET_GLOBAL_INT,15088708,0,65016,0,0,100.0,0.0,0.0,0.0,0.0,0.0,0.0,0.0,0.0,AHRS,0.0034399880096316338,0.0008808736456558108,-0.005559877958148718,0.0,0.0,0.00903644971549511,0.2568278908729553,GPS_RAW_INT,0,0,0,0,0,65535,65535,0,0,0,RC_CHANNELS,15088708,16,1500,1500,0,1500,0,0,0,0,0,0,0,0,0,0,0,0,0,0,255,MISSION_CURRENT,0,NAV_CONTROLLER_OUTPUT,0.0,0.0,0,0,0,101.5199966430664,0.0,0.0,SYS_STATUS,325188639,272759823,17890319,29,0,-1,-1,0,0,0,0,0,0,GLOBAL_POSITION_INT,15088708,0,0,-1650,-1652,0,0,0,35664,RAW_IMU,15088708521,-965,-69,31,-1,0,6,-169,-225,43
13.325592994689941,24.7421875,26.545028686523438,42.48504638671875,14.453125116415329,24.52916933928509,99837.35230206074,42.64616184260745,124.59633597313157,3,424,VFR_HUD,0.0,0.0,356,0,-1.649999976158142,-0.0,POSITION_TARGET_GLOBAL_INT,15088708,0,65016,0,0,100.0,0.0,0.0,0.0,0.0,0.0,0.0,0.0,0.0,AHRS,0.0034399880096316338,0.0008808736456558108,-0.005559877958148718,0.0,0.0,0.00903644971549511,0.2568278908729553,GPS_RAW_INT,0,0,0,0,0,65535,65535,0,0,0,RC_CHANNELS,15088708,16,1500,1500,0,1500,0,0,0,0,0,0,0,0,0,0,0,0,0,0,255,MISSION_CURRENT,0,NAV_CONTROLLER_OUTPUT,0.0,0.0,0,0,0,101.5199966430664,0.0,0.0,SYS_STATUS,325188639,272759823,17890319,29,0,-1,-1,0,0,0,0,0,0,GLOBAL_POSITION_INT,15089208,0,0,-2030,-2038,0,0,0,35666,RAW_IMU,15088708521,-965,-69,31,-1,0,6,-169,-225,43
13.415706634521484,24.7421875,26.523666381835938,42.52471923828125,14.453125116415329,24.521468240820923,99836.17027618714,42.66903507020302,124.69593122863068,3,424,VFR_HUD,0.0,0.0,356,0,-1.649999976158142,-0.0,POSITION_TARGET_GLOBAL_INT,15088708,0,65016,0,0,100.0,0.0,0.0,0.0,0.0,0.0,0.0,0.0,0.0,AHRS,0.0034399880096316338,0.0008808736456558108,-0.005559877958148718,0.0,0.0,0.00903644971549511,0.2568278908729553,GPS_RAW_INT,0,0,0,0,0,65535,65535,0,0,0,RC_CHANNELS,15088708,16,1500,1500,0,1500,0,0,0,0,0,0,0,0,0,0,0,0,0,0,255,MISSION_CURRENT,0,NAV_CONTROLLER_OUTPUT,0.0,0.0,0,0,0,101.5199966430664,0.0,0.0,SYS_STATUS,325188639,272759823,17890319,28,0,-1,-1,0,0,0,0,0,0,GLOBAL_POSITION_INT,15089208,0,0,-2030,-2038,0,0,0,35666,RAW_IMU,15088708521,-965,-69,31,-1,0,6,-169,-225,43
13.415706634521484,24.7421875,26.523666381835938,42.52471923828125,14.453125116415329,24.521468240820923,99836.17027618714,42.66903507020302,124.69593122863068,3,424,VFR_HUD,0.0,0.0,356,0,-1.649999976158142,-0.0,POSITION_TARGET_GLOBAL_INT,15088708,0,65016,0,0,100.0,0.0,0.0,0.0,0.0,0.0,0.0,0.0,0.0,AHRS,0.0034399880096316338,0.0008808736456558108,-0.005559877958148718,0.0,0.0,0.00903644971549511,0.2568278908729553,GPS_RAW_INT,0,0,0,0,0,65535,65535,0,0,0,RC_CHANNELS,15088708,16,1500,1500,0,1500,0,0,0,0,0,0,0,0,0,0,0,0,0,0,255,MISSION_CURRENT,0,NAV_CONTROLLER_OUTPUT,0.0,0.0,0,0,0,101.62000274658203,0.0,0.0,SYS_STATUS,325188639,272759823,17890319,28,0,-1,-1,0,0,0,0,0,0,GLOBAL_POSITION_INT,15089208,0,0,-2030,-2038,0,0,0,35666,RAW_IMU,15088708521,-965,-69,31,-1,0,6,-169,-225,43
13.506797790527344,24.75,26.475601196289062,42.46978759765625,14.453125116415329,24.529811097519996,99838.485323969,42.66335190565918,124.50087059490505,3,424,VFR_HUD,0.0,0.0,356,0,-1.649999976158142,-0.0,POSITION_TARGET_GLOBAL_INT,15088708,0,65016,0,0,100.0,0.0,0.0,0.0,0.0,0.0,0.0,0.0,0.0,AHRS,0.0034399880096316338,0.0008808736456558108,-0.005559877958148718,0.0,0.0,0.00903644971549511,0.2568278908729553,GPS_RAW_INT,0,0,0,0,0,65535,65535,0,0,0,RC_CHANNELS,15088708,16,1500,1500,0,1500,0,0,0,0,0,0,0,0,0,0,0,0,0,0,255,MISSION_CURRENT,0,NAV_CONTROLLER_OUTPUT,0.0,0.0,0,0,0,101.62000274658203,0.0,0.0,SYS_STATUS,325188639,272759823,17890319,28,0,-1,-1,0,0,0,0,0,0,GLOBAL_POSITION_INT,15089208,0,0,-2030,-2038,0,0,0,35666,RAW_IMU,15088708521,-965,-69,31,-1,0,6,-169,-225,43
13.506797790527344,24.75,26.475601196289062,42.46978759765625,14.453125116415329,24.529811097519996,99838.485323969,42.66335190565918,124.50087059490505,3,424,VFR_HUD,0.0,0.0,356,0,-2.0299999713897705,-0.0,POSITION_TARGET_GLOBAL_INT,15088708,0,65016,0,0,100.0,0.0,0.0,0.0,0.0,0.0,0.0,0.0,0.0,AHRS,0.0034399880096316338,0.0008808736456558108,-0.005559877958148718,0.0,0.0,0.00903644971549511,0.2568278908729553,GPS_RAW_INT,0,0,0,0,0,65535,65535,0,0,0,RC_CHANNELS,15088708,16,1500,1500,0,1500,0,0,0,0,0,0,0,0,0,0,0,0,0,0,255,MISSION_CURRENT,0,NAV_CONTROLLER_OUTPUT,0.0,0.0,0,0,0,101.62000274658203,0.0,0.0,SYS_STATUS,325188639,272759823,17890319,28,0,-1,-1,0,0,0,0,0,0,GLOBAL_POSITION_INT,15089208,0,0,-2030,-2038,0,0,0,35666,RAW_IMU,15088708521,-965,-69,31,-1,0,6,-169,-225,43
13.598309516906738,24.7421875,26.55303955078125,42.54302978515625,14.453125116415329,24.52692318549873,99836.8351249465,42.6633361344719,124.63991221719864,3,424,VFR_HUD,0.0,0.0,356,0,-2.0299999713897705,-0.0,POSITION_TARGET_GLOBAL_INT,15088708,0,65016,0,0,100.0,0.0,0.0,0.0,0.0,0.0,0.0,0.0,0.0,AHRS,0.0034399880096316338,0.0008808736456558108,-0.005559877958148718,0.0,0.0,0.00903644971549511,0.2568278908729553,GPS_RAW_INT,0,0,0,0,0,65535,65535,0,0,0,RC_CHANNELS,15089208,16,1500,1500,0,1500,0,0,0,0,0,0,0,0,0,0,0,0,0,0,255,MISSION_CURRENT,0,NAV_CONTROLLER_OUTPUT,0.0,0.0,0,0,0,101.62000274658203,0.0,0.0,SYS_STATUS,325188639,272759823,17890319,28,0,-1,-1,0,0,0,0,0,0,GLOBAL_POSITION_INT,15089208,0,0,-2030,-2038,0,0,0,35666,RAW_IMU,15088708521,-965,-69,31,-1,0,6,-169,-225,43
13.688267469406128,24.734375,26.526336669921875,42.4560546875,14.453125116415329,24.529490218401975,99836.71187404088,42.657621306102705,124.65029710343006,3,424,VFR_HUD,0.0,0.0,356,0,-2.0299999713897705,-0.0,POSITION_TARGET_GLOBAL_INT,15088708,0,65016,0,0,100.0,0.0,0.0,0.0,0.0,0.0,0.0,0.0,0.0,AHRS,0.0034399880096316338,0.0008808736456558108,-0.005559877958148718,0.0,0.0,0.00903644971549511,0.2568278908729553,GPS_RAW_INT,0,0,0,0,0,65535,65535,0,0,0,RC_CHANNELS,15089208,16,1500,1500,0,1500,0,0,0,0,0,0,0,0,0,0,0,0,0,0,255,MISSION_CURRENT,0,NAV_CONTROLLER_OUTPUT,0.0,0.0,0,0,0,101.62000274658203,0.0,0.0,SYS_STATUS,325188639,272759823,17890319,28,0,-1,-1,0,0,0,0,0,0,GLOBAL_POSITION_INT,15089208,0,0,-2030,-2038,0,0,0,35666,RAW_IMU,15089208514,-967,-67,31,-2,0,7,-213,-243,41
13.688267469406128,24.734375,26.526336669921875,42.4560546875,14.453125116415329,24.529490218401975,99836.71187404088,42.657621306102705,124.65029710343006,3,424,VFR_HUD,0.0,0.0,356,0,-2.0299999713897705,-0.0,POSITION_TARGET_GLOBAL_INT,15088708,0,65016,0,0,100.0,0.0,0.0,0.0,0.0,0.0,0.0,0.0,0.0,AHRS,0.0034399880096316338,0.0008808736456558108,-0.005559877958148718,0.0,0.0,0.00903644971549511,0.2568278908729553,GPS_RAW_INT,0,0,0,0,0,65535,65535,0,0,0,RC_CHANNELS,15089208,16,1500,1500,0,1500,0,0,0,0,0,0,0,0,0,0,0,0,0,0,255,MISSION_CURRENT,0,NAV_CONTROLLER_OUTPUT,0.0,0.0,0,0,0,101.62000274658203,0.0,0.0,SYS_STATUS,325188639,272759823,17890319,28,0,-1,-1,0,0,0,0,0,0,GLOBAL_POSITION_INT,15089208,0,0,-2030,-2038,0,0,0,35666,RAW_IMU,15089208514,-967,-67,31,-2,0,7,-213,-243,41
13.777276277542114,24.734375,26.523666381835938,42.5537109375,14.453125116415329,24.52628142728429,99837.42629863639,42.663332629309494,124.59010119393506,3,424,VFR_HUD,0.0,0.0,356,0,-2.0299999713897705,-0.0,POSITION_TARGET_GLOBAL_INT,15088708,0,65016,0,0,100.0,0.0,0.0,0.0,0.0,0.0,0.0,0.0,0.0,AHRS,0.0034399880096316338,0.0008808736456558108,-0.005559877958148718,0.0,0.0,0.009007123298943043,0.258497416973114,GPS_RAW_INT,0,0,0,0,0,65535,65535,0,0,0,RC_CHANNELS,15089208,16,1500,1500,0,1500,0,0,0,0,0,0,0,0,0,0,0,0,0,0,255,MISSION_CURRENT,0,NAV_CONTROLLER_OUTPUT,0.0,0.0,0,0,0,101.62000274658203,0.0,0.0,SYS_STATUS,325188639,272759823,17890319,28,0,-1,-1,0,0,0,0,0,0,GLOBAL_POSITION_INT,15089208,0,0,-2030,-2038,0,0,0,35666,RAW_IMU,15089208514,-967,-67,31,-2,0,7,-213,-243,41
13.777276277542114,24.734375,26.523666381835938,42.5537109375,14.453125116415329,24.52628142728429,99837.42629863639,42.663332629309494,124.59010119393506,3,424,VFR_HUD,0.0,0.0,356,0,-2.0299999713897705,-0.0,POSITION_TARGET_GLOBAL_INT,15089208,0,65016,0,0,100.0,0.0,0.0,0.0,0.0,0.0,0.0,0.0,0.0,AHRS,0.0034399880096316338,0.0008808736456558108,-0.005559877958148718,0.0,0.0,0.009007123298943043,0.258497416973114,GPS_RAW_INT,0,0,0,0,0,65535,65535,0,0,0,RC_CHANNELS,15089208,16,1500,1500,0,1500,0,0,0,0,0,0,0,0,0,0,0,0,0,0,255,MISSION_CURRENT,0,NAV_CONTROLLER_OUTPUT,0.0,0.0,0,0,0,101.62000274658203,0.0,0.0,SYS_STATUS,325188639,272759823,17890319,28,0,-1,-1,0,0,0,0,0,0,GLOBAL_POSITION_INT,15089208,0,0,-2030,-2038,0,0,0,35666,RAW_IMU,15089208514,-967,-67,31,-2,0,7,-213,-243,41
13.865918397903442,24.75,26.526336669921875,42.55218505859375,14.453125116415329,24.493872643368377,99833.31400057739,42.67461215626865,124.93659952876763,3,424,VFR_HUD,0.0,0.0,356,0,-2.0299999713897705,-0.0,POSITION_TARGET_GLOBAL_INT,15089208,0,65016,0,0,100.0,0.0,0.0,0.0,0.0,0.0,0.0,0.0,0.0,AHRS,0.0034399880096316338,0.0008808736456558108,-0.005559877958148718,0.0,0.0,0.009007123298943043,0.258497416973114,GPS_RAW_INT,0,0,0,0,0,65535,65535,0,0,0,RC_CHANNELS,15089208,16,1500,1500,0,1500,0,0,0,0,0,0,0,0,0,0,0,0,0,0,255,MISSION_CURRENT,0,NAV_CONTROLLER_OUTPUT,0.0,0.0,0,0,0,101.62000274658203,0.0,0.0,SYS_STATUS,325188639,272759823,17890319,28,0,-1,-1,0,0,0,0,0,0,GLOBAL_POSITION_INT,15089208,0,0,-2030,-2038,0,0,0,35666,RAW_IMU,15089208514,-967,-67,31,-2,0,7,-213,-243,41
13.865918397903442,24.75,26.526336669921875,42.55218505859375,14.453125116415329,24.493872643368377,99833.31400057739,42.67461215626865,124.93659952876763,3,424,VFR_HUD,0.0,0.0,356,0,-2.0299999713897705,-0.0,POSITION_TARGET_GLOBAL_INT,15089208,0,65016,0,0,100.0,0.0,0.0,0.0,0.0,0.0,0.0,0.0,0.0,AHRS,0.0034399880096316338,0.0008808736456558108,-0.005559877958148718,0.0,0.0,0.009007123298943043,0.258497416973114,GPS_RAW_INT,0,0,0,0,0,65535,65535,0,0,0,RC_CHANNELS,15089208,16,1500,1500,0,1500,0,0,0,0,0,0,0,0,0,0,0,0,0,0,255,MISSION_CURRENT,0,NAV_CONTROLLER_OUTPUT,0.0,0.0,0,0,0,101.62000274658203,0.0,0.0,SYS_STATUS,325188639,272759823,17890319,28,0,-1,-1,0,0,0,0,0,0,GLOBAL_POSITION_INT,15089708,0,0,-1960,-1963,0,0,0,35659,RAW_IMU,15089208514,-967,-67,31,-2,0,7,-213,-243,41
13.956508874893188,24.7421875,26.566390991210938,42.63153076171875,14.453125116415329,24.493872643368377,99833.31400057739,42.66331510102038,124.76234846653348,3,424,VFR_HUD,0.0,0.0,356,0,-2.0299999713897705,-0.0,POSITION_TARGET_GLOBAL_INT,15089208,0,65016,0,0,100.0,0.0,0.0,0.0,0.0,0.0,0.0,0.0,0.0,AHRS,0.0034399880096316338,0.0008808736456558108,-0.005559877958148718,0.0,0.0,0.009007123298943043,0.258497416973114,GPS_RAW_INT,0,0,0,0,0,65535,65535,0,0,0,RC_CHANNELS,15089208,16,1500,1500,0,1500,0,0,0,0,0,0,0,0,0,0,0,0,0,0,255,MISSION_CURRENT,0,NAV_CONTROLLER_OUTPUT,0.0,0.0,0,0,0,101.62000274658203,0.0,0.0,SYS_STATUS,325188639,272759823,17890319,29,0,-1,-1,0,0,0,0,0,0,GLOBAL_POSITION_INT,15089708,0,0,-1960,-1963,0,0,0,35659,RAW_IMU,15089208514,-967,-67,31,-2,0,7,-213,-243,41
14.04701828956604,24.7421875,26.507644653320312,42.45452880859375,14.453125116415329,24.52307263628029,99835.38202311222,42.66331510102038,124.76234846653348,3,424,VFR_HUD,0.0,0.0,356,0,-2.0299999713897705,-0.0,POSITION_TARGET_GLOBAL_INT,15089208,0,65016,0,0,100.0,0.0,0.0,0.0,0.0,0.0,0.0,0.0,0.0,AHRS,0.0034399880096316338,0.0008808736456558108,-0.005559877958148718,0.0,0.0,0.009007123298943043,0.258497416973114,GPS_RAW_INT,0,0,0,0,0,65535,65535,0,0,0,RC_CHANNELS,15089208,16,1500,1500,0,1500,0,0,0,0,0,0,0,0,0,0,0,0,0,0,255,MISSION_CURRENT,0,NAV_CONTROLLER_OUTPUT,0.0,0.0,0,0,0,102.01000213623047,0.0,0.0,SYS_STATUS,325188639,272759823,17890319,29,0,-1,-1,0,0,0,0,0,0,GLOBAL_POSITION_INT,15089708,0,0,-1960,-1963,0,0,0,35659,RAW_IMU,15089208514,-967,-67,31,-2,0,7,-213,-243,41
14.04701828956604,24.7421875,26.507644653320312,42.45452880859375,14.453125116415329,24.52307263628029,99835.38202311222,42.66331510102038,124.76234846653348,3,424,VFR_HUD,0.0,0.0,356,0,-2.0299999713897705,-0.0,POSITION_TARGET_GLOBAL_INT,15089208,0,65016,0,0,100.0,0.0,0.0,0.0,0.0,0.0,0.0,0.0,0.0,AHRS,0.0034399880096316338,0.0008808736456558108,-0.005559877958148718,0.0,0.0,0.009007123298943043,0.258497416973114,GPS_RAW_INT,0,0,0,0,0,65535,65535,0,0,0,RC_CHANNELS,15089208,16,1500,1500,0,1500,0,0,0,0,0,0,0,0,0,0,0,0,0,0,255,MISSION_CURRENT,0,NAV_CONTROLLER_OUTPUT,0.0,0.0,0,0,0,102.01000213623047,0.0,0.0,SYS_STATUS,325188639,272759823,17890319,29,0,-1,-1,0,0,0,0,0,0,GLOBAL_POSITION_INT,15089708,0,0,-1960,-1963,0,0,0,35659,RAW_IMU,15089208514,-967,-67,31,-2,0,7,-213,-243,41
14.135316371917725,24.7421875,26.515655517578125,42.4835205078125,14.453125116415329,24.506386924892126,99831.6141148329,42.674680960712834,125.07983366559249,3,424,VFR_HUD,0.0,0.0,356,0,-1.959999918937683,-0.0,POSITION_TARGET_GLOBAL_INT,15089208,0,65016,0,0,100.0,0.0,0.0,0.0,0.0,0.0,0.0,0.0,0.0,AHRS,0.0034399880096316338,0.0008808736456558108,-0.005559877958148718,0.0,0.0,0.009007123298943043,0.258497416973114,GPS_RAW_INT,0,0,0,0,0,65535,65535,0,0,0,RC_CHANNELS,15089208,16,1500,1500,0,1500,0,0,0,0,0,0,0,0,0,0,0,0,0,0,255,MISSION_CURRENT,0,NAV_CONTROLLER_OUTPUT,0.0,0.0,0,0,0,102.01000213623047,0.0,0.0,SYS_STATUS,325188639,272759823,17890319,29,0,-1,-1,0,0,0,0,0,0,GLOBAL_POSITION_INT,15089708,0,0,-1960,-1963,0,0,0,35659,RAW_IMU,15089208514,-967,-67,31,-2,0,7,-213,-243,41
14.135316371917725,24.7421875,26.515655517578125,42.4835205078125,14.453125116415329,24.506386924892126,99831.6141148329,42.674680960712834,125.07983366559249,3,424,VFR_HUD,0.0,0.0,356,0,-1.959999918937683,-0.0,POSITION_TARGET_GLOBAL_INT,15089208,0,65016,0,0,100.0,0.0,0.0,0.0,0.0,0.0,0.0,0.0,0.0,AHRS,0.0034399880096316338,0.0008808736456558108,-0.005559877958148718,0.0,0.0,0.009007123298943043,0.258497416973114,GPS_RAW_INT,0,0,0,0,0,65535,65535,0,0,0,RC_CHANNELS,15089708,16,1500,1500,0,1500,0,0,0,0,0,0,0,0,0,0,0,0,0,0,255,MISSION_CURRENT,0,NAV_CONTROLLER_OUTPUT,0.0,0.0,0,0,0,102.01000213623047,0.0,0.0,SYS_STATUS,325188639,272759823,17890319,29,0,-1,-1,0,0,0,0,0,0,GLOBAL_POSITION_INT,15089708,0,0,-1960,-1963,0,0,0,35659,RAW_IMU,15089208514,-967,-67,31,-2,0,7,-213,-243,41
14.224053382873535,24.7421875,26.48895263671875,42.53997802734375,14.453125116415329,24.52756494371772,99833.83008128546,42.65188198448608,124.8931144235402,3,424,VFR_HUD,0.0,0.0,356,0,-1.959999918937683,-0.0,POSITION_TARGET_GLOBAL_INT,15089208,0,65016,0,0,100.0,0.0,0.0,0.0,0.0,0.0,0.0,0.0,0.0,AHRS,0.0034399880096316338,0.0008808736456558108,-0.005559877958148718,0.0,0.0,0.009007123298943043,0.258497416973114,GPS_RAW_INT,0,0,0,0,0,65535,65535,0,0,0,RC_CHANNELS,15089708,16,1500,1500,0,1500,0,0,0,0,0,0,0,0,0,0,0,0,0,0,255,MISSION_CURRENT,0,NAV_CONTROLLER_OUTPUT,0.0,0.0,0,0,0,102.01000213623047,0.0,0.0,SYS_STATUS,325188639,272759823,17890319,29,0,-1,-1,0,0,0,0,0,0,GLOBAL_POSITION_INT,15089708,0,0,-1960,-1963,0,0,0,35659,RAW_IMU,15089708542,-967,-68,31,-1,-1,5,-189,-232,43
14.314626455307007,24.7421875,26.518325805664062,42.5262451171875,14.453125116415329,24.520184724473893,99836.31810680592,42.617469228221516,124.68347524918039,3,424,VFR_HUD,0.0,0.0,356,0,-1.959999918937683,-0.0,POSITION_TARGET_GLOBAL_INT,15089208,0,65016,0,0,100.0,0.0,0.0,0.0,0.0,0.0,0.0,0.0,0.0,AHRS,0.0034399880096316338,0.0008808736456558108,-0.005559877958148718,0.0,0.0,0.009007123298943043,0.258497416973114,GPS_RAW_INT,0,0,0,0,0,65535,65535,0,0,0,RC_CHANNELS,15089708,16,1500,1500,0,1500,0,0,0,0,0,0,0,0,0,0,0,0,0,0,255,MISSION_CURRENT,0,NAV_CONTROLLER_OUTPUT,0.0,0.0,0,0,0,102.01000213623047,0.0,0.0,SYS_STATUS,325188639,272759823,17890319,29,0,-1,-1,0,0,0,0,0,0,GLOBAL_POSITION_INT,15089708,0,0,-1960,-1963,0,0,0,35659,RAW_IMU,15089708542,-967,-68,31,-1,-1,5,-189,-232,43
14.314626455307007,24.7421875,26.518325805664062,42.5262451171875,14.453125116415329,24.520184724473893,99836.31810680592,42.617469228221516,124.68347524918039,3,424,VFR_HUD,0.0,0.0,356,0,-1.959999918937683,-0.0,POSITION_TARGET_GLOBAL_INT,15089208,0,65016,0,0,100.0,0.0,0.0,0.0,0.0,0.0,0.0,0.0,0.0,AHRS,0.0034399880096316338,0.0008808736456558108,-0.005559877958148718,0.0,0.0,0.009078489616513252,0.25681689381599426,GPS_RAW_INT,0,0,0,0,0,65535,65535,0,0,0,RC_CHANNELS,15089708,16,1500,1500,0,1500,0,0,0,0,0,0,0,0,0,0,0,0,0,0,255,MISSION_CURRENT,0,NAV_CONTROLLER_OUTPUT,0.0,0.0,0,0,0,102.01000213623047,0.0,0.0,SYS_STATUS,325188639,272759823,17890319,29,0,-1,-1,0,0,0,0,0,0,GLOBAL_POSITION_INT,15089708,0,0,-1960,-1963,0,0,0,35659,RAW_IMU,15089708542,-967,-68,31,-1,-1,5,-189,-232,43
14.402378559112549,24.7421875,26.53167724609375,42.55218505859375,14.453125116415329,24.524035273569552,99838.97814127886,42.68623537336531,124.45934740778615,3,424,VFR_HUD,0.0,0.0,356,0,-1.959999918937683,-0.0,POSITION_TARGET_GLOBAL_INT,15089708,0,65016,0,0,100.0,0.0,0.0,0.0,0.0,0.0,0.0,0.0,0.0,AHRS,0.0034399880096316338,0.0008808736456558108,-0.005559877958148718,0.0,0.0,0.009078489616513252,0.25681689381599426,GPS_RAW_INT,0,0,0,0,0,65535,65535,0,0,0,RC_CHANNELS,15089708,16,1500,1500,0,1500,0,0,0,0,0,0,0,0,0,0,0,0,0,0,255,MISSION_CURRENT,0,NAV_CONTROLLER_OUTPUT,0.0,0.0,0,0,0,102.01000213623047,0.0,0.0,SYS_STATUS,325188639,272759823,17890319,29,0,-1,-1,0,0,0,0,0,0,GLOBAL_POSITION_INT,15089708,0,0,-1960,-1963,0,0,0,35659,RAW_IMU,15089708542,-967,-68,31,-1,-1,5,-189,-232,43
14.402378559112549,24.7421875,26.53167724609375,42.55218505859375,14.453125116415329,24.524035273569552,99838.97814127886,42.68623537336531,124.45934740778615,3,424,VFR_HUD,0.0,0.0,356,0,-1.959999918937683,-0.0,POSITION_TARGET_GLOBAL_INT,15089708,0,65016,0,0,100.0,0.0,0.0,0.0,0.0,0.0,0.0,0.0,0.0,AHRS,0.0034399880096316338,0.0008808736456558108,-0.005559877958148718,0.0,0.0,0.009078489616513252,0.25681689381599426,GPS_RAW_INT,0,0,0,0,0,65535,65535,0,0,0,RC_CHANNELS,15089708,16,1500,1500,0,1500,0,0,0,0,0,0,0,0,0,0,0,0,0,0,255,MISSION_CURRENT,0,NAV_CONTROLLER_OUTPUT,0.0,0.0,0,0,0,102.01000213623047,0.0,0.0,SYS_STATUS,325188639,272759823,17890319,29,0,-1,-1,0,0,0,0,0,0,GLOBAL_POSITION_INT,15090208,0,0,-2330,-2333,0,0,0,35662,RAW_IMU,15089708542,-967,-68,31,-1,-1,5,-189,-232,43
14.492758989334106,24.7421875,26.526336669921875,42.49267578125,14.453125116415329,24.525960548178773,99833.41141546282,42.64614444147559,124.92839130925933,3,424,VFR_HUD,0.0,0.0,356,0,-1.959999918937683,-0.0,POSITION_TARGET_GLOBAL_INT,15089708,0,65016,0,0,100.0,0.0,0.0,0.0,0.0,0.0,0.0,0.0,0.0,AHRS,0.0034399880096316338,0.0008808736456558108,-0.005559877958148718,0.0,0.0,0.009078489616513252,0.25681689381599426,GPS_RAW_INT,0,0,0,0,0,65535,65535,0,0,0,RC_CHANNELS,15089708,16,1500,1500,0,1500,0,0,0,0,0,0,0,0,0,0,0,0,0,0,255,MISSION_CURRENT,0,NAV_CONTROLLER_OUTPUT,0.0,0.0,0,0,0,102.01000213623047,0.0,0.0,SYS_STATUS,325188639,272759823,17890319,28,0,-1,-1,0,0,0,0,0,0,GLOBAL_POSITION_INT,15090208,0,0,-2330,-2333,0,0,0,35662,RAW_IMU,15089708542,-967,-68,31,-1,-1,5,-189,-232,43
14.583016633987427,24.75,26.53167724609375,42.4957275390625,14.453125116415329,24.524035273569552,99835.01251987157,42.663320359940585,124.79348250284822,3,424,VFR_HUD,0.0,0.0,356,0,-1.959999918937683,-0.0,POSITION_TARGET_GLOBAL_INT,15089708,0,65016,0,0,100.0,0.0,0.0,0.0,0.0,0.0,0.0,0.0,0.0,AHRS,0.0034399880096316338,0.0008808736456558108,-0.005559877958148718,0.0,0.0,0.009078489616513252,0.25681689381599426,GPS_RAW_INT,0,0,0,0,0,65535,65535,0,0,0,RC_CHANNELS,15089708,16,1500,1500,0,1500,0,0,0,0,0,0,0,0,0,0,0,0,0,0,255,MISSION_CURRENT,0,NAV_CONTROLLER_OUTPUT,0.0,0.0,0,0,0,102.31999969482422,0.0,0.0,SYS_STATUS,325188639,272759823,17890319,28,0,-1,-1,0,0,0,0,0,0,GLOBAL_POSITION_INT,15090208,0,0,-2330,-2333,0,0,0,35662,RAW_IMU,15089708542,-967,-68,31,-1,-1,5,-189,-232,43
14.583016633987427,24.75,26.53167724609375,42.4957275390625,14.453125116415329,24.524035273569552,99835.01251987157,42.663320359940585,124.79348250284822,3,424,VFR_HUD,0.0,0.0,356,0,-1.959999918937683,-0.0,POSITION_TARGET_GLOBAL_INT,15089708,0,65016,0,0,100.0,0.0,0.0,0.0,0.0,0.0,0.0,0.0,0.0,AHRS,0.0034399880096316338,0.0008808736456558108,-0.005559877958148718,0.0,0.0,0.009078489616513252,0.25681689381599426,GPS_RAW_INT,0,0,0,0,0,65535,65535,0,0,0,RC_CHANNELS,15089708,16,1500,1500,0,1500,0,0,0,0,0,0,0,0,0,0,0,0,0,0,255,MISSION_CURRENT,0,NAV_CONTROLLER_OUTPUT,0.0,0.0,0,0,0,102.31999969482422,0.0,0.0,SYS_STATUS,325188639,272759823,17890319,28,0,-1,-1,0,0,0,0,0,0,GLOBAL_POSITION_INT,15090208,0,0,-2330,-2333,0,0,0,35662,RAW_IMU,15089708542,-967,-68,31,-1,-1,5,-189,-232,43
14.6697678565979,24.7421875,26.526336669921875,42.45147705078125,14.453125116415329,24.525639669074394,99836.46570215827,42.65760032599096,124.67103910781032,3,424,VFR_HUD,0.0,0.0,356,0,-2.3299999237060547,-0.0,POSITION_TARGET_GLOBAL_INT,15089708,0,65016,0,0,100.0,0.0,0.0,0.0,0.0,0.0,0.0,0.0,0.0,AHRS,0.0034399880096316338,0.0008808736456558108,-0.005559877958148718,0.0,0.0,0.009078489616513252,0.25681689381599426,GPS_RAW_INT,0,0,0,0,0,65535,65535,0,0,0,RC_CHANNELS,15089708,16,1500,1500,0,1500,0,0,0,0,0,0,0,0,0,0,0,0,0,0,255,MISSION_CURRENT,0,NAV_CONTROLLER_OUTPUT,0.0,0.0,0,0,0,102.31999969482422,0.0,0.0,SYS_STATUS,325188639,272759823,17890319,28,0,-1,-1,0,0,0,0,0,0,GLOBAL_POSITION_INT,15090208,0,0,-2330,-2333,0,0,0,35662,RAW_IMU,15089708542,-967,-68,31,-1,-1,5,-189,-232,43
14.6697678565979,24.7421875,26.526336669921875,42.45147705078125,14.453125116415329,24.525639669074394,99836.46570215827,42.65760032599096,124.67103910781032,3,424,VFR_HUD,0.0,0.0,356,0,-2.3299999237060547,-0.0,POSITION_TARGET_GLOBAL_INT,15089708,0,65016,0,0,100.0,0.0,0.0,0.0,0.0,0.0,0.0,0.0,0.0,AHRS,0.0034399880096316338,0.0008808736456558108,-0.005559877958148718,0.0,0.0,0.009078489616513252,0.25681689381599426,GPS_RAW_INT,0,0,0,0,0,65535,65535,0,0,0,RC_CHANNELS,15090208,16,1500,1500,0,1500,0,0,0,0,0,0,0,0,0,0,0,0,0,0,255,MISSION_CURRENT,0,NAV_CONTROLLER_OUTPUT,0.0,0.0,0,0,0,102.31999969482422,0.0,0.0,SYS_STATUS,325188639,272759823,17890319,28,0,-1,-1,0,0,0,0,0,0,GLOBAL_POSITION_INT,15090208,0,0,-2330,-2333,0,0,0,35662,RAW_IMU,15089708542,-967,-68,31,-1,-1,5,-189,-232,43
14.759219884872437,24.7421875,26.48895263671875,42.4896240234375,14.453125116415329,24.51216274771707,99835.43166109965,42.65752684878347,124.75816601802647,3,424,VFR_HUD,0.0,0.0,356,0,-2.3299999237060547,-0.0,POSITION_TARGET_GLOBAL_INT,15089708,0,65016,0,0,100.0,0.0,0.0,0.0,0.0,0.0,0.0,0.0,0.0,AHRS,0.0034399880096316338,0.0008808736456558108,-0.005559877958148718,0.0,0.0,0.009078489616513252,0.25681689381599426,GPS_RAW_INT,0,0,0,0,0,65535,65535,0,0,0,RC_CHANNELS,15090208,16,1500,1500,0,1500,0,0,0,0,0,0,0,0,0,0,0,0,0,0,255,MISSION_CURRENT,0,NAV_CONTROLLER_OUTPUT,0.0,0.0,0,0,0,102.31999969482422,0.0,0.0,SYS_STATUS,325188639,272759823,17890319,28,0,-1,-1,0,0,0,0,0,0,GLOBAL_POSITION_INT,15090208,0,0,-2330,-2333,0,0,0,35662,RAW_IMU,15090208402,-967,-69,29,-1,-1,6,-181,-239,41
