Time (s),mavpackettype,airspeed,groundspeed,heading,throttle,alt,climb,mavpackettype,time_boot_ms,coordinate_frame,type_mask,lat_int,lon_int,alt,vx,vy,vz,afx,afy,afz,yaw,yaw_rate,mavpackettype,omegaIx,omegaIy,omegaIz,accel_weight,renorm_val,error_rp,error_yaw,mavpackettype,time_usec,fix_type,lat,lon,alt,eph,epv,vel,cog,satellites_visible,mavpackettype,time_boot_ms,chancount,chan1_raw,chan2_raw,chan3_raw,chan4_raw,chan5_raw,chan6_raw,chan7_raw,chan8_raw,chan9_raw,chan10_raw,chan11_raw,chan12_raw,chan13_raw,chan14_raw,chan15_raw,chan16_raw,chan17_raw,chan18_raw,rssi,mavpackettype,seq,mavpackettype,onboard_control_sensors_present,onboard_control_sensors_enabled,onboard_control_sensors_health,load,voltage_battery,current_battery,battery_remaining,drop_rate_comm,errors_comm,errors_count1,errors_count2,errors_count3,errors_count4,mavpackettype,time_boot_ms,lat,lon,alt,relative_alt,vx,vy,vz,hdg,mavpackettype,time_usec,xacc,yacc,zacc,xgyro,ygyro,zgyro,xmag,ymag,zmag,mavpackettype,id,battery_function,type,temperature,voltages,current_battery,current_consumed,energy_consumed,battery_remaining,mavpackettype,type,autopilot,base_mode,custom_mode,system_status,mavlink_version
5.024543046951294,VFR_HUD,0.0,0.0,55,0,-3.629999876022339,-0.0,,,,,,,,,,,,,,,,AHRS,0.006686377339065075,0.0002245643554488197,-0.0016871540574356914,0.0,0.0,0.0003796829259954393,0.004052496515214443,GPS_RAW_INT,0,1,0,0,-17000,9999,9999,0,0,0,0,4294967295,4294967295,1000000,0,0,RC_CHANNELS,4996036,16,1501,1500,1004,1501,1000,1000,1500,1501,0,0,0,0,0,0,0,0,0,0,0,MISSION_CURRENT,0,SYS_STATUS,52485167,35684399,51413295,32,0,-1,-1,0,0,0,0,0,0,GLOBAL_POSITION_INT,4996036,0,0,-3630,-3638,0,0,0,5597,RAW_IMU,701069304,20,11,-992,-6,0,1,299,-448,235,0,4267,BATTERY_STATUS,0,0,0,32767,[65535, 65535, 65535, 65535, 65535, 65535, 65535, 65535, 65535, 65535],-1,-1,-1,100,0,0,[0, 0, 0, 0],0,0,HEARTBEAT,6,8,0,0,0,3
5.074789762496948,VFR_HUD,0.0,0.0,55,0,-3.629999876022339,-0.0,,,,,,,,,,,,,,,,AHRS,0.006686377339065075,0.0002245643554488197,-0.0016871540574356914,0.0,0.0,0.0003796829259954393,0.004052496515214443,GPS_RAW_INT,0,1,0,0,-17000,9999,9999,0,0,0,0,4294967295,4294967295,1000000,0,0,RC_CHANNELS,4996036,16,1501,1500,1004,1501,1000,1000,1500,1501,0,0,0,0,0,0,0,0,0,0,0,MISSION_CURRENT,0,SYS_STATUS,52485167,35684399,51413295,32,0,-1,-1,0,0,0,0,0,0,GLOBAL_POSITION_INT,4996036,0,0,-3630,-3638,0,0,0,5597,RAW_IMU,701069304,20,11,-992,-6,0,1,299,-448,235,0,4267,BATTERY_STATUS,0,0,0,32767,[65535, 65535, 65535, 65535, 65535, 65535, 65535, 65535, 65535, 65535],-1,-1,-1,100,0,0,[0, 0, 0, 0],0,0,HEARTBEAT,6,8,0,0,0,3
5.125045299530029,VFR_HUD,0.0,0.0,55,0,-3.629999876022339,-0.0,,,,,,,,,,,,,,,,AHRS,0.006686377339065075,0.0002245643554488197,-0.0016871540574356914,0.0,0.0,0.0003796829259954393,0.004052496515214443,GPS_RAW_INT,0,1,0,0,-17000,9999,9999,0,0,0,0,4294967295,4294967295,1000000,0,0,RC_CHANNELS,4996036,16,1501,1500,1004,1501,1000,1000,1500,1501,0,0,0,0,0,0,0,0,0,0,0,MISSION_CURRENT,0,SYS_STATUS,52485167,35684399,51413295,32,0,-1,-1,0,0,0,0,0,0,GLOBAL_POSITION_INT,4996036,0,0,-3630,-3638,0,0,0,5597,RAW_IMU,701069304,20,11,-992,-6,0,1,299,-448,235,0,4267,BATTERY_STATUS,0,0,0,32767,[65535, 65535, 65535, 65535, 65535, 65535, 65535, 65535, 65535, 65535],-1,-1,-1,100,0,0,[0, 0, 0, 0],0,0,HEARTBEAT,6,8,0,0,0,3
5.175250291824341,VFR_HUD,0.0,0.0,55,0,-3.629999876022339,-0.0,,,,,,,,,,,,,,,,AHRS,0.006686377339065075,0.0002245643554488197,-0.0016871540574356914,0.0,0.0,0.0003796829259954393,0.004052496515214443,GPS_RAW_INT,0,1,0,0,-17000,9999,9999,0,0,0,0,4294967295,4294967295,1000000,0,0,RC_CHANNELS,4996036,16,1501,1500,1004,1501,1000,1000,1500,1501,0,0,0,0,0,0,0,0,0,0,0,MISSION_CURRENT,0,SYS_STATUS,52485167,35684399,51413295,32,0,-1,-1,0,0,0,0,0,0,GLOBAL_POSITION_INT,4996036,0,0,-3630,-3638,0,0,0,5597,RAW_IMU,701069304,20,11,-992,-6,0,1,299,-448,235,0,4267,BATTERY_STATUS,0,0,0,32767,[65535, 65535, 65535, 65535, 65535, 65535, 65535, 65535, 65535, 65535],-1,-1,-1,100,0,0,[0, 0, 0, 0],0,0,HEARTBEAT,6,8,0,0,0,3
5.225432872772217,VFR_HUD,0.0,0.0,55,0,-3.629999876022339,-0.0,,,,,,,,,,,,,,,,AHRS,0.006686377339065075,0.0002245643554488197,-0.0016871540574356914,0.0,0.0,0.0003796829259954393,0.004052496515214443,GPS_RAW_INT,0,1,0,0,-17000,9999,9999,0,0,0,0,4294967295,4294967295,1000000,0,0,RC_CHANNELS,4996036,16,1501,1500,1004,1501,1000,1000,1500,1501,0,0,0,0,0,0,0,0,0,0,0,MISSION_CURRENT,0,SYS_STATUS,52485167,35684399,51413295,32,0,-1,-1,0,0,0,0,0,0,GLOBAL_POSITION_INT,4996036,0,0,-3630,-3638,0,0,0,5597,RAW_IMU,701069304,20,11,-992,-6,0,1,299,-448,235,0,4267,BATTERY_STATUS,0,0,0,32767,[65535, 65535, 65535, 65535, 65535, 65535, 65535, 65535, 65535, 65535],-1,-1,-1,100,0,0,[0, 0, 0, 0],0,0,HEARTBEAT,6,8,0,0,0,3
5.275781154632568,VFR_HUD,0.0,0.0,55,0,-3.629999876022339,-0.0,,,,,,,,,,,,,,,,AHRS,0.006686377339065075,0.0002245643554488197,-0.0016871540574356914,0.0,0.0,0.0003796829259954393,0.004052496515214443,GPS_RAW_INT,0,1,0,0,-17000,9999,9999,0,0,0,0,4294967295,4294967295,1000000,0,0,RC_CHANNELS,4996036,16,1501,1500,1004,1501,1000,1000,1500,1501,0,0,0,0,0,0,0,0,0,0,0,MISSION_CURRENT,0,SYS_STATUS,52485167,35684399,51413295,32,0,-1,-1,0,0,0,0,0,0,GLOBAL_POSITION_INT,4996036,0,0,-3630,-3638,0,0,0,5597,RAW_IMU,701069304,20,11,-992,-6,0,1,299,-448,235,0,4267,BATTERY_STATUS,0,0,0,32767,[65535, 65535, 65535, 65535, 65535, 65535, 65535, 65535, 65535, 65535],-1,-1,-1,100,0,0,[0, 0, 0, 0],0,0,HEARTBEAT,6,8,0,0,0,3
5.326081037521362,VFR_HUD,0.0,0.0,55,0,-3.629999876022339,-0.0,,,,,,,,,,,,,,,,AHRS,0.006686377339065075,0.0002245643554488197,-0.0016871540574356914,0.0,0.0,0.0003796829259954393,0.004052496515214443,GPS_RAW_INT,0,1,0,0,-17000,9999,9999,0,0,0,0,4294967295,4294967295,1000000,0,0,RC_CHANNELS,4996036,16,1501,1500,1004,1501,1000,1000,1500,1501,0,0,0,0,0,0,0,0,0,0,0,MISSION_CURRENT,0,SYS_STATUS,52485167,35684399,51413295,32,0,-1,-1,0,0,0,0,0,0,GLOBAL_POSITION_INT,4996036,0,0,-3630,-3638,0,0,0,5597,RAW_IMU,701069304,20,11,-992,-6,0,1,299,-448,235,0,4267,BATTERY_STATUS,0,0,0,32767,[65535, 65535, 65535, 65535, 65535, 65535, 65535, 65535, 65535, 65535],-1,-1,-1,100,0,0,[0, 0, 0, 0],0,0,HEARTBEAT,6,8,0,0,0,3
5.376360654830933,VFR_HUD,0.0,0.0,55,0,-3.629999876022339,-0.0,,,,,,,,,,,,,,,,AHRS,0.006686377339065075,0.0002245643554488197,-0.0016871540574356914,0.0,0.0,0.0003796829259954393,0.004052496515214443,GPS_RAW_INT,0,1,0,0,-17000,9999,9999,0,0,0,0,4294967295,4294967295,1000000,0,0,RC_CHANNELS,4996036,16,1501,1500,1004,1501,1000,1000,1500,1501,0,0,0,0,0,0,0,0,0,0,0,MISSION_CURRENT,0,SYS_STATUS,52485167,35684399,51413295,32,0,-1,-1,0,0,0,0,0,0,GLOBAL_POSITION_INT,4996036,0,0,-3630,-3638,0,0,0,5597,RAW_IMU,701069304,20,11,-992,-6,0,1,299,-448,235,0,4267,BATTERY_STATUS,0,0,0,32767,[65535, 65535, 65535, 65535, 65535, 65535, 65535, 65535, 65535, 65535],-1,-1,-1,100,0,0,[0, 0, 0, 0],0,0,HEARTBEAT,6,8,0,0,0,3
5.426568508148193,VFR_HUD,0.0,0.0,55,0,-3.629999876022339,-0.0,,,,,,,,,,,,,,,,AHRS,0.006686377339065075,0.0002245643554488197,-0.0016871540574356914,0.0,0.0,0.0003796829259954393,0.004052496515214443,GPS_RAW_INT,0,1,0,0,-17000,9999,9999,0,0,0,0,4294967295,4294967295,1000000,0,0,RC_CHANNELS,4996036,16,1501,1500,1004,1501,1000,1000,1500,1501,0,0,0,0,0,0,0,0,0,0,0,MISSION_CURRENT,0,SYS_STATUS,52485167,35684399,51413295,32,0,-1,-1,0,0,0,0,0,0,GLOBAL_POSITION_INT,4996036,0,0,-3630,-3638,0,0,0,5597,RAW_IMU,701069304,20,11,-992,-6,0,1,299,-448,235,0,4267,BATTERY_STATUS,0,0,0,32767,[65535, 65535, 65535, 65535, 65535, 65535, 65535, 65535, 65535, 65535],-1,-1,-1,100,0,0,[0, 0, 0, 0],0,0,HEARTBEAT,6,8,0,0,0,3
5.4768781661987305,VFR_HUD,0.0,0.0,55,0,-3.629999876022339,-0.0,,,,,,,,,,,,,,,,AHRS,0.006686377339065075,0.0002245643554488197,-0.0016871540574356914,0.0,0.0,0.0003796829259954393,0.004052496515214443,GPS_RAW_INT,0,1,0,0,-17000,9999,9999,0,0,0,0,4294967295,4294967295,1000000,0,0,RC_CHANNELS,4996036,16,1501,1500,1004,1501,1000,1000,1500,1501,0,0,0,0,0,0,0,0,0,0,0,MISSION_CURRENT,0,SYS_STATUS,52485167,35684399,51413295,32,0,-1,-1,0,0,0,0,0,0,GLOBAL_POSITION_INT,4996036,0,0,-3630,-3638,0,0,0,5597,RAW_IMU,701069304,20,11,-992,-6,0,1,299,-448,235,0,4267,BATTERY_STATUS,0,0,0,32767,[65535, 65535, 65535, 65535, 65535, 65535, 65535, 65535, 65535, 65535],-1,-1,-1,100,0,0,[0, 0, 0, 0],0,0,HEARTBEAT,6,8,0,0,0,3
5.527071714401245,VFR_HUD,0.0,0.0,55,0,-3.629999876022339,-0.0,,,,,,,,,,,,,,,,AHRS,0.006686377339065075,0.0002245643554488197,-0.0016871540574356914,0.0,0.0,0.0003796829259954393,0.004052496515214443,GPS_RAW_INT,0,1,0,0,-17000,9999,9999,0,0,0,0,4294967295,4294967295,1000000,0,0,RC_CHANNELS,4996036,16,1501,1500,1004,1501,1000,1000,1500,1501,0,0,0,0,0,0,0,0,0,0,0,MISSION_CURRENT,0,SYS_STATUS,52485167,35684399,51413295,32,0,-1,-1,0,0,0,0,0,0,GLOBAL_POSITION_INT,4996036,0,0,-3630,-3638,0,0,0,5597,RAW_IMU,701069304,20,11,-992,-6,0,1,299,-448,235,0,4267,BATTERY_STATUS,0,0,0,32767,[65535, 65535, 65535, 65535, 65535, 65535, 65535, 65535, 65535, 65535],-1,-1,-1,100,0,0,[0, 0, 0, 0],0,0,HEARTBEAT,6,8,0,0,0,3
5.577328443527222,VFR_HUD,0.0,0.0,55,0,-3.629999876022339,-0.0,,,,,,,,,,,,,,,,AHRS,0.006686377339065075,0.0002245643554488197,-0.0016871540574356914,0.0,0.0,0.0003796829259954393,0.004052496515214443,GPS_RAW_INT,0,1,0,0,-17000,9999,9999,0,0,0,0,4294967295,4294967295,1000000,0,0,RC_CHANNELS,4996036,16,1501,1500,1004,1501,1000,1000,1500,1501,0,0,0,0,0,0,0,0,0,0,0,MISSION_CURRENT,0,SYS_STATUS,52485167,35684399,51413295,32,0,-1,-1,0,0,0,0,0,0,GLOBAL_POSITION_INT,4996036,0,0,-3630,-3638,0,0,0,5597,RAW_IMU,701069304,20,11,-992,-6,0,1,299,-448,235,0,4267,BATTERY_STATUS,0,0,0,32767,[65535, 65535, 65535, 65535, 65535, 65535, 65535, 65535, 65535, 65535],-1,-1,-1,100,0,0,[0, 0, 0, 0],0,0,HEARTBEAT,6,8,0,0,0,3
5.627533912658691,VFR_HUD,0.0,0.0,55,0,-3.629999876022339,-0.0,,,,,,,,,,,,,,,,AHRS,0.006686377339065075,0.0002245643554488197,-0.0016871540574356914,0.0,0.0,0.0003796829259954393,0.004052496515214443,GPS_RAW_INT,0,1,0,0,-17000,9999,9999,0,0,0,0,4294967295,4294967295,1000000,0,0,RC_CHANNELS,4996036,16,1501,1500,1004,1501,1000,1000,1500,1501,0,0,0,0,0,0,0,0,0,0,0,MISSION_CURRENT,0,SYS_STATUS,52485167,35684399,51413295,32,0,-1,-1,0,0,0,0,0,0,GLOBAL_POSITION_INT,4996036,0,0,-3630,-3638,0,0,0,5597,RAW_IMU,701069304,20,11,-992,-6,0,1,299,-448,235,0,4267,BATTERY_STATUS,0,0,0,32767,[65535, 65535, 65535, 65535, 65535, 65535, 65535, 65535, 65535, 65535],-1,-1,-1,100,0,0,[0, 0, 0, 0],0,0,HEARTBEAT,6,8,0,0,0,3
5.677741050720215,VFR_HUD,0.0,0.0,55,0,-3.629999876022339,-0.0,,,,,,,,,,,,,,,,AHRS,0.006686377339065075,0.0002245643554488197,-0.0016871540574356914,0.0,0.0,0.0003796829259954393,0.004052496515214443,GPS_RAW_INT,0,1,0,0,-17000,9999,9999,0,0,0,0,4294967295,4294967295,1000000,0,0,RC_CHANNELS,4996036,16,1501,1500,1004,1501,1000,1000,1500,1501,0,0,0,0,0,0,0,0,0,0,0,MISSION_CURRENT,0,SYS_STATUS,52485167,35684399,51413295,32,0,-1,-1,0,0,0,0,0,0,GLOBAL_POSITION_INT,4996036,0,0,-3630,-3638,0,0,0,5597,RAW_IMU,701069304,20,11,-992,-6,0,1,299,-448,235,0,4267,BATTERY_STATUS,0,0,0,32767,[65535, 65535, 65535, 65535, 65535, 65535, 65535, 65535, 65535, 65535],-1,-1,-1,100,0,0,[0, 0, 0, 0],0,0,HEARTBEAT,6,8,0,0,0,3
5.727962017059326,VFR_HUD,0.0,0.0,55,0,-3.629999876022339,-0.0,,,,,,,,,,,,,,,,AHRS,0.006686377339065075,0.0002245643554488197,-0.0016871540574356914,0.0,0.0,0.0003796829259954393,0.004052496515214443,GPS_RAW_INT,0,1,0,0,-17000,9999,9999,0,0,0,0,4294967295,4294967295,1000000,0,0,RC_CHANNELS,4996036,16,1501,1500,1004,1501,1000,1000,1500,1501,0,0,0,0,0,0,0,0,0,0,0,MISSION_CURRENT,0,SYS_STATUS,52485167,35684399,51413295,32,0,-1,-1,0,0,0,0,0,0,GLOBAL_POSITION_INT,4996036,0,0,-3630,-3638,0,0,0,5597,RAW_IMU,701069304,20,11,-992,-6,0,1,299,-448,235,0,4267,BATTERY_STATUS,0,0,0,32767,[65535, 65535, 65535, 65535, 65535, 65535, 65535, 65535, 65535, 65535],-1,-1,-1,100,0,0,[0, 0, 0, 0],0,0,HEARTBEAT,6,8,0,0,0,3
5.778162240982056,VFR_HUD,0.0,0.0,55,0,-3.629999876022339,-0.0,,,,,,,,,,,,,,,,AHRS,0.006686377339065075,0.0002245643554488197,-0.0016871540574356914,0.0,0.0,0.0003796829259954393,0.004052496515214443,GPS_RAW_INT,0,1,0,0,-17000,9999,9999,0,0,0,0,4294967295,4294967295,1000000,0,0,RC_CHANNELS,4996036,16,1501,1500,1004,1501,1000,1000,1500,1501,0,0,0,0,0,0,0,0,0,0,0,MISSION_CURRENT,0,SYS_STATUS,52485167,35684399,51413295,32,0,-1,-1,0,0,0,0,0,0,GLOBAL_POSITION_INT,4996036,0,0,-3630,-3638,0,0,0,5597,RAW_IMU,701069304,20,11,-992,-6,0,1,299,-448,235,0,4267,BATTERY_STATUS,0,0,0,32767,[65535, 65535, 65535, 65535, 65535, 65535, 65535, 65535, 65535, 65535],-1,-1,-1,100,0,0,[0, 0, 0, 0],0,0,HEARTBEAT,6,8,0,0,0,3
5.836994409561157,VFR_HUD,0.0,0.0,55,0,-3.629999876022339,-0.0,,,,,,,,,,,,,,,,AHRS,0.006686377339065075,0.0002245643554488197,-0.0016871540574356914,0.0,0.0,0.0003796829259954393,0.004052496515214443,GPS_RAW_INT,0,1,0,0,-17000,9999,9999,0,0,0,0,4294967295,4294967295,1000000,0,0,RC_CHANNELS,4996036,16,1501,1500,1004,1501,1000,1000,1500,1501,0,0,0,0,0,0,0,0,0,0,0,MISSION_CURRENT,0,SYS_STATUS,52485167,35684399,51413295,32,0,-1,-1,0,0,0,0,0,0,GLOBAL_POSITION_INT,4996036,0,0,-3630,-3638,0,0,0,5597,RAW_IMU,701069304,20,11,-992,-6,0,1,299,-448,235,0,4267,BATTERY_STATUS,0,0,0,32767,[65535, 65535, 65535, 65535, 65535, 65535, 65535, 65535, 65535, 65535],-1,-1,-1,100,0,0,[0, 0, 0, 0],0,0,HEARTBEAT,6,8,0,0,0,3
5.887272357940674,VFR_HUD,0.0,0.0,55,0,-3.629999876022339,-0.0,,,,,,,,,,,,,,,,AHRS,0.006686377339065075,0.0002245643554488197,-0.0016871540574356914,0.0,0.0,0.0003796829259954393,0.004052496515214443,GPS_RAW_INT,0,1,0,0,-17000,9999,9999,0,0,0,0,4294967295,4294967295,1000000,0,0,RC_CHANNELS,4996036,16,1501,1500,1004,1501,1000,1000,1500,1501,0,0,0,0,0,0,0,0,0,0,0,MISSION_CURRENT,0,SYS_STATUS,52485167,35684399,51413295,32,0,-1,-1,0,0,0,0,0,0,GLOBAL_POSITION_INT,4996036,0,0,-3630,-3638,0,0,0,5597,RAW_IMU,701069304,20,11,-992,-6,0,1,299,-448,235,0,4267,BATTERY_STATUS,0,0,0,32767,[65535, 65535, 65535, 65535, 65535, 65535, 65535, 65535, 65535, 65535],-1,-1,-1,100,0,0,[0, 0, 0, 0],0,0,HEARTBEAT,6,8,0,0,0,3
5.937500953674316,VFR_HUD,0.0,0.0,55,0,-3.629999876022339,-0.0,,,,,,,,,,,,,,,,AHRS,0.006686377339065075,0.0002245643554488197,-0.0016871540574356914,0.0,0.0,0.0003796829259954393,0.004052496515214443,GPS_RAW_INT,0,1,0,0,-17000,9999,9999,0,0,0,0,4294967295,4294967295,1000000,0,0,RC_CHANNELS,4996036,16,1501,1500,1004,1501,1000,1000,1500,1501,0,0,0,0,0,0,0,0,0,0,0,MISSION_CURRENT,0,SYS_STATUS,52485167,35684399,51413295,32,0,-1,-1,0,0,0,0,0,0,GLOBAL_POSITION_INT,4996036,0,0,-3630,-3638,0,0,0,5597,RAW_IMU,701069304,20,11,-992,-6,0,1,299,-448,235,0,4267,BATTERY_STATUS,0,0,0,32767,[65535, 65535, 65535, 65535, 65535, 65535, 65535, 65535, 65535, 65535],-1,-1,-1,100,0,0,[0, 0, 0, 0],0,0,HEARTBEAT,6,8,0,0,0,3
6.000367879867554,VFR_HUD,0.0,0.0,55,0,-3.629999876022339,-0.0,,,,,,,,,,,,,,,,AHRS,0.006686377339065075,0.0002245643554488197,-0.0016871540574356914,0.0,0.0,0.0003796829259954393,0.004052496515214443,GPS_RAW_INT,0,1,0,0,-17000,9999,9999,0,0,0,0,4294967295,4294967295,1000000,0,0,RC_CHANNELS,4996036,16,1501,1500,1004,1501,1000,1000,1500,1501,0,0,0,0,0,0,0,0,0,0,0,MISSION_CURRENT,0,SYS_STATUS,52485167,35684399,51413295,32,0,-1,-1,0,0,0,0,0,0,GLOBAL_POSITION_INT,4996036,0,0,-3630,-3638,0,0,0,5597,RAW_IMU,701069304,20,11,-992,-6,0,1,299,-448,235,0,4267,BATTERY_STATUS,0,0,0,32767,[65535, 65535, 65535, 65535, 65535, 65535, 65535, 65535, 65535, 65535],-1,-1,-1,100,0,0,[0, 0, 0, 0],0,0,HEARTBEAT,6,8,0,0,0,3
6.050607204437256,VFR_HUD,0.0,0.0,55,0,-3.629999876022339,-0.0,,,,,,,,,,,,,,,,AHRS,0.006686377339065075,0.0002245643554488197,-0.0016871540574356914,0.0,0.0,0.0003796829259954393,0.004052496515214443,GPS_RAW_INT,0,1,0,0,-17000,9999,9999,0,0,0,0,4294967295,4294967295,1000000,0,0,RC_CHANNELS,4996036,16,1501,1500,1004,1501,1000,1000,1500,1501,0,0,0,0,0,0,0,0,0,0,0,MISSION_CURRENT,0,SYS_STATUS,52485167,35684399,51413295,32,0,-1,-1,0,0,0,0,0,0,GLOBAL_POSITION_INT,4996036,0,0,-3630,-3638,0,0,0,5597,RAW_IMU,701069304,20,11,-992,-6,0,1,299,-448,235,0,4267,BATTERY_STATUS,0,0,0,32767,[65535, 65535, 65535, 65535, 65535, 65535, 65535, 65535, 65535, 65535],-1,-1,-1,100,0,0,[0, 0, 0, 0],0,0,HEARTBEAT,6,8,0,0,0,3
6.100818634033203,VFR_HUD,0.0,0.0,55,0,-3.629999876022339,-0.0,,,,,,,,,,,,,,,,AHRS,0.006686377339065075,0.0002245643554488197,-0.0016871540574356914,0.0,0.0,0.0003796829259954393,0.004052496515214443,GPS_RAW_INT,0,1,0,0,-17000,9999,9999,0,0,0,0,4294967295,4294967295,1000000,0,0,RC_CHANNELS,4996036,16,1501,1500,1004,1501,1000,1000,1500,1501,0,0,0,0,0,0,0,0,0,0,0,MISSION_CURRENT,0,SYS_STATUS,52485167,35684399,51413295,32,0,-1,-1,0,0,0,0,0,0,GLOBAL_POSITION_INT,4996036,0,0,-3630,-3638,0,0,0,5597,RAW_IMU,701069304,20,11,-992,-6,0,1,299,-448,235,0,4267,BATTERY_STATUS,0,0,0,32767,[65535, 65535, 65535, 65535, 65535, 65535, 65535, 65535, 65535, 65535],-1,-1,-1,100,0,0,[0, 0, 0, 0],0,0,HEARTBEAT,6,8,0,0,0,3
6.156966686248779,VFR_HUD,0.0,0.0,55,0,-3.629999876022339,-0.0,,,,,,,,,,,,,,,,AHRS,0.006686377339065075,0.0002245643554488197,-0.0016871540574356914,0.0,0.0,0.0003796829259954393,0.004052496515214443,GPS_RAW_INT,0,1,0,0,-17000,9999,9999,0,0,0,0,4294967295,4294967295,1000000,0,0,RC_CHANNELS,4996036,16,1501,1500,1004,1501,1000,1000,1500,1501,0,0,0,0,0,0,0,0,0,0,0,MISSION_CURRENT,0,SYS_STATUS,52485167,35684399,51413295,32,0,-1,-1,0,0,0,0,0,0,GLOBAL_POSITION_INT,4996036,0,0,-3630,-3638,0,0,0,5597,RAW_IMU,701069304,20,11,-992,-6,0,1,299,-448,235,0,4267,BATTERY_STATUS,0,0,0,32767,[65535, 65535, 65535, 65535, 65535, 65535, 65535, 65535, 65535, 65535],-1,-1,-1,100,0,0,[0, 0, 0, 0],0,0,HEARTBEAT,6,8,0,0,0,3
6.207156419754028,VFR_HUD,0.0,0.0,55,0,-3.629999876022339,-0.0,,,,,,,,,,,,,,,,AHRS,0.006686377339065075,0.0002245643554488197,-0.0016871540574356914,0.0,0.0,0.0003796829259954393,0.004052496515214443,GPS_RAW_INT,0,1,0,0,-17000,9999,9999,0,0,0,0,4294967295,4294967295,1000000,0,0,RC_CHANNELS,4996036,16,1501,1500,1004,1501,1000,1000,1500,1501,0,0,0,0,0,0,0,0,0,0,0,MISSION_CURRENT,0,SYS_STATUS,52485167,35684399,51413295,32,0,-1,-1,0,0,0,0,0,0,GLOBAL_POSITION_INT,4996036,0,0,-3630,-3638,0,0,0,5597,RAW_IMU,701069304,20,11,-992,-6,0,1,299,-448,235,0,4267,BATTERY_STATUS,0,0,0,32767,[65535, 65535, 65535, 65535, 65535, 65535, 65535, 65535, 65535, 65535],-1,-1,-1,100,0,0,[0, 0, 0, 0],0,0,HEARTBEAT,6,8,0,0,0,3
6.257378339767456,VFR_HUD,0.0,0.0,55,0,-3.629999876022339,-0.0,,,,,,,,,,,,,,,,AHRS,0.006686377339065075,0.0002245643554488197,-0.0016871540574356914,0.0,0.0,0.0003796829259954393,0.004052496515214443,GPS_RAW_INT,0,1,0,0,-17000,9999,9999,0,0,0,0,4294967295,4294967295,1000000,0,0,RC_CHANNELS,4996036,16,1501,1500,1004,1501,1000,1000,1500,1501,0,0,0,0,0,0,0,0,0,0,0,MISSION_CURRENT,0,SYS_STATUS,52485167,35684399,51413295,32,0,-1,-1,0,0,0,0,0,0,GLOBAL_POSITION_INT,4996036,0,0,-3630,-3638,0,0,0,5597,RAW_IMU,701069304,20,11,-992,-6,0,1,299,-448,235,0,4267,BATTERY_STATUS,0,0,0,32767,[65535, 65535, 65535, 65535, 65535, 65535, 65535, 65535, 65535, 65535],-1,-1,-1,100,0,0,[0, 0, 0, 0],0,0,HEARTBEAT,6,8,0,0,0,3
6.314417839050293,VFR_HUD,0.0,0.0,55,0,-3.629999876022339,-0.0,,,,,,,,,,,,,,,,AHRS,0.006686377339065075,0.0002245643554488197,-0.0016871540574356914,0.0,0.0,0.0003796829259954393,0.004052496515214443,GPS_RAW_INT,0,1,0,0,-17000,9999,9999,0,0,0,0,4294967295,4294967295,1000000,0,0,RC_CHANNELS,4996036,16,1501,1500,1004,1501,1000,1000,1500,1501,0,0,0,0,0,0,0,0,0,0,0,MISSION_CURRENT,0,SYS_STATUS,52485167,35684399,51413295,32,0,-1,-1,0,0,0,0,0,0,GLOBAL_POSITION_INT,4996036,0,0,-3630,-3638,0,0,0,5597,RAW_IMU,701069304,20,11,-992,-6,0,1,299,-448,235,0,4267,BATTERY_STATUS,0,0,0,32767,[65535, 65535, 65535, 65535, 65535, 65535, 65535, 65535, 65535, 65535],-1,-1,-1,100,0,0,[0, 0, 0, 0],0,0,HEARTBEAT,6,8,0,0,0,3
6.364596128463745,VFR_HUD,0.0,0.0,55,0,-3.629999876022339,-0.0,,,,,,,,,,,,,,,,AHRS,0.006686377339065075,0.0002245643554488197,-0.0016871540574356914,0.0,0.0,0.0003796829259954393,0.004052496515214443,GPS_RAW_INT,0,1,0,0,-17000,9999,9999,0,0,0,0,4294967295,4294967295,1000000,0,0,RC_CHANNELS,4996036,16,1501,1500,1004,1501,1000,1000,1500,1501,0,0,0,0,0,0,0,0,0,0,0,MISSION_CURRENT,0,SYS_STATUS,52485167,35684399,51413295,32,0,-1,-1,0,0,0,0,0,0,GLOBAL_POSITION_INT,4996036,0,0,-3630,-3638,0,0,0,5597,RAW_IMU,701069304,20,11,-992,-6,0,1,299,-448,235,0,4267,BATTERY_STATUS,0,0,0,32767,[65535, 65535, 65535, 65535, 65535, 65535, 65535, 65535, 65535, 65535],-1,-1,-1,100,0,0,[0, 0, 0, 0],0,0,HEARTBEAT,6,8,0,0,0,3
6.4147820472717285,VFR_HUD,0.0,0.0,55,0,-3.629999876022339,-0.0,,,,,,,,,,,,,,,,AHRS,0.006686377339065075,0.0002245643554488197,-0.0016871540574356914,0.0,0.0,0.0003796829259954393,0.004052496515214443,GPS_RAW_INT,0,1,0,0,-17000,9999,9999,0,0,0,0,4294967295,4294967295,1000000,0,0,RC_CHANNELS,4996036,16,1501,1500,1004,1501,1000,1000,1500,1501,0,0,0,0,0,0,0,0,0,0,0,MISSION_CURRENT,0,SYS_STATUS,52485167,35684399,51413295,32,0,-1,-1,0,0,0,0,0,0,GLOBAL_POSITION_INT,4996036,0,0,-3630,-3638,0,0,0,5597,RAW_IMU,701069304,20,11,-992,-6,0,1,299,-448,235,0,4267,BATTERY_STATUS,0,0,0,32767,[65535, 65535, 65535, 65535, 65535, 65535, 65535, 65535, 65535, 65535],-1,-1,-1,100,0,0,[0, 0, 0, 0],0,0,HEARTBEAT,6,8,0,0,0,3
6.465003490447998,VFR_HUD,0.0,0.0,55,0,-3.629999876022339,-0.0,,,,,,,,,,,,,,,,AHRS,0.006686377339065075,0.0002245643554488197,-0.0016871540574356914,0.0,0.0,0.0003796829259954393,0.004052496515214443,GPS_RAW_INT,0,1,0,0,-17000,9999,9999,0,0,0,0,4294967295,4294967295,1000000,0,0,RC_CHANNELS,4996036,16,1501,1500,1004,1501,1000,1000,1500,1501,0,0,0,0,0,0,0,0,0,0,0,MISSION_CURRENT,0,SYS_STATUS,52485167,35684399,51413295,32,0,-1,-1,0,0,0,0,0,0,GLOBAL_POSITION_INT,4996036,0,0,-3630,-3638,0,0,0,5597,RAW_IMU,701069304,20,11,-992,-6,0,1,299,-448,235,0,4267,BATTERY_STATUS,0,0,0,32767,[65535, 65535, 65535, 65535, 65535, 65535, 65535, 65535, 65535, 65535],-1,-1,-1,100,0,0,[0, 0, 0, 0],0,0,HEARTBEAT,6,8,0,0,0,3
6.516976833343506,VFR_HUD,0.0,0.0,55,0,-3.629999876022339,-0.0,,,,,,,,,,,,,,,,AHRS,0.006686377339065075,0.0002245643554488197,-0.0016871540574356914,0.0,0.0,0.0003796829259954393,0.004052496515214443,GPS_RAW_INT,0,1,0,0,-17000,9999,9999,0,0,0,0,4294967295,4294967295,1000000,0,0,RC_CHANNELS,4996036,16,1501,1500,1004,1501,1000,1000,1500,1501,0,0,0,0,0,0,0,0,0,0,0,MISSION_CURRENT,0,SYS_STATUS,52485167,35684399,51413295,32,0,-1,-1,0,0,0,0,0,0,GLOBAL_POSITION_INT,4996036,0,0,-3630,-3638,0,0,0,5597,RAW_IMU,701069304,20,11,-992,-6,0,1,299,-448,235,0,4267,BATTERY_STATUS,0,0,0,32767,[65535, 65535, 65535, 65535, 65535, 65535, 65535, 65535, 65535, 65535],-1,-1,-1,100,0,0,[0, 0, 0, 0],0,0,HEARTBEAT,6,8,0,0,0,3
6.567242860794067,VFR_HUD,0.0,0.0,55,0,-3.629999876022339,-0.0,,,,,,,,,,,,,,,,AHRS,0.006686377339065075,0.0002245643554488197,-0.0016871540574356914,0.0,0.0,0.0003796829259954393,0.004052496515214443,GPS_RAW_INT,0,1,0,0,-17000,9999,9999,0,0,0,0,4294967295,4294967295,1000000,0,0,RC_CHANNELS,4996036,16,1501,1500,1004,1501,1000,1000,1500,1501,0,0,0,0,0,0,0,0,0,0,0,MISSION_CURRENT,0,SYS_STATUS,52485167,35684399,51413295,32,0,-1,-1,0,0,0,0,0,0,GLOBAL_POSITION_INT,4996036,0,0,-3630,-3638,0,0,0,5597,RAW_IMU,701069304,20,11,-992,-6,0,1,299,-448,235,0,4267,BATTERY_STATUS,0,0,0,32767,[65535, 65535, 65535, 65535, 65535, 65535, 65535, 65535, 65535, 65535],-1,-1,-1,100,0,0,[0, 0, 0, 0],0,0,HEARTBEAT,6,8,0,0,0,3
6.617458820343018,VFR_HUD,0.0,0.0,55,0,-3.629999876022339,-0.0,,,,,,,,,,,,,,,,AHRS,0.006686377339065075,0.0002245643554488197,-0.0016871540574356914,0.0,0.0,0.0003796829259954393,0.004052496515214443,GPS_RAW_INT,0,1,0,0,-17000,9999,9999,0,0,0,0,4294967295,4294967295,1000000,0,0,RC_CHANNELS,4996036,16,1501,1500,1004,1501,1000,1000,1500,1501,0,0,0,0,0,0,0,0,0,0,0,MISSION_CURRENT,0,SYS_STATUS,52485167,35684399,51413295,32,0,-1,-1,0,0,0,0,0,0,GLOBAL_POSITION_INT,4996036,0,0,-3630,-3638,0,0,0,5597,RAW_IMU,701069304,20,11,-992,-6,0,1,299,-448,235,0,4267,BATTERY_STATUS,0,0,0,32767,[65535, 65535, 65535, 65535, 65535, 65535, 65535, 65535, 65535, 65535],-1,-1,-1,100,0,0,[0, 0, 0, 0],0,0,HEARTBEAT,6,8,0,0,0,3
6.668635606765747,VFR_HUD,0.0,0.0,55,0,-3.68999981880188,-0.0,,,,,,,,,,,,,,,,AHRS,0.006686377339065075,0.0002245643554488197,-0.0016871540574356914,0.0,0.0,0.00035806329105980694,0.0036469646729528904,GPS_RAW_INT,0,1,0,0,-17000,9999,9999,0,0,0,0,4294967295,4294967295,1000000,0,0,RC_CHANNELS,4996536,16,1501,1499,1004,1502,1000,1000,1500,1500,0,0,0,0,0,0,0,0,0,0,0,MISSION_CURRENT,0,SYS_STATUS,52485167,35684399,51413295,34,0,-1,-1,0,0,0,0,0,0,GLOBAL_POSITION_INT,4996536,0,0,-3690,-3697,0,0,0,5596,RAW_IMU,701569301,20,11,-992,-6,0,1,294,-453,231,0,4266,BATTERY_STATUS,0,0,0,32767,[65535, 65535, 65535, 65535, 65535, 65535, 65535, 65535, 65535, 65535],-1,-1,-1,100,0,0,[0, 0, 0, 0],0,0,HEARTBEAT,6,8,0,0,0,3
6.718903303146362,VFR_HUD,0.0,0.0,55,0,-3.68999981880188,-0.0,,,,,,,,,,,,,,,,AHRS,0.006686377339065075,0.0002245643554488197,-0.0016871540574356914,0.0,0.0,0.00035806329105980694,0.0036469646729528904,GPS_RAW_INT,0,1,0,0,-17000,9999,9999,0,0,0,0,4294967295,4294967295,1000000,0,0,RC_CHANNELS,4996536,16,1501,1499,1004,1502,1000,1000,1500,1500,0,0,0,0,0,0,0,0,0,0,0,MISSION_CURRENT,0,SYS_STATUS,52485167,35684399,51413295,34,0,-1,-1,0,0,0,0,0,0,GLOBAL_POSITION_INT,4996536,0,0,-3690,-3697,0,0,0,5596,RAW_IMU,701569301,20,11,-992,-6,0,1,294,-453,231,0,4266,BATTERY_STATUS,0,0,0,32767,[65535, 65535, 65535, 65535, 65535, 65535, 65535, 65535, 65535, 65535],-1,-1,-1,100,0,0,[0, 0, 0, 0],0,0,HEARTBEAT,6,8,0,0,0,3
6.769131183624268,VFR_HUD,0.0,0.0,55,0,-3.68999981880188,-0.0,,,,,,,,,,,,,,,,AHRS,0.006686377339065075,0.0002245643554488197,-0.0016871540574356914,0.0,0.0,0.00035806329105980694,0.0036469646729528904,GPS_RAW_INT,0,1,0,0,-17000,9999,9999,0,0,0,0,4294967295,4294967295,1000000,0,0,RC_CHANNELS,4996536,16,1501,1499,1004,1502,1000,1000,1500,1500,0,0,0,0,0,0,0,0,0,0,0,MISSION_CURRENT,0,SYS_STATUS,52485167,35684399,51413295,34,0,-1,-1,0,0,0,0,0,0,GLOBAL_POSITION_INT,4996536,0,0,-3690,-3697,0,0,0,5596,RAW_IMU,701569301,20,11,-992,-6,0,1,294,-453,231,0,4266,BATTERY_STATUS,0,0,0,32767,[65535, 65535, 65535, 65535, 65535, 65535, 65535, 65535, 65535, 65535],-1,-1,-1,100,0,0,[0, 0, 0, 0],0,0,HEARTBEAT,6,8,0,0,0,3
6.819392204284668,VFR_HUD,0.0,0.0,55,0,-3.68999981880188,-0.0,,,,,,,,,,,,,,,,AHRS,0.006686377339065075,0.0002245643554488197,-0.0016871540574356914,0.0,0.0,0.00035806329105980694,0.0036469646729528904,GPS_RAW_INT,0,1,0,0,-17000,9999,9999,0,0,0,0,4294967295,4294967295,1000000,0,0,RC_CHANNELS,4996536,16,1501,1499,1004,1502,1000,1000,1500,1500,0,0,0,0,0,0,0,0,0,0,0,MISSION_CURRENT,0,SYS_STATUS,52485167,35684399,51413295,34,0,-1,-1,0,0,0,0,0,0,GLOBAL_POSITION_INT,4996536,0,0,-3690,-3697,0,0,0,5596,RAW_IMU,701569301,20,11,-992,-6,0,1,294,-453,231,0,4266,BATTERY_STATUS,0,0,0,32767,[65535, 65535, 65535, 65535, 65535, 65535, 65535, 65535, 65535, 65535],-1,-1,-1,100,0,0,[0, 0, 0, 0],0,0,HEARTBEAT,6,8,0,0,0,3
6.876920223236084,VFR_HUD,0.0,0.0,55,0,-3.68999981880188,-0.0,,,,,,,,,,,,,,,,AHRS,0.006686377339065075,0.0002245643554488197,-0.0016871540574356914,0.0,0.0,0.00035806329105980694,0.0036469646729528904,GPS_RAW_INT,0,1,0,0,-17000,9999,9999,0,0,0,0,4294967295,4294967295,1000000,0,0,RC_CHANNELS,4996536,16,1501,1499,1004,1502,1000,1000,1500,1500,0,0,0,0,0,0,0,0,0,0,0,MISSION_CURRENT,0,SYS_STATUS,52485167,35684399,51413295,34,0,-1,-1,0,0,0,0,0,0,GLOBAL_POSITION_INT,4996536,0,0,-3690,-3697,0,0,0,5596,RAW_IMU,701569301,20,11,-992,-6,0,1,294,-453,231,0,4266,BATTERY_STATUS,0,0,0,32767,[65535, 65535, 65535, 65535, 65535, 65535, 65535, 65535, 65535, 65535],-1,-1,-1,100,0,0,[0, 0, 0, 0],0,0,HEARTBEAT,6,8,0,0,0,3
6.927108287811279,VFR_HUD,0.0,0.0,55,0,-3.68999981880188,-0.0,,,,,,,,,,,,,,,,AHRS,0.006686377339065075,0.0002245643554488197,-0.0016871540574356914,0.0,0.0,0.00035806329105980694,0.0036469646729528904,GPS_RAW_INT,0,1,0,0,-17000,9999,9999,0,0,0,0,4294967295,4294967295,1000000,0,0,RC_CHANNELS,4996536,16,1501,1499,1004,1502,1000,1000,1500,1500,0,0,0,0,0,0,0,0,0,0,0,MISSION_CURRENT,0,SYS_STATUS,52485167,35684399,51413295,34,0,-1,-1,0,0,0,0,0,0,GLOBAL_POSITION_INT,4996536,0,0,-3690,-3697,0,0,0,5596,RAW_IMU,701569301,20,11,-992,-6,0,1,294,-453,231,0,4266,BATTERY_STATUS,0,0,0,32767,[65535, 65535, 65535, 65535, 65535, 65535, 65535, 65535, 65535, 65535],-1,-1,-1,100,0,0,[0, 0, 0, 0],0,0,HEARTBEAT,6,8,0,0,0,3
6.977302551269531,VFR_HUD,0.0,0.0,55,0,-3.68999981880188,-0.0,,,,,,,,,,,,,,,,AHRS,0.006686377339065075,0.0002245643554488197,-0.0016871540574356914,0.0,0.0,0.00035806329105980694,0.0036469646729528904,GPS_RAW_INT,0,1,0,0,-17000,9999,9999,0,0,0,0,4294967295,4294967295,1000000,0,0,RC_CHANNELS,4996536,16,1501,1499,1004,1502,1000,1000,1500,1500,0,0,0,0,0,0,0,0,0,0,0,MISSION_CURRENT,0,SYS_STATUS,52485167,35684399,51413295,34,0,-1,-1,0,0,0,0,0,0,GLOBAL_POSITION_INT,4996536,0,0,-3690,-3697,0,0,0,5596,RAW_IMU,701569301,20,11,-992,-6,0,1,294,-453,231,0,4266,BATTERY_STATUS,0,0,0,32767,[65535, 65535, 65535, 65535, 65535, 65535, 65535, 65535, 65535, 65535],-1,-1,-1,100,0,0,[0, 0, 0, 0],0,0,HEARTBEAT,6,8,0,0,0,3
7.02748703956604,VFR_HUD,0.0,0.0,55,0,-3.68999981880188,-0.0,,,,,,,,,,,,,,,,AHRS,0.006686377339065075,0.0002245643554488197,-0.0016871540574356914,0.0,0.0,0.00035806329105980694,0.0036469646729528904,GPS_RAW_INT,0,1,0,0,-17000,9999,9999,0,0,0,0,4294967295,4294967295,1000000,0,0,RC_CHANNELS,4996536,16,1501,1499,1004,1502,1000,1000,1500,1500,0,0,0,0,0,0,0,0,0,0,0,MISSION_CURRENT,0,SYS_STATUS,52485167,35684399,51413295,34,0,-1,-1,0,0,0,0,0,0,GLOBAL_POSITION_INT,4996536,0,0,-3690,-3697,0,0,0,5596,RAW_IMU,701569301,20,11,-992,-6,0,1,294,-453,231,0,4266,BATTERY_STATUS,0,0,0,32767,[65535, 65535, 65535, 65535, 65535, 65535, 65535, 65535, 65535, 65535],-1,-1,-1,100,0,0,[0, 0, 0, 0],0,0,HEARTBEAT,6,8,0,0,0,3
7.077678918838501,VFR_HUD,0.0,0.0,55,0,-3.68999981880188,-0.0,,,,,,,,,,,,,,,,AHRS,0.006686377339065075,0.0002245643554488197,-0.0016871540574356914,0.0,0.0,0.00035806329105980694,0.0036469646729528904,GPS_RAW_INT,0,1,0,0,-17000,9999,9999,0,0,0,0,4294967295,4294967295,1000000,0,0,RC_CHANNELS,4996536,16,1501,1499,1004,1502,1000,1000,1500,1500,0,0,0,0,0,0,0,0,0,0,0,MISSION_CURRENT,0,SYS_STATUS,52485167,35684399,51413295,34,0,-1,-1,0,0,0,0,0,0,GLOBAL_POSITION_INT,4996536,0,0,-3690,-3697,0,0,0,5596,RAW_IMU,701569301,20,11,-992,-6,0,1,294,-453,231,0,4266,BATTERY_STATUS,0,0,0,32767,[65535, 65535, 65535, 65535, 65535, 65535, 65535, 65535, 65535, 65535],-1,-1,-1,100,0,0,[0, 0, 0, 0],0,0,HEARTBEAT,6,8,0,0,0,3
7.127878665924072,VFR_HUD,0.0,0.0,55,0,-3.68999981880188,-0.0,,,,,,,,,,,,,,,,AHRS,0.006686377339065075,0.0002245643554488197,-0.0016871540574356914,0.0,0.0,0.00035806329105980694,0.0036469646729528904,GPS_RAW_INT,0,1,0,0,-17000,9999,9999,0,0,0,0,4294967295,4294967295,1000000,0,0,RC_CHANNELS,4996536,16,1501,1499,1004,1502,1000,1000,1500,1500,0,0,0,0,0,0,0,0,0,0,0,MISSION_CURRENT,0,SYS_STATUS,52485167,35684399,51413295,34,0,-1,-1,0,0,0,0,0,0,GLOBAL_POSITION_INT,4996536,0,0,-3690,-3697,0,0,0,5596,RAW_IMU,701569301,20,11,-992,-6,0,1,294,-453,231,0,4266,BATTERY_STATUS,0,0,0,32767,[65535, 65535, 65535, 65535, 65535, 65535, 65535, 65535, 65535, 65535],-1,-1,-1,100,0,0,[0, 0, 0, 0],0,0,HEARTBEAT,6,8,0,0,0,3
7.178085565567017,VFR_HUD,0.0,0.0,55,0,-3.68999981880188,-0.0,,,,,,,,,,,,,,,,AHRS,0.006686377339065075,0.0002245643554488197,-0.0016871540574356914,0.0,0.0,0.00035806329105980694,0.0036469646729528904,GPS_RAW_INT,0,1,0,0,-17000,9999,9999,0,0,0,0,4294967295,4294967295,1000000,0,0,RC_CHANNELS,4996536,16,1501,1499,1004,1502,1000,1000,1500,1500,0,0,0,0,0,0,0,0,0,0,0,MISSION_CURRENT,0,SYS_STATUS,52485167,35684399,51413295,34,0,-1,-1,0,0,0,0,0,0,GLOBAL_POSITION_INT,4996536,0,0,-3690,-3697,0,0,0,5596,RAW_IMU,701569301,20,11,-992,-6,0,1,294,-453,231,0,4266,BATTERY_STATUS,0,0,0,32767,[65535, 65535, 65535, 65535, 65535, 65535, 65535, 65535, 65535, 65535],-1,-1,-1,100,0,0,[0, 0, 0, 0],0,0,HEARTBEAT,6,8,0,0,0,3
7.22827672958374,VFR_HUD,0.0,0.0,55,0,-3.68999981880188,-0.0,,,,,,,,,,,,,,,,AHRS,0.006686377339065075,0.0002245643554488197,-0.0016871540574356914,0.0,0.0,0.00035806329105980694,0.0036469646729528904,GPS_RAW_INT,0,1,0,0,-17000,9999,9999,0,0,0,0,4294967295,4294967295,1000000,0,0,RC_CHANNELS,4996536,16,1501,1499,1004,1502,1000,1000,1500,1500,0,0,0,0,0,0,0,0,0,0,0,MISSION_CURRENT,0,SYS_STATUS,52485167,35684399,51413295,34,0,-1,-1,0,0,0,0,0,0,GLOBAL_POSITION_INT,4996536,0,0,-3690,-3697,0,0,0,5596,RAW_IMU,701569301,20,11,-992,-6,0,1,294,-453,231,0,4266,BATTERY_STATUS,0,0,0,32767,[65535, 65535, 65535, 65535, 65535, 65535, 65535, 65535, 65535, 65535],-1,-1,-1,100,0,0,[0, 0, 0, 0],0,0,HEARTBEAT,6,8,0,0,0,3
7.278513431549072,VFR_HUD,0.0,0.0,55,0,-3.68999981880188,-0.0,,,,,,,,,,,,,,,,AHRS,0.006686377339065075,0.0002245643554488197,-0.0016871540574356914,0.0,0.0,0.00035806329105980694,0.0036469646729528904,GPS_RAW_INT,0,1,0,0,-17000,9999,9999,0,0,0,0,4294967295,4294967295,1000000,0,0,RC_CHANNELS,4996536,16,1501,1499,1004,1502,1000,1000,1500,1500,0,0,0,0,0,0,0,0,0,0,0,MISSION_CURRENT,0,SYS_STATUS,52485167,35684399,51413295,34,0,-1,-1,0,0,0,0,0,0,GLOBAL_POSITION_INT,4996536,0,0,-3690,-3697,0,0,0,5596,RAW_IMU,701569301,20,11,-992,-6,0,1,294,-453,231,0,4266,BATTERY_STATUS,0,0,0,32767,[65535, 65535, 65535, 65535, 65535, 65535, 65535, 65535, 65535, 65535],-1,-1,-1,100,0,0,[0, 0, 0, 0],0,0,HEARTBEAT,6,8,0,0,0,3
7.328745126724243,VFR_HUD,0.0,0.0,55,0,-3.68999981880188,-0.0,,,,,,,,,,,,,,,,AHRS,0.006686377339065075,0.0002245643554488197,-0.0016871540574356914,0.0,0.0,0.00035806329105980694,0.0036469646729528904,GPS_RAW_INT,0,1,0,0,-17000,9999,9999,0,0,0,0,4294967295,4294967295,1000000,0,0,RC_CHANNELS,4996536,16,1501,1499,1004,1502,1000,1000,1500,1500,0,0,0,0,0,0,0,0,0,0,0,MISSION_CURRENT,0,SYS_STATUS,52485167,35684399,51413295,34,0,-1,-1,0,0,0,0,0,0,GLOBAL_POSITION_INT,4996536,0,0,-3690,-3697,0,0,0,5596,RAW_IMU,701569301,20,11,-992,-6,0,1,294,-453,231,0,4266,BATTERY_STATUS,0,0,0,32767,[65535, 65535, 65535, 65535, 65535, 65535, 65535, 65535, 65535, 65535],-1,-1,-1,100,0,0,[0, 0, 0, 0],0,0,HEARTBEAT,6,8,0,0,0,3
7.378976821899414,VFR_HUD,0.0,0.0,55,0,-3.68999981880188,-0.0,,,,,,,,,,,,,,,,AHRS,0.006686377339065075,0.0002245643554488197,-0.0016871540574356914,0.0,0.0,0.00035806329105980694,0.0036469646729528904,GPS_RAW_INT,0,1,0,0,-17000,9999,9999,0,0,0,0,4294967295,4294967295,1000000,0,0,RC_CHANNELS,4996536,16,1501,1499,1004,1502,1000,1000,1500,1500,0,0,0,0,0,0,0,0,0,0,0,MISSION_CURRENT,0,SYS_STATUS,52485167,35684399,51413295,34,0,-1,-1,0,0,0,0,0,0,GLOBAL_POSITION_INT,4996536,0,0,-3690,-3697,0,0,0,5596,RAW_IMU,701569301,20,11,-992,-6,0,1,294,-453,231,0,4266,BATTERY_STATUS,0,0,0,32767,[65535, 65535, 65535, 65535, 65535, 65535, 65535, 65535, 65535, 65535],-1,-1,-1,100,0,0,[0, 0, 0, 0],0,0,HEARTBEAT,6,8,0,0,0,3
7.429166555404663,VFR_HUD,0.0,0.0,55,0,-3.68999981880188,-0.0,,,,,,,,,,,,,,,,AHRS,0.006686377339065075,0.0002245643554488197,-0.0016871540574356914,0.0,0.0,0.00035806329105980694,0.0036469646729528904,GPS_RAW_INT,0,1,0,0,-17000,9999,9999,0,0,0,0,4294967295,4294967295,1000000,0,0,RC_CHANNELS,4996536,16,1501,1499,1004,1502,1000,1000,1500,1500,0,0,0,0,0,0,0,0,0,0,0,MISSION_CURRENT,0,SYS_STATUS,52485167,35684399,51413295,34,0,-1,-1,0,0,0,0,0,0,GLOBAL_POSITION_INT,4996536,0,0,-3690,-3697,0,0,0,5596,RAW_IMU,701569301,20,11,-992,-6,0,1,294,-453,231,0,4266,BATTERY_STATUS,0,0,0,32767,[65535, 65535, 65535, 65535, 65535, 65535, 65535, 65535, 65535, 65535],-1,-1,-1,100,0,0,[0, 0, 0, 0],0,0,HEARTBEAT,6,8,0,0,0,3
7.479357481002808,VFR_HUD,0.0,0.0,55,0,-3.68999981880188,-0.0,,,,,,,,,,,,,,,,AHRS,0.006686377339065075,0.0002245643554488197,-0.0016871540574356914,0.0,0.0,0.00035806329105980694,0.0036469646729528904,GPS_RAW_INT,0,1,0,0,-17000,9999,9999,0,0,0,0,4294967295,4294967295,1000000,0,0,RC_CHANNELS,4996536,16,1501,1499,1004,1502,1000,1000,1500,1500,0,0,0,0,0,0,0,0,0,0,0,MISSION_CURRENT,0,SYS_STATUS,52485167,35684399,51413295,34,0,-1,-1,0,0,0,0,0,0,GLOBAL_POSITION_INT,4996536,0,0,-3690,-3697,0,0,0,5596,RAW_IMU,701569301,20,11,-992,-6,0,1,294,-453,231,0,4266,BATTERY_STATUS,0,0,0,32767,[65535, 65535, 65535, 65535, 65535, 65535, 65535, 65535, 65535, 65535],-1,-1,-1,100,0,0,[0, 0, 0, 0],0,0,HEARTBEAT,6,8,0,0,0,3
7.58078145980835,VFR_HUD,0.0,0.0,55,0,-3.68999981880188,-0.0,,,,,,,,,,,,,,,,AHRS,0.006686377339065075,0.0002245643554488197,-0.0016871540574356914,0.0,0.0,0.00035806329105980694,0.0036469646729528904,GPS_RAW_INT,0,1,0,0,-17000,9999,9999,0,0,0,0,4294967295,4294967295,1000000,0,0,RC_CHANNELS,4996536,16,1501,1499,1004,1502,1000,1000,1500,1500,0,0,0,0,0,0,0,0,0,0,0,MISSION_CURRENT,0,SYS_STATUS,52485167,35684399,51413295,34,0,-1,-1,0,0,0,0,0,0,GLOBAL_POSITION_INT,4996536,0,0,-3690,-3697,0,0,0,5596,RAW_IMU,701569301,20,11,-992,-6,0,1,294,-453,231,0,4266,BATTERY_STATUS,0,0,0,32767,[65535, 65535, 65535, 65535, 65535, 65535, 65535, 65535, 65535, 65535],-1,-1,-1,100,0,0,[0, 0, 0, 0],0,0,HEARTBEAT,6,8,0,0,0,3
7.6310224533081055,VFR_HUD,0.0,0.0,55,0,-3.68999981880188,-0.0,,,,,,,,,,,,,,,,AHRS,0.006686377339065075,0.0002245643554488197,-0.0016871540574356914,0.0,0.0,0.00035806329105980694,0.0036469646729528904,GPS_RAW_INT,0,1,0,0,-17000,9999,9999,0,0,0,0,4294967295,4294967295,1000000,0,0,RC_CHANNELS,4996536,16,1501,1499,1004,1502,1000,1000,1500,1500,0,0,0,0,0,0,0,0,0,0,0,MISSION_CURRENT,0,SYS_STATUS,52485167,35684399,51413295,34,0,-1,-1,0,0,0,0,0,0,GLOBAL_POSITION_INT,4996536,0,0,-3690,-3697,0,0,0,5596,RAW_IMU,701569301,20,11,-992,-6,0,1,294,-453,231,0,4266,BATTERY_STATUS,0,0,0,32767,[65535, 65535, 65535, 65535, 65535, 65535, 65535, 65535, 65535, 65535],-1,-1,-1,100,0,0,[0, 0, 0, 0],0,0,HEARTBEAT,6,8,0,0,0,3
7.681190252304077,VFR_HUD,0.0,0.0,55,0,-3.68999981880188,-0.0,,,,,,,,,,,,,,,,AHRS,0.006686377339065075,0.0002245643554488197,-0.0016871540574356914,0.0,0.0,0.00035806329105980694,0.0036469646729528904,GPS_RAW_INT,0,1,0,0,-17000,9999,9999,0,0,0,0,4294967295,4294967295,1000000,0,0,RC_CHANNELS,4996536,16,1501,1499,1004,1502,1000,1000,1500,1500,0,0,0,0,0,0,0,0,0,0,0,MISSION_CURRENT,0,SYS_STATUS,52485167,35684399,51413295,34,0,-1,-1,0,0,0,0,0,0,GLOBAL_POSITION_INT,4996536,0,0,-3690,-3697,0,0,0,5596,RAW_IMU,701569301,20,11,-992,-6,0,1,294,-453,231,0,4266,BATTERY_STATUS,0,0,0,32767,[65535, 65535, 65535, 65535, 65535, 65535, 65535, 65535, 65535, 65535],-1,-1,-1,100,0,0,[0, 0, 0, 0],0,0,HEARTBEAT,6,8,0,0,0,3
7.731358528137207,VFR_HUD,0.0,0.0,55,0,-3.68999981880188,-0.0,,,,,,,,,,,,,,,,AHRS,0.006686377339065075,0.0002245643554488197,-0.0016871540574356914,0.0,0.0,0.00035806329105980694,0.0036469646729528904,GPS_RAW_INT,0,1,0,0,-17000,9999,9999,0,0,0,0,4294967295,4294967295,1000000,0,0,RC_CHANNELS,4996536,16,1501,1499,1004,1502,1000,1000,1500,1500,0,0,0,0,0,0,0,0,0,0,0,MISSION_CURRENT,0,SYS_STATUS,52485167,35684399,51413295,34,0,-1,-1,0,0,0,0,0,0,GLOBAL_POSITION_INT,4996536,0,0,-3690,-3697,0,0,0,5596,RAW_IMU,701569301,20,11,-992,-6,0,1,294,-453,231,0,4266,BATTERY_STATUS,0,0,0,32767,[65535, 65535, 65535, 65535, 65535, 65535, 65535, 65535, 65535, 65535],-1,-1,-1,100,0,0,[0, 0, 0, 0],0,0,HEARTBEAT,6,8,0,0,0,3
7.781539678573608,VFR_HUD,0.0,0.0,55,0,-3.68999981880188,-0.0,,,,,,,,,,,,,,,,AHRS,0.006686377339065075,0.0002245643554488197,-0.0016871540574356914,0.0,0.0,0.00035806329105980694,0.0036469646729528904,GPS_RAW_INT,0,1,0,0,-17000,9999,9999,0,0,0,0,4294967295,4294967295,1000000,0,0,RC_CHANNELS,4996536,16,1501,1499,1004,1502,1000,1000,1500,1500,0,0,0,0,0,0,0,0,0,0,0,MISSION_CURRENT,0,SYS_STATUS,52485167,35684399,51413295,34,0,-1,-1,0,0,0,0,0,0,GLOBAL_POSITION_INT,4996536,0,0,-3690,-3697,0,0,0,5596,RAW_IMU,701569301,20,11,-992,-6,0,1,294,-453,231,0,4266,BATTERY_STATUS,0,0,0,32767,[65535, 65535, 65535, 65535, 65535, 65535, 65535, 65535, 65535, 65535],-1,-1,-1,100,0,0,[0, 0, 0, 0],0,0,HEARTBEAT,6,8,0,0,0,3
7.832201242446899,VFR_HUD,0.0,0.0,55,0,-3.68999981880188,-0.0,,,,,,,,,,,,,,,,AHRS,0.006686377339065075,0.0002245643554488197,-0.0016871540574356914,0.0,0.0,0.00035806329105980694,0.0036469646729528904,GPS_RAW_INT,0,1,0,0,-17000,9999,9999,0,0,0,0,4294967295,4294967295,1000000,0,0,RC_CHANNELS,4996536,16,1501,1499,1004,1502,1000,1000,1500,1500,0,0,0,0,0,0,0,0,0,0,0,MISSION_CURRENT,0,SYS_STATUS,52485167,35684399,51413295,34,0,-1,-1,0,0,0,0,0,0,GLOBAL_POSITION_INT,4996536,0,0,-3690,-3697,0,0,0,5596,RAW_IMU,701569301,20,11,-992,-6,0,1,294,-453,231,0,4266,BATTERY_STATUS,0,0,0,32767,[65535, 65535, 65535, 65535, 65535, 65535, 65535, 65535, 65535, 65535],-1,-1,-1,100,0,0,[0, 0, 0, 0],0,0,HEARTBEAT,6,8,0,0,0,3
7.882944822311401,VFR_HUD,0.0,0.0,55,0,-3.68999981880188,-0.0,,,,,,,,,,,,,,,,AHRS,0.006686377339065075,0.0002245643554488197,-0.0016871540574356914,0.0,0.0,0.00035806329105980694,0.0036469646729528904,GPS_RAW_INT,0,1,0,0,-17000,9999,9999,0,0,0,0,4294967295,4294967295,1000000,0,0,RC_CHANNELS,4996536,16,1501,1499,1004,1502,1000,1000,1500,1500,0,0,0,0,0,0,0,0,0,0,0,MISSION_CURRENT,0,SYS_STATUS,52485167,35684399,51413295,34,0,-1,-1,0,0,0,0,0,0,GLOBAL_POSITION_INT,4996536,0,0,-3690,-3697,0,0,0,5596,RAW_IMU,701569301,20,11,-992,-6,0,1,294,-453,231,0,4266,BATTERY_STATUS,0,0,0,32767,[65535, 65535, 65535, 65535, 65535, 65535, 65535, 65535, 65535, 65535],-1,-1,-1,100,0,0,[0, 0, 0, 0],0,0,HEARTBEAT,6,8,0,0,0,3
7.93314790725708,VFR_HUD,0.0,0.0,55,0,-3.68999981880188,-0.0,,,,,,,,,,,,,,,,AHRS,0.006686377339065075,0.0002245643554488197,-0.0016871540574356914,0.0,0.0,0.00035806329105980694,0.0036469646729528904,GPS_RAW_INT,0,1,0,0,-17000,9999,9999,0,0,0,0,4294967295,4294967295,1000000,0,0,RC_CHANNELS,4996536,16,1501,1499,1004,1502,1000,1000,1500,1500,0,0,0,0,0,0,0,0,0,0,0,MISSION_CURRENT,0,SYS_STATUS,52485167,35684399,51413295,34,0,-1,-1,0,0,0,0,0,0,GLOBAL_POSITION_INT,4996536,0,0,-3690,-3697,0,0,0,5596,RAW_IMU,701569301,20,11,-992,-6,0,1,294,-453,231,0,4266,BATTERY_STATUS,0,0,0,32767,[65535, 65535, 65535, 65535, 65535, 65535, 65535, 65535, 65535, 65535],-1,-1,-1,100,0,0,[0, 0, 0, 0],0,0,HEARTBEAT,6,8,0,0,0,3
7.983360767364502,VFR_HUD,0.0,0.0,55,0,-3.68999981880188,-0.0,,,,,,,,,,,,,,,,AHRS,0.006686377339065075,0.0002245643554488197,-0.0016871540574356914,0.0,0.0,0.00035806329105980694,0.0036469646729528904,GPS_RAW_INT,0,1,0,0,-17000,9999,9999,0,0,0,0,4294967295,4294967295,1000000,0,0,RC_CHANNELS,4996536,16,1501,1499,1004,1502,1000,1000,1500,1500,0,0,0,0,0,0,0,0,0,0,0,MISSION_CURRENT,0,SYS_STATUS,52485167,35684399,51413295,34,0,-1,-1,0,0,0,0,0,0,GLOBAL_POSITION_INT,4996536,0,0,-3690,-3697,0,0,0,5596,RAW_IMU,701569301,20,11,-992,-6,0,1,294,-453,231,0,4266,BATTERY_STATUS,0,0,0,32767,[65535, 65535, 65535, 65535, 65535, 65535, 65535, 65535, 65535, 65535],-1,-1,-1,100,0,0,[0, 0, 0, 0],0,0,HEARTBEAT,6,8,0,0,0,3
8.033570051193237,VFR_HUD,0.0,0.0,55,0,-3.68999981880188,-0.0,,,,,,,,,,,,,,,,AHRS,0.006686377339065075,0.0002245643554488197,-0.0016871540574356914,0.0,0.0,0.00035806329105980694,0.0036469646729528904,GPS_RAW_INT,0,1,0,0,-17000,9999,9999,0,0,0,0,4294967295,4294967295,1000000,0,0,RC_CHANNELS,4996536,16,1501,1499,1004,1502,1000,1000,1500,1500,0,0,0,0,0,0,0,0,0,0,0,MISSION_CURRENT,0,SYS_STATUS,52485167,35684399,51413295,34,0,-1,-1,0,0,0,0,0,0,GLOBAL_POSITION_INT,4996536,0,0,-3690,-3697,0,0,0,5596,RAW_IMU,701569301,20,11,-992,-6,0,1,294,-453,231,0,4266,BATTERY_STATUS,0,0,0,32767,[65535, 65535, 65535, 65535, 65535, 65535, 65535, 65535, 65535, 65535],-1,-1,-1,100,0,0,[0, 0, 0, 0],0,0,HEARTBEAT,6,8,0,0,0,3
8.083775043487549,VFR_HUD,0.0,0.0,55,0,-3.68999981880188,-0.0,,,,,,,,,,,,,,,,AHRS,0.006686377339065075,0.0002245643554488197,-0.0016871540574356914,0.0,0.0,0.00035806329105980694,0.0036469646729528904,GPS_RAW_INT,0,1,0,0,-17000,9999,9999,0,0,0,0,4294967295,4294967295,1000000,0,0,RC_CHANNELS,4996536,16,1501,1499,1004,1502,1000,1000,1500,1500,0,0,0,0,0,0,0,0,0,0,0,MISSION_CURRENT,0,SYS_STATUS,52485167,35684399,51413295,34,0,-1,-1,0,0,0,0,0,0,GLOBAL_POSITION_INT,4996536,0,0,-3690,-3697,0,0,0,5596,RAW_IMU,701569301,20,11,-992,-6,0,1,294,-453,231,0,4266,BATTERY_STATUS,0,0,0,32767,[65535, 65535, 65535, 65535, 65535, 65535, 65535, 65535, 65535, 65535],-1,-1,-1,100,0,0,[0, 0, 0, 0],0,0,HEARTBEAT,6,8,0,0,0,3
8.133982419967651,VFR_HUD,0.0,0.0,55,0,-3.68999981880188,-0.0,,,,,,,,,,,,,,,,AHRS,0.006686377339065075,0.0002245643554488197,-0.0016871540574356914,0.0,0.0,0.00035806329105980694,0.0036469646729528904,GPS_RAW_INT,0,1,0,0,-17000,9999,9999,0,0,0,0,4294967295,4294967295,1000000,0,0,RC_CHANNELS,4996536,16,1501,1499,1004,1502,1000,1000,1500,1500,0,0,0,0,0,0,0,0,0,0,0,MISSION_CURRENT,0,SYS_STATUS,52485167,35684399,51413295,34,0,-1,-1,0,0,0,0,0,0,GLOBAL_POSITION_INT,4996536,0,0,-3690,-3697,0,0,0,5596,RAW_IMU,701569301,20,11,-992,-6,0,1,294,-453,231,0,4266,BATTERY_STATUS,0,0,0,32767,[65535, 65535, 65535, 65535, 65535, 65535, 65535, 65535, 65535, 65535],-1,-1,-1,100,0,0,[0, 0, 0, 0],0,0,HEARTBEAT,6,8,0,0,0,3
8.18420696258545,VFR_HUD,0.0,0.0,55,0,-3.68999981880188,-0.0,,,,,,,,,,,,,,,,AHRS,0.006686377339065075,0.0002245643554488197,-0.0016871540574356914,0.0,0.0,0.00035806329105980694,0.0036469646729528904,GPS_RAW_INT,0,1,0,0,-17000,9999,9999,0,0,0,0,4294967295,4294967295,1000000,0,0,RC_CHANNELS,4996536,16,1501,1499,1004,1502,1000,1000,1500,1500,0,0,0,0,0,0,0,0,0,0,0,MISSION_CURRENT,0,SYS_STATUS,52485167,35684399,51413295,34,0,-1,-1,0,0,0,0,0,0,GLOBAL_POSITION_INT,4996536,0,0,-3690,-3697,0,0,0,5596,RAW_IMU,701569301,20,11,-992,-6,0,1,294,-453,231,0,4266,BATTERY_STATUS,0,0,0,32767,[65535, 65535, 65535, 65535, 65535, 65535, 65535, 65535, 65535, 65535],-1,-1,-1,100,0,0,[0, 0, 0, 0],0,0,HEARTBEAT,6,8,0,0,0,3
8.234406471252441,VFR_HUD,0.0,0.0,55,0,-3.68999981880188,-0.0,,,,,,,,,,,,,,,,AHRS,0.006686377339065075,0.0002245643554488197,-0.0016871540574356914,0.0,0.0,0.00035806329105980694,0.0036469646729528904,GPS_RAW_INT,0,1,0,0,-17000,9999,9999,0,0,0,0,4294967295,4294967295,1000000,0,0,RC_CHANNELS,4996536,16,1501,1499,1004,1502,1000,1000,1500,1500,0,0,0,0,0,0,0,0,0,0,0,MISSION_CURRENT,0,SYS_STATUS,52485167,35684399,51413295,34,0,-1,-1,0,0,0,0,0,0,GLOBAL_POSITION_INT,4996536,0,0,-3690,-3697,0,0,0,5596,RAW_IMU,701569301,20,11,-992,-6,0,1,294,-453,231,0,4266,BATTERY_STATUS,0,0,0,32767,[65535, 65535, 65535, 65535, 65535, 65535, 65535, 65535, 65535, 65535],-1,-1,-1,100,0,0,[0, 0, 0, 0],0,0,HEARTBEAT,6,8,0,0,0,3
8.28460168838501,VFR_HUD,0.0,0.0,55,0,-3.68999981880188,-0.0,,,,,,,,,,,,,,,,AHRS,0.006686377339065075,0.0002245643554488197,-0.0016871540574356914,0.0,0.0,0.00035806329105980694,0.0036469646729528904,GPS_RAW_INT,0,1,0,0,-17000,9999,9999,0,0,0,0,4294967295,4294967295,1000000,0,0,RC_CHANNELS,4996536,16,1501,1499,1004,1502,1000,1000,1500,1500,0,0,0,0,0,0,0,0,0,0,0,MISSION_CURRENT,0,SYS_STATUS,52485167,35684399,51413295,34,0,-1,-1,0,0,0,0,0,0,GLOBAL_POSITION_INT,4996536,0,0,-3690,-3697,0,0,0,5596,RAW_IMU,701569301,20,11,-992,-6,0,1,294,-453,231,0,4266,BATTERY_STATUS,0,0,0,32767,[65535, 65535, 65535, 65535, 65535, 65535, 65535, 65535, 65535, 65535],-1,-1,-1,100,0,0,[0, 0, 0, 0],0,0,HEARTBEAT,6,8,0,0,0,3
8.334789276123047,VFR_HUD,0.0,0.0,55,0,-3.68999981880188,-0.0,,,,,,,,,,,,,,,,AHRS,0.006686377339065075,0.0002245643554488197,-0.0016871540574356914,0.0,0.0,0.00035806329105980694,0.0036469646729528904,GPS_RAW_INT,0,1,0,0,-17000,9999,9999,0,0,0,0,4294967295,4294967295,1000000,0,0,RC_CHANNELS,4996536,16,1501,1499,1004,1502,1000,1000,1500,1500,0,0,0,0,0,0,0,0,0,0,0,MISSION_CURRENT,0,SYS_STATUS,52485167,35684399,51413295,34,0,-1,-1,0,0,0,0,0,0,GLOBAL_POSITION_INT,4996536,0,0,-3690,-3697,0,0,0,5596,RAW_IMU,701569301,20,11,-992,-6,0,1,294,-453,231,0,4266,BATTERY_STATUS,0,0,0,32767,[65535, 65535, 65535, 65535, 65535, 65535, 65535, 65535, 65535, 65535],-1,-1,-1,100,0,0,[0, 0, 0, 0],0,0,HEARTBEAT,6,8,0,0,0,3
8.385012865066528,VFR_HUD,0.0,0.0,55,0,-3.68999981880188,-0.0,,,,,,,,,,,,,,,,AHRS,0.006686377339065075,0.0002245643554488197,-0.0016871540574356914,0.0,0.0,0.00035806329105980694,0.0036469646729528904,GPS_RAW_INT,0,1,0,0,-17000,9999,9999,0,0,0,0,4294967295,4294967295,1000000,0,0,RC_CHANNELS,4996536,16,1501,1499,1004,1502,1000,1000,1500,1500,0,0,0,0,0,0,0,0,0,0,0,MISSION_CURRENT,0,SYS_STATUS,52485167,35684399,51413295,34,0,-1,-1,0,0,0,0,0,0,GLOBAL_POSITION_INT,4996536,0,0,-3690,-3697,0,0,0,5596,RAW_IMU,701569301,20,11,-992,-6,0,1,294,-453,231,0,4266,BATTERY_STATUS,0,0,0,32767,[65535, 65535, 65535, 65535, 65535, 65535, 65535, 65535, 65535, 65535],-1,-1,-1,100,0,0,[0, 0, 0, 0],0,0,HEARTBEAT,6,8,0,0,0,3
8.435214042663574,VFR_HUD,0.0,0.0,55,0,-3.68999981880188,-0.0,,,,,,,,,,,,,,,,AHRS,0.006686377339065075,0.0002245643554488197,-0.0016871540574356914,0.0,0.0,0.00035806329105980694,0.0036469646729528904,GPS_RAW_INT,0,1,0,0,-17000,9999,9999,0,0,0,0,4294967295,4294967295,1000000,0,0,RC_CHANNELS,4996536,16,1501,1499,1004,1502,1000,1000,1500,1500,0,0,0,0,0,0,0,0,0,0,0,MISSION_CURRENT,0,SYS_STATUS,52485167,35684399,51413295,34,0,-1,-1,0,0,0,0,0,0,GLOBAL_POSITION_INT,4996536,0,0,-3690,-3697,0,0,0,5596,RAW_IMU,701569301,20,11,-992,-6,0,1,294,-453,231,0,4266,BATTERY_STATUS,0,0,0,32767,[65535, 65535, 65535, 65535, 65535, 65535, 65535, 65535, 65535, 65535],-1,-1,-1,100,0,0,[0, 0, 0, 0],0,0,HEARTBEAT,6,8,0,0,0,3
8.485419034957886,VFR_HUD,0.0,0.0,55,0,-3.68999981880188,-0.0,,,,,,,,,,,,,,,,AHRS,0.006686377339065075,0.0002245643554488197,-0.0016871540574356914,0.0,0.0,0.00035806329105980694,0.0036469646729528904,GPS_RAW_INT,0,1,0,0,-17000,9999,9999,0,0,0,0,4294967295,4294967295,1000000,0,0,RC_CHANNELS,4996536,16,1501,1499,1004,1502,1000,1000,1500,1500,0,0,0,0,0,0,0,0,0,0,0,MISSION_CURRENT,0,SYS_STATUS,52485167,35684399,51413295,34,0,-1,-1,0,0,0,0,0,0,GLOBAL_POSITION_INT,4996536,0,0,-3690,-3697,0,0,0,5596,RAW_IMU,701569301,20,11,-992,-6,0,1,294,-453,231,0,4266,BATTERY_STATUS,0,0,0,32767,[65535, 65535, 65535, 65535, 65535, 65535, 65535, 65535, 65535, 65535],-1,-1,-1,100,0,0,[0, 0, 0, 0],0,0,HEARTBEAT,6,8,0,0,0,3
8.535618782043457,VFR_HUD,0.0,0.0,55,0,-3.68999981880188,-0.0,,,,,,,,,,,,,,,,AHRS,0.006686377339065075,0.0002245643554488197,-0.0016871540574356914,0.0,0.0,0.00035806329105980694,0.0036469646729528904,GPS_RAW_INT,0,1,0,0,-17000,9999,9999,0,0,0,0,4294967295,4294967295,1000000,0,0,RC_CHANNELS,4996536,16,1501,1499,1004,1502,1000,1000,1500,1500,0,0,0,0,0,0,0,0,0,0,0,MISSION_CURRENT,0,SYS_STATUS,52485167,35684399,51413295,34,0,-1,-1,0,0,0,0,0,0,GLOBAL_POSITION_INT,4996536,0,0,-3690,-3697,0,0,0,5596,RAW_IMU,701569301,20,11,-992,-6,0,1,294,-453,231,0,4266,BATTERY_STATUS,0,0,0,32767,[65535, 65535, 65535, 65535, 65535, 65535, 65535, 65535, 65535, 65535],-1,-1,-1,100,0,0,[0, 0, 0, 0],0,0,HEARTBEAT,6,8,0,0,0,3
8.585806846618652,VFR_HUD,0.0,0.0,55,0,-3.68999981880188,-0.0,,,,,,,,,,,,,,,,AHRS,0.006686377339065075,0.0002245643554488197,-0.0016871540574356914,0.0,0.0,0.00035806329105980694,0.0036469646729528904,GPS_RAW_INT,0,1,0,0,-17000,9999,9999,0,0,0,0,4294967295,4294967295,1000000,0,0,RC_CHANNELS,4996536,16,1501,1499,1004,1502,1000,1000,1500,1500,0,0,0,0,0,0,0,0,0,0,0,MISSION_CURRENT,0,SYS_STATUS,52485167,35684399,51413295,34,0,-1,-1,0,0,0,0,0,0,GLOBAL_POSITION_INT,4996536,0,0,-3690,-3697,0,0,0,5596,RAW_IMU,701569301,20,11,-992,-6,0,1,294,-453,231,0,4266,BATTERY_STATUS,0,0,0,32767,[65535, 65535, 65535, 65535, 65535, 65535, 65535, 65535, 65535, 65535],-1,-1,-1,100,0,0,[0, 0, 0, 0],0,0,HEARTBEAT,6,8,0,0,0,3
8.636042833328247,VFR_HUD,0.0,0.0,55,0,-3.68999981880188,-0.0,,,,,,,,,,,,,,,,AHRS,0.006686377339065075,0.0002245643554488197,-0.0016871540574356914,0.0,0.0,0.00035806329105980694,0.0036469646729528904,GPS_RAW_INT,0,1,0,0,-17000,9999,9999,0,0,0,0,4294967295,4294967295,1000000,0,0,RC_CHANNELS,4996536,16,1501,1499,1004,1502,1000,1000,1500,1500,0,0,0,0,0,0,0,0,0,0,0,MISSION_CURRENT,0,SYS_STATUS,52485167,35684399,51413295,34,0,-1,-1,0,0,0,0,0,0,GLOBAL_POSITION_INT,4996536,0,0,-3690,-3697,0,0,0,5596,RAW_IMU,701569301,20,11,-992,-6,0,1,294,-453,231,0,4266,BATTERY_STATUS,0,0,0,32767,[65535, 65535, 65535, 65535, 65535, 65535, 65535, 65535, 65535, 65535],-1,-1,-1,100,0,0,[0, 0, 0, 0],0,0,HEARTBEAT,6,8,0,0,0,3
8.686269521713257,VFR_HUD,0.0,0.0,55,0,-3.68999981880188,-0.0,,,,,,,,,,,,,,,,AHRS,0.006686377339065075,0.0002245643554488197,-0.0016871540574356914,0.0,0.0,0.00035806329105980694,0.0036469646729528904,GPS_RAW_INT,0,1,0,0,-17000,9999,9999,0,0,0,0,4294967295,4294967295,1000000,0,0,RC_CHANNELS,4996536,16,1501,1499,1004,1502,1000,1000,1500,1500,0,0,0,0,0,0,0,0,0,0,0,MISSION_CURRENT,0,SYS_STATUS,52485167,35684399,51413295,34,0,-1,-1,0,0,0,0,0,0,GLOBAL_POSITION_INT,4996536,0,0,-3690,-3697,0,0,0,5596,RAW_IMU,701569301,20,11,-992,-6,0,1,294,-453,231,0,4266,BATTERY_STATUS,0,0,0,32767,[65535, 65535, 65535, 65535, 65535, 65535, 65535, 65535, 65535, 65535],-1,-1,-1,100,0,0,[0, 0, 0, 0],0,0,HEARTBEAT,6,8,0,0,0,3
8.736457347869873,VFR_HUD,0.0,0.0,55,0,-3.68999981880188,-0.0,,,,,,,,,,,,,,,,AHRS,0.006686377339065075,0.0002245643554488197,-0.0016871540574356914,0.0,0.0,0.00035806329105980694,0.0036469646729528904,GPS_RAW_INT,0,1,0,0,-17000,9999,9999,0,0,0,0,4294967295,4294967295,1000000,0,0,RC_CHANNELS,4996536,16,1501,1499,1004,1502,1000,1000,1500,1500,0,0,0,0,0,0,0,0,0,0,0,MISSION_CURRENT,0,SYS_STATUS,52485167,35684399,51413295,34,0,-1,-1,0,0,0,0,0,0,GLOBAL_POSITION_INT,4996536,0,0,-3690,-3697,0,0,0,5596,RAW_IMU,701569301,20,11,-992,-6,0,1,294,-453,231,0,4266,BATTERY_STATUS,0,0,0,32767,[65535, 65535, 65535, 65535, 65535, 65535, 65535, 65535, 65535, 65535],-1,-1,-1,100,0,0,[0, 0, 0, 0],0,0,HEARTBEAT,6,8,0,0,0,3
8.786777019500732,VFR_HUD,0.0,0.0,55,0,-3.68999981880188,-0.0,,,,,,,,,,,,,,,,AHRS,0.006686377339065075,0.0002245643554488197,-0.0016871540574356914,0.0,0.0,0.00035806329105980694,0.0036469646729528904,GPS_RAW_INT,0,1,0,0,-17000,9999,9999,0,0,0,0,4294967295,4294967295,1000000,0,0,RC_CHANNELS,4996536,16,1501,1499,1004,1502,1000,1000,1500,1500,0,0,0,0,0,0,0,0,0,0,0,MISSION_CURRENT,0,SYS_STATUS,52485167,35684399,51413295,34,0,-1,-1,0,0,0,0,0,0,GLOBAL_POSITION_INT,4996536,0,0,-3690,-3697,0,0,0,5596,RAW_IMU,701569301,20,11,-992,-6,0,1,294,-453,231,0,4266,BATTERY_STATUS,0,0,0,32767,[65535, 65535, 65535, 65535, 65535, 65535, 65535, 65535, 65535, 65535],-1,-1,-1,100,0,0,[0, 0, 0, 0],0,0,HEARTBEAT,6,8,0,0,0,3
8.837174415588379,VFR_HUD,0.0,0.0,55,0,-3.68999981880188,-0.0,,,,,,,,,,,,,,,,AHRS,0.006686377339065075,0.0002245643554488197,-0.0016871540574356914,0.0,0.0,0.00035806329105980694,0.0036469646729528904,GPS_RAW_INT,0,1,0,0,-17000,9999,9999,0,0,0,0,4294967295,4294967295,1000000,0,0,RC_CHANNELS,4996536,16,1501,1499,1004,1502,1000,1000,1500,1500,0,0,0,0,0,0,0,0,0,0,0,MISSION_CURRENT,0,SYS_STATUS,52485167,35684399,51413295,34,0,-1,-1,0,0,0,0,0,0,GLOBAL_POSITION_INT,4996536,0,0,-3690,-3697,0,0,0,5596,RAW_IMU,701569301,20,11,-992,-6,0,1,294,-453,231,0,4266,BATTERY_STATUS,0,0,0,32767,[65535, 65535, 65535, 65535, 65535, 65535, 65535, 65535, 65535, 65535],-1,-1,-1,100,0,0,[0, 0, 0, 0],0,0,HEARTBEAT,6,8,0,0,0,3
8.887365818023682,VFR_HUD,0.0,0.0,55,0,-3.68999981880188,-0.0,,,,,,,,,,,,,,,,AHRS,0.006686377339065075,0.0002245643554488197,-0.0016871540574356914,0.0,0.0,0.00035806329105980694,0.0036469646729528904,GPS_RAW_INT,0,1,0,0,-17000,9999,9999,0,0,0,0,4294967295,4294967295,1000000,0,0,RC_CHANNELS,4996536,16,1501,1499,1004,1502,1000,1000,1500,1500,0,0,0,0,0,0,0,0,0,0,0,MISSION_CURRENT,0,SYS_STATUS,52485167,35684399,51413295,34,0,-1,-1,0,0,0,0,0,0,GLOBAL_POSITION_INT,4996536,0,0,-3690,-3697,0,0,0,5596,RAW_IMU,701569301,20,11,-992,-6,0,1,294,-453,231,0,4266,BATTERY_STATUS,0,0,0,32767,[65535, 65535, 65535, 65535, 65535, 65535, 65535, 65535, 65535, 65535],-1,-1,-1,100,0,0,[0, 0, 0, 0],0,0,HEARTBEAT,6,8,0,0,0,3
8.937565088272095,VFR_HUD,0.0,0.0,55,0,-3.68999981880188,-0.0,,,,,,,,,,,,,,,,AHRS,0.006686377339065075,0.0002245643554488197,-0.0016871540574356914,0.0,0.0,0.00035806329105980694,0.0036469646729528904,GPS_RAW_INT,0,1,0,0,-17000,9999,9999,0,0,0,0,4294967295,4294967295,1000000,0,0,RC_CHANNELS,4996536,16,1501,1499,1004,1502,1000,1000,1500,1500,0,0,0,0,0,0,0,0,0,0,0,MISSION_CURRENT,0,SYS_STATUS,52485167,35684399,51413295,34,0,-1,-1,0,0,0,0,0,0,GLOBAL_POSITION_INT,4996536,0,0,-3690,-3697,0,0,0,5596,RAW_IMU,701569301,20,11,-992,-6,0,1,294,-453,231,0,4266,BATTERY_STATUS,0,0,0,32767,[65535, 65535, 65535, 65535, 65535, 65535, 65535, 65535, 65535, 65535],-1,-1,-1,100,0,0,[0, 0, 0, 0],0,0,HEARTBEAT,6,8,0,0,0,3
8.987754583358765,VFR_HUD,0.0,0.0,55,0,-3.68999981880188,-0.0,,,,,,,,,,,,,,,,AHRS,0.006686377339065075,0.0002245643554488197,-0.0016871540574356914,0.0,0.0,0.00035806329105980694,0.0036469646729528904,GPS_RAW_INT,0,1,0,0,-17000,9999,9999,0,0,0,0,4294967295,4294967295,1000000,0,0,RC_CHANNELS,4996536,16,1501,1499,1004,1502,1000,1000,1500,1500,0,0,0,0,0,0,0,0,0,0,0,MISSION_CURRENT,0,SYS_STATUS,52485167,35684399,51413295,34,0,-1,-1,0,0,0,0,0,0,GLOBAL_POSITION_INT,4996536,0,0,-3690,-3697,0,0,0,5596,RAW_IMU,701569301,20,11,-992,-6,0,1,294,-453,231,0,4266,BATTERY_STATUS,0,0,0,32767,[65535, 65535, 65535, 65535, 65535, 65535, 65535, 65535, 65535, 65535],-1,-1,-1,100,0,0,[0, 0, 0, 0],0,0,HEARTBEAT,6,8,0,0,0,3
9.037990808486938,VFR_HUD,0.0,0.0,55,0,-3.68999981880188,-0.0,,,,,,,,,,,,,,,,AHRS,0.006686377339065075,0.0002245643554488197,-0.0016871540574356914,0.0,0.0,0.00035806329105980694,0.0036469646729528904,GPS_RAW_INT,0,1,0,0,-17000,9999,9999,0,0,0,0,4294967295,4294967295,1000000,0,0,RC_CHANNELS,4996536,16,1501,1499,1004,1502,1000,1000,1500,1500,0,0,0,0,0,0,0,0,0,0,0,MISSION_CURRENT,0,SYS_STATUS,52485167,35684399,51413295,34,0,-1,-1,0,0,0,0,0,0,GLOBAL_POSITION_INT,4996536,0,0,-3690,-3697,0,0,0,5596,RAW_IMU,701569301,20,11,-992,-6,0,1,294,-453,231,0,4266,BATTERY_STATUS,0,0,0,32767,[65535, 65535, 65535, 65535, 65535, 65535, 65535, 65535, 65535, 65535],-1,-1,-1,100,0,0,[0, 0, 0, 0],0,0,HEARTBEAT,6,8,0,0,0,3
9.088277578353882,VFR_HUD,0.0,0.0,55,0,-3.68999981880188,-0.0,,,,,,,,,,,,,,,,AHRS,0.006686377339065075,0.0002245643554488197,-0.0016871540574356914,0.0,0.0,0.00035806329105980694,0.0036469646729528904,GPS_RAW_INT,0,1,0,0,-17000,9999,9999,0,0,0,0,4294967295,4294967295,1000000,0,0,RC_CHANNELS,4996536,16,1501,1499,1004,1502,1000,1000,1500,1500,0,0,0,0,0,0,0,0,0,0,0,MISSION_CURRENT,0,SYS_STATUS,52485167,35684399,51413295,34,0,-1,-1,0,0,0,0,0,0,GLOBAL_POSITION_INT,4997036,0,0,-3660,-3660,0,0,0,5597,RAW_IMU,701569301,20,11,-992,-6,0,1,294,-453,231,0,4266,BATTERY_STATUS,0,0,0,32767,[65535, 65535, 65535, 65535, 65535, 65535, 65535, 65535, 65535, 65535],-1,-1,-1,100,0,0,[0, 0, 0, 0],0,0,HEARTBEAT,6,8,0,0,0,3
9.138525485992432,VFR_HUD,0.0,0.0,55,0,-3.68999981880188,-0.0,,,,,,,,,,,,,,,,AHRS,0.006686377339065075,0.0002245643554488197,-0.0016871540574356914,0.0,0.0,0.00035806329105980694,0.0036469646729528904,GPS_RAW_INT,0,1,0,0,-17000,9999,9999,0,0,0,0,4294967295,4294967295,1000000,0,0,RC_CHANNELS,4996536,16,1501,1499,1004,1502,1000,1000,1500,1500,0,0,0,0,0,0,0,0,0,0,0,MISSION_CURRENT,0,SYS_STATUS,52485167,35684399,51413295,31,0,-1,-1,0,0,0,0,0,0,GLOBAL_POSITION_INT,4997036,0,0,-3660,-3660,0,0,0,5597,RAW_IMU,701569301,20,11,-992,-6,0,1,294,-453,231,0,4266,BATTERY_STATUS,0,0,0,32767,[65535, 65535, 65535, 65535, 65535, 65535, 65535, 65535, 65535, 65535],-1,-1,-1,100,0,0,[0, 0, 0, 0],0,0,HEARTBEAT,6,8,0,0,0,3
9.188800811767578,VFR_HUD,0.0,0.0,55,0,-3.68999981880188,-0.0,,,,,,,,,,,,,,,,AHRS,0.006686377339065075,0.0002245643554488197,-0.0016871540574356914,0.0,0.0,0.00035806329105980694,0.0036469646729528904,GPS_RAW_INT,0,1,0,0,-17000,9999,9999,0,0,0,0,4294967295,4294967295,1000000,0,0,RC_CHANNELS,4996536,16,1501,1499,1004,1502,1000,1000,1500,1500,0,0,0,0,0,0,0,0,0,0,0,MISSION_CURRENT,0,SYS_STATUS,52485167,35684399,51413295,31,0,-1,-1,0,0,0,0,0,0,GLOBAL_POSITION_INT,4997036,0,0,-3660,-3660,0,0,0,5597,RAW_IMU,701569301,20,11,-992,-6,0,1,294,-453,231,0,4266,BATTERY_STATUS,0,0,0,32767,[65535, 65535, 65535, 65535, 65535, 65535, 65535, 65535, 65535, 65535],-1,-1,-1,100,0,0,[0, 0, 0, 0],0,0,HEARTBEAT,6,8,0,0,0,3
9.239059209823608,VFR_HUD,0.0,0.0,55,0,-3.6599998474121094,-0.0,,,,,,,,,,,,,,,,AHRS,0.006686377339065075,0.0002245643554488197,-0.0016871540574356914,0.0,0.0,0.00035806329105980694,0.0036469646729528904,GPS_RAW_INT,0,1,0,0,-17000,9999,9999,0,0,0,0,4294967295,4294967295,1000000,0,0,RC_CHANNELS,4996536,16,1501,1499,1004,1502,1000,1000,1500,1500,0,0,0,0,0,0,0,0,0,0,0,MISSION_CURRENT,0,SYS_STATUS,52485167,35684399,51413295,31,0,-1,-1,0,0,0,0,0,0,GLOBAL_POSITION_INT,4997036,0,0,-3660,-3660,0,0,0,5597,RAW_IMU,701569301,20,11,-992,-6,0,1,294,-453,231,0,4266,BATTERY_STATUS,0,0,0,32767,[65535, 65535, 65535, 65535, 65535, 65535, 65535, 65535, 65535, 65535],-1,-1,-1,100,0,0,[0, 0, 0, 0],0,0,HEARTBEAT,6,8,0,0,0,3
