18.355405569076538,VFR_HUD,0.0,0.0,55,0,-2.3999998569488525,-0.0,,,,,,,,,,,,,,,,AHRS,0.006812583655118942,0.0007207017042674124,-0.002239919500425458,0.0,0.0,0.0005644013290293515,0.0028063480276614428,GPS_RAW_INT,0,1,0,0,-17000,9999,9999,0,0,0,0,4294967295,4294967295,1000000,0,0,RC_CHANNELS,6418036,16,1501,1499,1004,1501,1001,1000,1500,1500,0,0,0,0,0,0,0,0,0,0,0,MISSION_CURRENT,0,SYS_STATUS,52485167,52461615,53510447,46,0,-1,-1,0,0,0,0,0,0,GLOBAL_POSITION_INT,6418536,0,0,-2380,-2388,1,0,-1,5635,RAW_IMU,2123069316,20,11,-992,-6,0,1,294,-450,233,0,4308,BATTERY_STATUS,0,0,0,32767,[65535, 65535, 65535, 65535, 65535, 65535, 65535, 65535, 65535, 65535],-1,-1,-1,100,0,0,[0, 0, 0, 0],0,0,HEARTBEAT,10,3,193,0,4,3
0.002577543258666992,VFR_HUD,0.0,0.01197380293160677,56,0,-2.379999876022339,0.015489290468394756,,,,,,,,,,,,,,,,AHRS,0.006812583655118942,0.0007207017042674124,-0.002239919500425458,0.0,0.0,0.0005644013290293515,0.0028063480276614428,GPS_RAW_INT,0,1,0,0,-17000,9999,9999,0,0,0,0,4294967295,4294967295,1000000,0,0,RC_CHANNELS,6418536,16,1501,1499,1004,1501,1000,1001,1500,1500,0,0,0,0,0,0,0,0,0,0,0,MISSION_CURRENT,0,SYS_STATUS,52485167,52461615,53510447,46,0,-1,-1,0,0,0,0,0,0,GLOBAL_POSITION_INT,6418536,0,0,-2380,-2388,1,0,-1,5635,RAW_IMU,2123569421,20,10,-991,-7,0,2,292,-445,229,0,4308,BATTERY_STATUS,0,0,0,32767,[65535, 65535, 65535, 65535, 65535, 65535, 65535, 65535, 65535, 65535],-1,-1,-1,100,0,0,[0, 0, 0, 0],0,0,HEARTBEAT,10,3,193,0,4,3
0.10434913635253906,VFR_HUD,0.0,0.01197380293160677,56,0,-2.379999876022339,0.015489290468394756,,,,,,,,,,,,,,,,AHRS,0.006858128122985363,0.0005496918456628919,-0.001994351390749216,0.0,0.0,0.0005621968302875757,0.0035536675713956356,GPS_RAW_INT,0,1,0,0,-17000,9999,9999,0,0,0,0,4294967295,4294967295,1000000,0,0,RC_CHANNELS,6418536,16,1501,1499,1004,1501,1000,1001,1500,1500,0,0,0,0,0,0,0,0,0,0,0,MISSION_CURRENT,0,SYS_STATUS,52485167,52461615,53510447,46,0,-1,-1,0,0,0,0,0,0,GLOBAL_POSITION_INT,6418536,0,0,-2380,-2388,1,0,-1,5635,RAW_IMU,2123569421,20,10,-991,-7,0,2,292,-445,229,0,4308,BATTERY_STATUS,0,0,0,32767,[65535, 65535, 65535, 65535, 65535, 65535, 65535, 65535, 65535, 65535],-1,-1,-1,100,0,0,[0, 0, 0, 0],0,0,HEARTBEAT,10,3,193,0,4,3
0.1545414924621582,VFR_HUD,0.0,0.01197380293160677,56,0,-2.379999876022339,0.015489290468394756,,,,,,,,,,,,,,,,AHRS,0.006858128122985363,0.0005496918456628919,-0.001994351390749216,0.0,0.0,0.0005621968302875757,0.0035536675713956356,GPS_RAW_INT,0,1,0,0,-17000,9999,9999,0,0,0,0,4294967295,4294967295,1000000,0,0,RC_CHANNELS,6418536,16,1501,1499,1004,1501,1000,1001,1500,1500,0,0,0,0,0,0,0,0,0,0,0,MISSION_CURRENT,0,SYS_STATUS,52485167,52461615,53510447,46,0,-1,-1,0,0,0,0,0,0,GLOBAL_POSITION_INT,6418536,0,0,-2380,-2388,1,0,-1,5635,RAW_IMU,2123569421,20,10,-991,-7,0,2,292,-445,229,0,4308,BATTERY_STATUS,0,0,0,32767,[65535, 65535, 65535, 65535, 65535, 65535, 65535, 65535, 65535, 65535],-1,-1,-1,100,0,0,[0, 0, 0, 0],0,0,HEARTBEAT,10,3,193,0,4,3
0.20472407341003418,VFR_HUD,0.0,0.01197380293160677,56,0,-2.379999876022339,0.015489290468394756,,,,,,,,,,,,,,,,AHRS,0.006858128122985363,0.0005496918456628919,-0.001994351390749216,0.0,0.0,0.0005621968302875757,0.0035536675713956356,GPS_RAW_INT,0,1,0,0,-17000,9999,9999,0,0,0,0,4294967295,4294967295,1000000,0,0,RC_CHANNELS,6418536,16,1501,1499,1004,1501,1000,1001,1500,1500,0,0,0,0,0,0,0,0,0,0,0,MISSION_CURRENT,0,SYS_STATUS,52485167,52461615,53510447,46,0,-1,-1,0,0,0,0,0,0,GLOBAL_POSITION_INT,6418536,0,0,-2380,-2388,1,0,-1,5635,RAW_IMU,2123569421,20,10,-991,-7,0,2,292,-445,229,0,4308,BATTERY_STATUS,0,0,0,32767,[65535, 65535, 65535, 65535, 65535, 65535, 65535, 65535, 65535, 65535],-1,-1,-1,100,0,0,[0, 0, 0, 0],0,0,HEARTBEAT,10,3,193,0,4,3
0.2548971176147461,VFR_HUD,0.0,0.01197380293160677,56,0,-2.379999876022339,0.015489290468394756,,,,,,,,,,,,,,,,AHRS,0.006858128122985363,0.0005496918456628919,-0.001994351390749216,0.0,0.0,0.0005621968302875757,0.0035536675713956356,GPS_RAW_INT,0,1,0,0,-17000,9999,9999,0,0,0,0,4294967295,4294967295,1000000,0,0,RC_CHANNELS,6418536,16,1501,1499,1004,1501,1000,1001,1500,1500,0,0,0,0,0,0,0,0,0,0,0,MISSION_CURRENT,0,SYS_STATUS,52485167,52461615,53510447,46,0,-1,-1,0,0,0,0,0,0,GLOBAL_POSITION_INT,6418536,0,0,-2380,-2388,1,0,-1,5635,RAW_IMU,2123569421,20,10,-991,-7,0,2,292,-445,229,0,4308,BATTERY_STATUS,0,0,0,32767,[65535, 65535, 65535, 65535, 65535, 65535, 65535, 65535, 65535, 65535],-1,-1,-1,100,0,0,[0, 0, 0, 0],0,0,HEARTBEAT,10,3,193,0,4,3
0.3051161766052246,VFR_HUD,0.0,0.01197380293160677,56,0,-2.379999876022339,0.015489290468394756,,,,,,,,,,,,,,,,AHRS,0.006858128122985363,0.0005496918456628919,-0.001994351390749216,0.0,0.0,0.0005621968302875757,0.0035536675713956356,GPS_RAW_INT,0,1,0,0,-17000,9999,9999,0,0,0,0,4294967295,4294967295,1000000,0,0,RC_CHANNELS,6418536,16,1501,1499,1004,1501,1000,1001,1500,1500,0,0,0,0,0,0,0,0,0,0,0,MISSION_CURRENT,0,SYS_STATUS,52485167,52461615,53510447,46,0,-1,-1,0,0,0,0,0,0,GLOBAL_POSITION_INT,6418536,0,0,-2380,-2388,1,0,-1,5635,RAW_IMU,2123569421,20,10,-991,-7,0,2,292,-445,229,0,4308,BATTERY_STATUS,0,0,0,32767,[65535, 65535, 65535, 65535, 65535, 65535, 65535, 65535, 65535, 65535],-1,-1,-1,100,0,0,[0, 0, 0, 0],0,0,HEARTBEAT,6,8,0,0,0,3
0.35532474517822266,VFR_HUD,0.0,0.01197380293160677,56,0,-2.379999876022339,0.015489290468394756,,,,,,,,,,,,,,,,AHRS,0.006858128122985363,0.0005496918456628919,-0.001994351390749216,0.0,0.0,0.0005621968302875757,0.0035536675713956356,GPS_RAW_INT,0,1,0,0,-17000,9999,9999,0,0,0,0,4294967295,4294967295,1000000,0,0,RC_CHANNELS,6418536,16,1501,1499,1004,1501,1000,1001,1500,1500,0,0,0,0,0,0,0,0,0,0,0,MISSION_CURRENT,0,SYS_STATUS,52485167,52461615,53510447,46,0,-1,-1,0,0,0,0,0,0,GLOBAL_POSITION_INT,6418536,0,0,-2380,-2388,1,0,-1,5635,RAW_IMU,2123569421,20,10,-991,-7,0,2,292,-445,229,0,4308,BATTERY_STATUS,0,0,0,32767,[65535, 65535, 65535, 65535, 65535, 65535, 65535, 65535, 65535, 65535],-1,-1,-1,100,0,0,[0, 0, 0, 0],0,0,HEARTBEAT,6,8,0,0,0,3
0.40550923347473145,VFR_HUD,0.0,0.01197380293160677,56,0,-2.379999876022339,0.015489290468394756,,,,,,,,,,,,,,,,AHRS,0.006858128122985363,0.0005496918456628919,-0.001994351390749216,0.0,0.0,0.0005621968302875757,0.0035536675713956356,GPS_RAW_INT,0,1,0,0,-17000,9999,9999,0,0,0,0,4294967295,4294967295,1000000,0,0,RC_CHANNELS,6418536,16,1501,1499,1004,1501,1000,1001,1500,1500,0,0,0,0,0,0,0,0,0,0,0,MISSION_CURRENT,0,SYS_STATUS,52485167,52461615,53510447,46,0,-1,-1,0,0,0,0,0,0,GLOBAL_POSITION_INT,6418536,0,0,-2380,-2388,1,0,-1,5635,RAW_IMU,2123569421,20,10,-991,-7,0,2,292,-445,229,0,4308,BATTERY_STATUS,0,0,0,32767,[65535, 65535, 65535, 65535, 65535, 65535, 65535, 65535, 65535, 65535],-1,-1,-1,100,0,0,[0, 0, 0, 0],0,0,HEARTBEAT,6,8,0,0,0,3
0.45571112632751465,VFR_HUD,0.0,0.01197380293160677,56,0,-2.379999876022339,0.015489290468394756,,,,,,,,,,,,,,,,AHRS,0.006858128122985363,0.0005496918456628919,-0.001994351390749216,0.0,0.0,0.0005621968302875757,0.0035536675713956356,GPS_RAW_INT,0,1,0,0,-17000,9999,9999,0,0,0,0,4294967295,4294967295,1000000,0,0,RC_CHANNELS,6418536,16,1501,1499,1004,1501,1000,1001,1500,1500,0,0,0,0,0,0,0,0,0,0,0,MISSION_CURRENT,0,SYS_STATUS,52485167,52461615,53510447,46,0,-1,-1,0,0,0,0,0,0,GLOBAL_POSITION_INT,6418536,0,0,-2380,-2388,1,0,-1,5635,RAW_IMU,2123569421,20,10,-991,-7,0,2,292,-445,229,0,4308,BATTERY_STATUS,0,0,0,32767,[65535, 65535, 65535, 65535, 65535, 65535, 65535, 65535, 65535, 65535],-1,-1,-1,100,0,0,[0, 0, 0, 0],0,0,HEARTBEAT,6,8,0,0,0,3
0.5059034824371338,VFR_HUD,0.0,0.01197380293160677,56,0,-2.379999876022339,0.015489290468394756,,,,,,,,,,,,,,,,AHRS,0.006858128122985363,0.0005496918456628919,-0.001994351390749216,0.0,0.0,0.0005621968302875757,0.0035536675713956356,GPS_RAW_INT,0,1,0,0,-17000,9999,9999,0,0,0,0,4294967295,4294967295,1000000,0,0,RC_CHANNELS,6418536,16,1501,1499,1004,1501,1000,1001,1500,1500,0,0,0,0,0,0,0,0,0,0,0,MISSION_CURRENT,0,SYS_STATUS,52485167,52461615,53510447,46,0,-1,-1,0,0,0,0,0,0,GLOBAL_POSITION_INT,6418536,0,0,-2380,-2388,1,0,-1,5635,RAW_IMU,2123569421,20,10,-991,-7,0,2,292,-445,229,0,4308,BATTERY_STATUS,0,0,0,32767,[65535, 65535, 65535, 65535, 65535, 65535, 65535, 65535, 65535, 65535],-1,-1,-1,100,0,0,[0, 0, 0, 0],0,0,HEARTBEAT,6,8,0,0,0,3
0.5560934543609619,VFR_HUD,0.0,0.01197380293160677,56,0,-2.379999876022339,0.015489290468394756,,,,,,,,,,,,,,,,AHRS,0.006858128122985363,0.0005496918456628919,-0.001994351390749216,0.0,0.0,0.0005621968302875757,0.0035536675713956356,GPS_RAW_INT,0,1,0,0,-17000,9999,9999,0,0,0,0,4294967295,4294967295,1000000,0,0,RC_CHANNELS,6418536,16,1501,1499,1004,1501,1000,1001,1500,1500,0,0,0,0,0,0,0,0,0,0,0,MISSION_CURRENT,0,SYS_STATUS,52485167,52461615,53510447,46,0,-1,-1,0,0,0,0,0,0,GLOBAL_POSITION_INT,6418536,0,0,-2380,-2388,1,0,-1,5635,RAW_IMU,2123569421,20,10,-991,-7,0,2,292,-445,229,0,4308,BATTERY_STATUS,0,0,0,32767,[65535, 65535, 65535, 65535, 65535, 65535, 65535, 65535, 65535, 65535],-1,-1,-1,100,0,0,[0, 0, 0, 0],0,0,HEARTBEAT,6,8,0,0,0,3
0.60626220703125,VFR_HUD,0.0,0.01197380293160677,56,0,-2.379999876022339,0.015489290468394756,,,,,,,,,,,,,,,,AHRS,0.006858128122985363,0.0005496918456628919,-0.001994351390749216,0.0,0.0,0.0005621968302875757,0.0035536675713956356,GPS_RAW_INT,0,1,0,0,-17000,9999,9999,0,0,0,0,4294967295,4294967295,1000000,0,0,RC_CHANNELS,6418536,16,1501,1499,1004,1501,1000,1001,1500,1500,0,0,0,0,0,0,0,0,0,0,0,MISSION_CURRENT,0,SYS_STATUS,52485167,52461615,53510447,46,0,-1,-1,0,0,0,0,0,0,GLOBAL_POSITION_INT,6418536,0,0,-2380,-2388,1,0,-1,5635,RAW_IMU,2123569421,20,10,-991,-7,0,2,292,-445,229,0,4308,BATTERY_STATUS,0,0,0,32767,[65535, 65535, 65535, 65535, 65535, 65535, 65535, 65535, 65535, 65535],-1,-1,-1,100,0,0,[0, 0, 0, 0],0,0,HEARTBEAT,6,8,0,0,0,3
0.656463623046875,VFR_HUD,0.0,0.01284282747656107,56,0,-2.509999990463257,0.017720354720950127,,,,,,,,,,,,,,,,AHRS,0.006858128122985363,0.0005496918456628919,-0.001994351390749216,0.0,0.0,0.0005621968302875757,0.0035536675713956356,GPS_RAW_INT,0,1,0,0,-17000,9999,9999,0,0,0,0,4294967295,4294967295,1000000,0,0,RC_CHANNELS,6418536,16,1501,1499,1004,1501,1000,1001,1500,1500,0,0,0,0,0,0,0,0,0,0,0,MISSION_CURRENT,0,SYS_STATUS,52485167,52461615,53510447,38,0,-1,-1,0,0,0,0,0,0,GLOBAL_POSITION_INT,6419036,0,0,-2510,-2511,1,0,-1,5636,RAW_IMU,2123569421,20,10,-991,-7,0,2,292,-445,229,0,4308,BATTERY_STATUS,0,0,0,32767,[65535, 65535, 65535, 65535, 65535, 65535, 65535, 65535, 65535, 65535],-1,-1,-1,100,0,0,[0, 0, 0, 0],0,0,HEARTBEAT,6,8,0,0,0,3
0.7066330909729004,VFR_HUD,0.0,0.01284282747656107,56,0,-2.509999990463257,0.017720354720950127,,,,,,,,,,,,,,,,AHRS,0.006861333269625902,0.0005499510443769395,-0.001995312748476863,0.0,0.0,0.0005166239570826292,0.00344129279255867,GPS_RAW_INT,0,1,0,0,-17000,9999,9999,0,0,0,0,4294967295,4294967295,1000000,0,0,RC_CHANNELS,6419036,16,1502,1499,1004,1501,1000,1000,1500,1501,0,0,0,0,0,0,0,0,0,0,0,MISSION_CURRENT,0,SYS_STATUS,52485167,52461615,53510447,38,0,-1,-1,0,0,0,0,0,0,GLOBAL_POSITION_INT,6419036,0,0,-2510,-2511,1,0,-1,5636,RAW_IMU,2124069359,20,10,-992,-6,0,2,295,-445,232,0,4308,BATTERY_STATUS,0,0,0,32767,[65535, 65535, 65535, 65535, 65535, 65535, 65535, 65535, 65535, 65535],-1,-1,-1,100,0,0,[0, 0, 0, 0],0,0,HEARTBEAT,6,8,0,0,0,3
0.7568216323852539,VFR_HUD,0.0,0.01284282747656107,56,0,-2.509999990463257,0.017720354720950127,,,,,,,,,,,,,,,,AHRS,0.006861333269625902,0.0005499510443769395,-0.001995312748476863,0.0,0.0,0.0005166239570826292,0.00344129279255867,GPS_RAW_INT,0,1,0,0,-17000,9999,9999,0,0,0,0,4294967295,4294967295,1000000,0,0,RC_CHANNELS,6419036,16,1502,1499,1004,1501,1000,1000,1500,1501,0,0,0,0,0,0,0,0,0,0,0,MISSION_CURRENT,0,SYS_STATUS,52485167,52461615,53510447,38,0,-1,-1,0,0,0,0,0,0,GLOBAL_POSITION_INT,6419036,0,0,-2510,-2511,1,0,-1,5636,RAW_IMU,2124069359,20,10,-992,-6,0,2,295,-445,232,0,4308,BATTERY_STATUS,0,0,0,32767,[65535, 65535, 65535, 65535, 65535, 65535, 65535, 65535, 65535, 65535],-1,-1,-1,100,0,0,[0, 0, 0, 0],0,0,HEARTBEAT,6,8,0,0,0,3
0.8069853782653809,VFR_HUD,0.0,0.01284282747656107,56,0,-2.509999990463257,0.017720354720950127,,,,,,,,,,,,,,,,AHRS,0.006861333269625902,0.0005499510443769395,-0.001995312748476863,0.0,0.0,0.0005166239570826292,0.00344129279255867,GPS_RAW_INT,0,1,0,0,-17000,9999,9999,0,0,0,0,4294967295,4294967295,1000000,0,0,RC_CHANNELS,6419036,16,1502,1499,1004,1501,1000,1000,1500,1501,0,0,0,0,0,0,0,0,0,0,0,MISSION_CURRENT,0,SYS_STATUS,52485167,52461615,53510447,38,0,-1,-1,0,0,0,0,0,0,GLOBAL_POSITION_INT,6419036,0,0,-2510,-2511,1,0,-1,5636,RAW_IMU,2124069359,20,10,-992,-6,0,2,295,-445,232,0,4308,BATTERY_STATUS,0,0,0,32767,[65535, 65535, 65535, 65535, 65535, 65535, 65535, 65535, 65535, 65535],-1,-1,-1,100,0,0,[0, 0, 0, 0],0,0,HEARTBEAT,6,8,0,0,0,3
0.8576369285583496,VFR_HUD,0.0,0.01284282747656107,56,0,-2.509999990463257,0.017720354720950127,,,,,,,,,,,,,,,,AHRS,0.006861333269625902,0.0005499510443769395,-0.001995312748476863,0.0,0.0,0.0005166239570826292,0.00344129279255867,GPS_RAW_INT,0,1,0,0,-17000,9999,9999,0,0,0,0,4294967295,4294967295,1000000,0,0,RC_CHANNELS,6419036,16,1502,1499,1004,1501,1000,1000,1500,1501,0,0,0,0,0,0,0,0,0,0,0,MISSION_CURRENT,0,SYS_STATUS,52485167,52461615,53510447,38,0,-1,-1,0,0,0,0,0,0,GLOBAL_POSITION_INT,6419036,0,0,-2510,-2511,1,0,-1,5636,RAW_IMU,2124069359,20,10,-992,-6,0,2,295,-445,232,0,4308,BATTERY_STATUS,0,0,0,32767,[65535, 65535, 65535, 65535, 65535, 65535, 65535, 65535, 65535, 65535],-1,-1,-1,100,0,0,[0, 0, 0, 0],0,0,HEARTBEAT,6,8,0,0,0,3
0.9078116416931152,VFR_HUD,0.0,0.01284282747656107,56,0,-2.509999990463257,0.017720354720950127,,,,,,,,,,,,,,,,AHRS,0.006861333269625902,0.0005499510443769395,-0.001995312748476863,0.0,0.0,0.0005166239570826292,0.00344129279255867,GPS_RAW_INT,0,1,0,0,-17000,9999,9999,0,0,0,0,4294967295,4294967295,1000000,0,0,RC_CHANNELS,6419036,16,1502,1499,1004,1501,1000,1000,1500,1501,0,0,0,0,0,0,0,0,0,0,0,MISSION_CURRENT,0,SYS_STATUS,52485167,52461615,53510447,38,0,-1,-1,0,0,0,0,0,0,GLOBAL_POSITION_INT,6419036,0,0,-2510,-2511,1,0,-1,5636,RAW_IMU,2124069359,20,10,-992,-6,0,2,295,-445,232,0,4308,BATTERY_STATUS,0,0,0,32767,[65535, 65535, 65535, 65535, 65535, 65535, 65535, 65535, 65535, 65535],-1,-1,-1,100,0,0,[0, 0, 0, 0],0,0,HEARTBEAT,6,8,0,0,0,3
0.9579741954803467,VFR_HUD,0.0,0.01284282747656107,56,0,-2.509999990463257,0.017720354720950127,,,,,,,,,,,,,,,,AHRS,0.006861333269625902,0.0005499510443769395,-0.001995312748476863,0.0,0.0,0.0005166239570826292,0.00344129279255867,GPS_RAW_INT,0,1,0,0,-17000,9999,9999,0,0,0,0,4294967295,4294967295,1000000,0,0,RC_CHANNELS,6419036,16,1502,1499,1004,1501,1000,1000,1500,1501,0,0,0,0,0,0,0,0,0,0,0,MISSION_CURRENT,0,SYS_STATUS,52485167,52461615,53510447,38,0,-1,-1,0,0,0,0,0,0,GLOBAL_POSITION_INT,6419036,0,0,-2510,-2511,1,0,-1,5636,RAW_IMU,2124069359,20,10,-992,-6,0,2,295,-445,232,0,4308,BATTERY_STATUS,0,0,0,32767,[65535, 65535, 65535, 65535, 65535, 65535, 65535, 65535, 65535, 65535],-1,-1,-1,100,0,0,[0, 0, 0, 0],0,0,HEARTBEAT,6,8,0,0,0,3
1.0084760189056396,VFR_HUD,0.0,0.01284282747656107,56,0,-2.509999990463257,0.017720354720950127,,,,,,,,,,,,,,,,AHRS,0.006861333269625902,0.0005499510443769395,-0.001995312748476863,0.0,0.0,0.0005166239570826292,0.00344129279255867,GPS_RAW_INT,0,1,0,0,-17000,9999,9999,0,0,0,0,4294967295,4294967295,1000000,0,0,RC_CHANNELS,6419036,16,1502,1499,1004,1501,1000,1000,1500,1501,0,0,0,0,0,0,0,0,0,0,0,MISSION_CURRENT,0,SYS_STATUS,52485167,52461615,53510447,38,0,-1,-1,0,0,0,0,0,0,GLOBAL_POSITION_INT,6419036,0,0,-2510,-2511,1,0,-1,5636,RAW_IMU,2124069359,20,10,-992,-6,0,2,295,-445,232,0,4308,BATTERY_STATUS,0,0,0,32767,[65535, 65535, 65535, 65535, 65535, 65535, 65535, 65535, 65535, 65535],-1,-1,-1,100,0,0,[0, 0, 0, 0],0,0,HEARTBEAT,6,8,0,0,0,3
1.059828758239746,VFR_HUD,0.0,0.01284282747656107,56,0,-2.509999990463257,0.017720354720950127,,,,,,,,,,,,,,,,AHRS,0.006861333269625902,0.0005499510443769395,-0.001995312748476863,0.0,0.0,0.0005166239570826292,0.00344129279255867,GPS_RAW_INT,0,1,0,0,-17000,9999,9999,0,0,0,0,4294967295,4294967295,1000000,0,0,RC_CHANNELS,6419036,16,1502,1499,1004,1501,1000,1000,1500,1501,0,0,0,0,0,0,0,0,0,0,0,MISSION_CURRENT,0,SYS_STATUS,52485167,52461615,53510447,38,0,-1,-1,0,0,0,0,0,0,GLOBAL_POSITION_INT,6419036,0,0,-2510,-2511,1,0,-1,5636,RAW_IMU,2124069359,20,10,-992,-6,0,2,295,-445,232,0,4308,BATTERY_STATUS,0,0,0,32767,[65535, 65535, 65535, 65535, 65535, 65535, 65535, 65535, 65535, 65535],-1,-1,-1,100,0,0,[0, 0, 0, 0],0,0,HEARTBEAT,6,8,0,0,0,3
1.110060214996338,VFR_HUD,0.0,0.01284282747656107,56,0,-2.509999990463257,0.017720354720950127,,,,,,,,,,,,,,,,AHRS,0.006861333269625902,0.0005499510443769395,-0.001995312748476863,0.0,0.0,0.0005166239570826292,0.00344129279255867,GPS_RAW_INT,0,1,0,0,-17000,9999,9999,0,0,0,0,4294967295,4294967295,1000000,0,0,RC_CHANNELS,6419036,16,1502,1499,1004,1501,1000,1000,1500,1501,0,0,0,0,0,0,0,0,0,0,0,MISSION_CURRENT,0,SYS_STATUS,52485167,52461615,53510447,38,0,-1,-1,0,0,0,0,0,0,GLOBAL_POSITION_INT,6419036,0,0,-2510,-2511,1,0,-1,5636,RAW_IMU,2124069359,20,10,-992,-6,0,2,295,-445,232,0,4308,BATTERY_STATUS,0,0,0,32767,[65535, 65535, 65535, 65535, 65535, 65535, 65535, 65535, 65535, 65535],-1,-1,-1,100,0,0,[0, 0, 0, 0],0,0,HEARTBEAT,6,8,0,0,0,3
1.160506248474121,VFR_HUD,0.0,0.01284282747656107,56,0,-2.509999990463257,0.017720354720950127,,,,,,,,,,,,,,,,AHRS,0.006861333269625902,0.0005499510443769395,-0.001995312748476863,0.0,0.0,0.0005166239570826292,0.00344129279255867,GPS_RAW_INT,0,1,0,0,-17000,9999,9999,0,0,0,0,4294967295,4294967295,1000000,0,0,RC_CHANNELS,6419036,16,1502,1499,1004,1501,1000,1000,1500,1501,0,0,0,0,0,0,0,0,0,0,0,MISSION_CURRENT,0,SYS_STATUS,52485167,52461615,53510447,38,0,-1,-1,0,0,0,0,0,0,GLOBAL_POSITION_INT,6419036,0,0,-2510,-2511,1,0,-1,5636,RAW_IMU,2124069359,20,10,-992,-6,0,2,295,-445,232,0,4308,BATTERY_STATUS,0,0,0,32767,[65535, 65535, 65535, 65535, 65535, 65535, 65535, 65535, 65535, 65535],-1,-1,-1,100,0,0,[0, 0, 0, 0],0,0,HEARTBEAT,6,8,0,0,0,3
1.2106969356536865,VFR_HUD,0.0,0.01284282747656107,56,0,-2.509999990463257,0.017720354720950127,,,,,,,,,,,,,,,,AHRS,0.006861333269625902,0.0005499510443769395,-0.001995312748476863,0.0,0.0,0.0005166239570826292,0.00344129279255867,GPS_RAW_INT,0,1,0,0,-17000,9999,9999,0,0,0,0,4294967295,4294967295,1000000,0,0,RC_CHANNELS,6419036,16,1502,1499,1004,1501,1000,1000,1500,1501,0,0,0,0,0,0,0,0,0,0,0,MISSION_CURRENT,0,SYS_STATUS,52485167,52461615,53510447,38,0,-1,-1,0,0,0,0,0,0,GLOBAL_POSITION_INT,6419036,0,0,-2510,-2511,1,0,-1,5636,RAW_IMU,2124069359,20,10,-992,-6,0,2,295,-445,232,0,4308,BATTERY_STATUS,0,0,0,32767,[65535, 65535, 65535, 65535, 65535, 65535, 65535, 65535, 65535, 65535],-1,-1,-1,100,0,0,[0, 0, 0, 0],0,0,HEARTBEAT,6,8,0,0,0,3
1.2611002922058105,VFR_HUD,0.0,0.01284282747656107,56,0,-2.509999990463257,0.017720354720950127,,,,,,,,,,,,,,,,AHRS,0.006861333269625902,0.0005499510443769395,-0.001995312748476863,0.0,0.0,0.0005166239570826292,0.00344129279255867,GPS_RAW_INT,0,1,0,0,-17000,9999,9999,0,0,0,0,4294967295,4294967295,1000000,0,0,RC_CHANNELS,6419036,16,1502,1499,1004,1501,1000,1000,1500,1501,0,0,0,0,0,0,0,0,0,0,0,MISSION_CURRENT,0,SYS_STATUS,52485167,52461615,53510447,38,0,-1,-1,0,0,0,0,0,0,GLOBAL_POSITION_INT,6419536,0,0,-2550,-2554,1,0,-1,5636,RAW_IMU,2124069359,20,10,-992,-6,0,2,295,-445,232,0,4308,BATTERY_STATUS,0,0,0,32767,[65535, 65535, 65535, 65535, 65535, 65535, 65535, 65535, 65535, 65535],-1,-1,-1,100,0,0,[0, 0, 0, 0],0,0,HEARTBEAT,10,3,193,0,4,3
1.3114378452301025,VFR_HUD,0.0,0.016133839264512062,56,0,-2.549999952316284,0.016235223039984703,,,,,,,,,,,,,,,,AHRS,0.006861333269625902,0.0005499510443769395,-0.001995312748476863,0.0,0.0,0.0005166239570826292,0.00344129279255867,GPS_RAW_INT,0,1,0,0,-17000,9999,9999,0,0,0,0,4294967295,4294967295,1000000,0,0,RC_CHANNELS,6419036,16,1502,1499,1004,1501,1000,1000,1500,1501,0,0,0,0,0,0,0,0,0,0,0,MISSION_CURRENT,0,SYS_STATUS,52485167,52461615,53510447,36,0,-1,-1,0,0,0,0,0,0,GLOBAL_POSITION_INT,6419536,0,0,-2550,-2554,1,0,-1,5636,RAW_IMU,2124069359,20,10,-992,-6,0,2,295,-445,232,0,4308,BATTERY_STATUS,0,0,0,32767,[65535, 65535, 65535, 65535, 65535, 65535, 65535, 65535, 65535, 65535],-1,-1,-1,100,0,0,[0, 0, 0, 0],0,0,HEARTBEAT,10,3,193,0,4,3
1.3616440296173096,VFR_HUD,0.0,0.016133839264512062,56,0,-2.549999952316284,0.016235223039984703,,,,,,,,,,,,,,,,AHRS,0.0068632857874035835,0.0005501160048879683,-0.0019962668884545565,0.0,0.0,0.0005197991849854589,0.005666338838636875,GPS_RAW_INT,0,1,0,0,-17000,9999,9999,0,0,0,0,4294967295,4294967295,1000000,0,0,RC_CHANNELS,6419536,16,1501,1499,1005,1501,1000,1000,1500,1500,0,0,0,0,0,0,0,0,0,0,0,MISSION_CURRENT,0,SYS_STATUS,52485167,52461615,53510447,36,0,-1,-1,0,0,0,0,0,0,GLOBAL_POSITION_INT,6419536,0,0,-2550,-2554,1,0,-1,5636,RAW_IMU,2124569451,19,11,-991,-6,0,2,296,-443,233,0,4308,BATTERY_STATUS,0,0,0,32767,[65535, 65535, 65535, 65535, 65535, 65535, 65535, 65535, 65535, 65535],-1,-1,-1,100,0,0,[0, 0, 0, 0],0,0,HEARTBEAT,10,3,193,0,4,3
1.4118297100067139,VFR_HUD,0.0,0.016133839264512062,56,0,-2.549999952316284,0.016235223039984703,,,,,,,,,,,,,,,,AHRS,0.0068632857874035835,0.0005501160048879683,-0.0019962668884545565,0.0,0.0,0.0005197991849854589,0.005666338838636875,GPS_RAW_INT,0,1,0,0,-17000,9999,9999,0,0,0,0,4294967295,4294967295,1000000,0,0,RC_CHANNELS,6419536,16,1501,1499,1005,1501,1000,1000,1500,1500,0,0,0,0,0,0,0,0,0,0,0,MISSION_CURRENT,0,SYS_STATUS,52485167,52461615,53510447,36,0,-1,-1,0,0,0,0,0,0,GLOBAL_POSITION_INT,6419536,0,0,-2550,-2554,1,0,-1,5636,RAW_IMU,2124569451,19,11,-991,-6,0,2,296,-443,233,0,4308,BATTERY_STATUS,0,0,0,32767,[65535, 65535, 65535, 65535, 65535, 65535, 65535, 65535, 65535, 65535],-1,-1,-1,100,0,0,[0, 0, 0, 0],0,0,HEARTBEAT,10,3,193,0,4,3
1.4619934558868408,VFR_HUD,0.0,0.016133839264512062,56,0,-2.549999952316284,0.016235223039984703,,,,,,,,,,,,,,,,AHRS,0.0068632857874035835,0.0005501160048879683,-0.0019962668884545565,0.0,0.0,0.0005197991849854589,0.005666338838636875,GPS_RAW_INT,0,1,0,0,-17000,9999,9999,0,0,0,0,4294967295,4294967295,1000000,0,0,RC_CHANNELS,6419536,16,1501,1499,1005,1501,1000,1000,1500,1500,0,0,0,0,0,0,0,0,0,0,0,MISSION_CURRENT,0,SYS_STATUS,52485167,52461615,53510447,36,0,-1,-1,0,0,0,0,0,0,GLOBAL_POSITION_INT,6419536,0,0,-2550,-2554,1,0,-1,5636,RAW_IMU,2124569451,19,11,-991,-6,0,2,296,-443,233,0,4308,BATTERY_STATUS,0,0,0,32767,[65535, 65535, 65535, 65535, 65535, 65535, 65535, 65535, 65535, 65535],-1,-1,-1,100,0,0,[0, 0, 0, 0],0,0,HEARTBEAT,10,3,193,0,4,3
1.512181043624878,VFR_HUD,0.0,0.016133839264512062,56,0,-2.549999952316284,0.016235223039984703,,,,,,,,,,,,,,,,AHRS,0.0068632857874035835,0.0005501160048879683,-0.0019962668884545565,0.0,0.0,0.0005197991849854589,0.005666338838636875,GPS_RAW_INT,0,1,0,0,-17000,9999,9999,0,0,0,0,4294967295,4294967295,1000000,0,0,RC_CHANNELS,6419536,16,1501,1499,1005,1501,1000,1000,1500,1500,0,0,0,0,0,0,0,0,0,0,0,MISSION_CURRENT,0,SYS_STATUS,52485167,52461615,53510447,36,0,-1,-1,0,0,0,0,0,0,GLOBAL_POSITION_INT,6419536,0,0,-2550,-2554,1,0,-1,5636,RAW_IMU,2124569451,19,11,-991,-6,0,2,296,-443,233,0,4308,BATTERY_STATUS,0,0,0,32767,[65535, 65535, 65535, 65535, 65535, 65535, 65535, 65535, 65535, 65535],-1,-1,-1,100,0,0,[0, 0, 0, 0],0,0,HEARTBEAT,10,3,193,0,4,3
1.5624520778656006,VFR_HUD,0.0,0.016133839264512062,56,0,-2.549999952316284,0.016235223039984703,,,,,,,,,,,,,,,,AHRS,0.0068632857874035835,0.0005501160048879683,-0.0019962668884545565,0.0,0.0,0.0005197991849854589,0.005666338838636875,GPS_RAW_INT,0,1,0,0,-17000,9999,9999,0,0,0,0,4294967295,4294967295,1000000,0,0,RC_CHANNELS,6419536,16,1501,1499,1005,1501,1000,1000,1500,1500,0,0,0,0,0,0,0,0,0,0,0,MISSION_CURRENT,0,SYS_STATUS,52485167,52461615,53510447,36,0,-1,-1,0,0,0,0,0,0,GLOBAL_POSITION_INT,6419536,0,0,-2550,-2554,1,0,-1,5636,RAW_IMU,2124569451,19,11,-991,-6,0,2,296,-443,233,0,4308,BATTERY_STATUS,0,0,0,32767,[65535, 65535, 65535, 65535, 65535, 65535, 65535, 65535, 65535, 65535],-1,-1,-1,100,0,0,[0, 0, 0, 0],0,0,HEARTBEAT,6,8,0,0,0,3
1.6126272678375244,VFR_HUD,0.0,0.016133839264512062,56,0,-2.549999952316284,0.016235223039984703,,,,,,,,,,,,,,,,AHRS,0.0068632857874035835,0.0005501160048879683,-0.0019962668884545565,0.0,0.0,0.0005197991849854589,0.005666338838636875,GPS_RAW_INT,0,1,0,0,-17000,9999,9999,0,0,0,0,4294967295,4294967295,1000000,0,0,RC_CHANNELS,6419536,16,1501,1499,1005,1501,1000,1000,1500,1500,0,0,0,0,0,0,0,0,0,0,0,MISSION_CURRENT,0,SYS_STATUS,52485167,52461615,53510447,36,0,-1,-1,0,0,0,0,0,0,GLOBAL_POSITION_INT,6419536,0,0,-2550,-2554,1,0,-1,5636,RAW_IMU,2124569451,19,11,-991,-6,0,2,296,-443,233,0,4308,BATTERY_STATUS,0,0,0,32767,[65535, 65535, 65535, 65535, 65535, 65535, 65535, 65535, 65535, 65535],-1,-1,-1,100,0,0,[0, 0, 0, 0],0,0,HEARTBEAT,6,8,0,0,0,3
1.6628010272979736,VFR_HUD,0.0,0.016133839264512062,56,0,-2.549999952316284,0.016235223039984703,,,,,,,,,,,,,,,,AHRS,0.0068632857874035835,0.0005501160048879683,-0.0019962668884545565,0.0,0.0,0.0005197991849854589,0.005666338838636875,GPS_RAW_INT,0,1,0,0,-17000,9999,9999,0,0,0,0,4294967295,4294967295,1000000,0,0,RC_CHANNELS,6419536,16,1501,1499,1005,1501,1000,1000,1500,1500,0,0,0,0,0,0,0,0,0,0,0,MISSION_CURRENT,0,SYS_STATUS,52485167,52461615,53510447,36,0,-1,-1,0,0,0,0,0,0,GLOBAL_POSITION_INT,6419536,0,0,-2550,-2554,1,0,-1,5636,RAW_IMU,2124569451,19,11,-991,-6,0,2,296,-443,233,0,4308,BATTERY_STATUS,0,0,0,32767,[65535, 65535, 65535, 65535, 65535, 65535, 65535, 65535, 65535, 65535],-1,-1,-1,100,0,0,[0, 0, 0, 0],0,0,HEARTBEAT,6,8,0,0,0,3
1.713052749633789,VFR_HUD,0.0,0.016133839264512062,56,0,-2.549999952316284,0.016235223039984703,,,,,,,,,,,,,,,,AHRS,0.0068632857874035835,0.0005501160048879683,-0.0019962668884545565,0.0,0.0,0.0005197991849854589,0.005666338838636875,GPS_RAW_INT,0,1,0,0,-17000,9999,9999,0,0,0,0,4294967295,4294967295,1000000,0,0,RC_CHANNELS,6419536,16,1501,1499,1005,1501,1000,1000,1500,1500,0,0,0,0,0,0,0,0,0,0,0,MISSION_CURRENT,0,SYS_STATUS,52485167,52461615,53510447,36,0,-1,-1,0,0,0,0,0,0,GLOBAL_POSITION_INT,6419536,0,0,-2550,-2554,1,0,-1,5636,RAW_IMU,2124569451,19,11,-991,-6,0,2,296,-443,233,0,4308,BATTERY_STATUS,0,0,0,32767,[65535, 65535, 65535, 65535, 65535, 65535, 65535, 65535, 65535, 65535],-1,-1,-1,100,0,0,[0, 0, 0, 0],0,0,HEARTBEAT,6,8,0,0,0,3
1.7632265090942383,VFR_HUD,0.0,0.016133839264512062,56,0,-2.549999952316284,0.016235223039984703,,,,,,,,,,,,,,,,AHRS,0.0068632857874035835,0.0005501160048879683,-0.0019962668884545565,0.0,0.0,0.0005197991849854589,0.005666338838636875,GPS_RAW_INT,0,1,0,0,-17000,9999,9999,0,0,0,0,4294967295,4294967295,1000000,0,0,RC_CHANNELS,6419536,16,1501,1499,1005,1501,1000,1000,1500,1500,0,0,0,0,0,0,0,0,0,0,0,MISSION_CURRENT,0,SYS_STATUS,52485167,52461615,53510447,36,0,-1,-1,0,0,0,0,0,0,GLOBAL_POSITION_INT,6419536,0,0,-2550,-2554,1,0,-1,5636,RAW_IMU,2124569451,19,11,-991,-6,0,2,296,-443,233,0,4308,BATTERY_STATUS,0,0,0,32767,[65535, 65535, 65535, 65535, 65535, 65535, 65535, 65535, 65535, 65535],-1,-1,-1,100,0,0,[0, 0, 0, 0],0,0,HEARTBEAT,6,8,0,0,0,3
1.8134417533874512,VFR_HUD,0.0,0.016133839264512062,56,0,-2.549999952316284,0.016235223039984703,,,,,,,,,,,,,,,,AHRS,0.0068632857874035835,0.0005501160048879683,-0.0019962668884545565,0.0,0.0,0.0005197991849854589,0.005666338838636875,GPS_RAW_INT,0,1,0,0,-17000,9999,9999,0,0,0,0,4294967295,4294967295,1000000,0,0,RC_CHANNELS,6419536,16,1501,1499,1005,1501,1000,1000,1500,1500,0,0,0,0,0,0,0,0,0,0,0,MISSION_CURRENT,0,SYS_STATUS,52485167,52461615,53510447,36,0,-1,-1,0,0,0,0,0,0,GLOBAL_POSITION_INT,6419536,0,0,-2550,-2554,1,0,-1,5636,RAW_IMU,2124569451,19,11,-991,-6,0,2,296,-443,233,0,4308,BATTERY_STATUS,0,0,0,32767,[65535, 65535, 65535, 65535, 65535, 65535, 65535, 65535, 65535, 65535],-1,-1,-1,100,0,0,[0, 0, 0, 0],0,0,HEARTBEAT,6,8,0,0,0,3
1.8635964393615723,VFR_HUD,0.0,0.016133839264512062,56,0,-2.549999952316284,0.016235223039984703,,,,,,,,,,,,,,,,AHRS,0.0068632857874035835,0.0005501160048879683,-0.0019962668884545565,0.0,0.0,0.0005197991849854589,0.005666338838636875,GPS_RAW_INT,0,1,0,0,-17000,9999,9999,0,0,0,0,4294967295,4294967295,1000000,0,0,RC_CHANNELS,6419536,16,1501,1499,1005,1501,1000,1000,1500,1500,0,0,0,0,0,0,0,0,0,0,0,MISSION_CURRENT,0,SYS_STATUS,52485167,52461615,53510447,36,0,-1,-1,0,0,0,0,0,0,GLOBAL_POSITION_INT,6419536,0,0,-2550,-2554,1,0,-1,5636,RAW_IMU,2124569451,19,11,-991,-6,0,2,296,-443,233,0,4308,BATTERY_STATUS,0,0,0,32767,[65535, 65535, 65535, 65535, 65535, 65535, 65535, 65535, 65535, 65535],-1,-1,-1,100,0,0,[0, 0, 0, 0],0,0,HEARTBEAT,6,8,0,0,0,3
1.9646973609924316,VFR_HUD,0.0,0.016133839264512062,56,0,-2.549999952316284,0.016235223039984703,,,,,,,,,,,,,,,,AHRS,0.0068632857874035835,0.0005501160048879683,-0.0019962668884545565,0.0,0.0,0.0005197991849854589,0.005666338838636875,GPS_RAW_INT,0,1,0,0,-17000,9999,9999,0,0,0,0,4294967295,4294967295,1000000,0,0,RC_CHANNELS,6419536,16,1501,1499,1005,1501,1000,1000,1500,1500,0,0,0,0,0,0,0,0,0,0,0,MISSION_CURRENT,0,SYS_STATUS,52485167,52461615,53510447,33,0,-1,-1,0,0,0,0,0,0,GLOBAL_POSITION_INT,6420036,0,0,-2310,-2318,1,0,-1,5635,RAW_IMU,2124569451,19,11,-991,-6,0,2,296,-443,233,0,4308,BATTERY_STATUS,0,0,0,32767,[65535, 65535, 65535, 65535, 65535, 65535, 65535, 65535, 65535, 65535],-1,-1,-1,100,0,0,[0, 0, 0, 0],0,0,HEARTBEAT,6,8,0,0,0,3
2.0148468017578125,VFR_HUD,0.0,0.0197728481143713,56,0,-2.309999942779541,0.01239708811044693,,,,,,,,,,,,,,,,AHRS,0.0068632857874035835,0.0005501160048879683,-0.0019962668884545565,0.0,0.0,0.0005197991849854589,0.005666338838636875,GPS_RAW_INT,0,1,0,0,-17000,9999,9999,0,0,0,0,4294967295,4294967295,1000000,0,0,RC_CHANNELS,6420036,16,1501,1499,1004,1502,1000,1000,1500,1500,0,0,0,0,0,0,0,0,0,0,0,MISSION_CURRENT,0,SYS_STATUS,52485167,52461615,53510447,33,0,-1,-1,0,0,0,0,0,0,GLOBAL_POSITION_INT,6420036,0,0,-2310,-2318,1,0,-1,5635,RAW_IMU,2125069405,20,10,-991,-7,0,1,294,-441,231,0,4308,BATTERY_STATUS,0,0,0,32767,[65535, 65535, 65535, 65535, 65535, 65535, 65535, 65535, 65535, 65535],-1,-1,-1,100,0,0,[0, 0, 0, 0],0,0,HEARTBEAT,6,8,0,0,0,3
2.0650267601013184,VFR_HUD,0.0,0.0197728481143713,56,0,-2.309999942779541,0.01239708811044693,,,,,,,,,,,,,,,,AHRS,0.006864463444799185,0.0005502239800989628,-0.0019969798158854246,0.0,0.0,0.0004906663089059293,0.004368630237877369,GPS_RAW_INT,0,1,0,0,-17000,9999,9999,0,0,0,0,4294967295,4294967295,1000000,0,0,RC_CHANNELS,6420036,16,1501,1499,1004,1502,1000,1000,1500,1500,0,0,0,0,0,0,0,0,0,0,0,MISSION_CURRENT,0,SYS_STATUS,52485167,52461615,53510447,33,0,-1,-1,0,0,0,0,0,0,GLOBAL_POSITION_INT,6420036,0,0,-2310,-2318,1,0,-1,5635,RAW_IMU,2125069405,20,10,-991,-7,0,1,294,-441,231,0,4308,BATTERY_STATUS,0,0,0,32767,[65535, 65535, 65535, 65535, 65535, 65535, 65535, 65535, 65535, 65535],-1,-1,-1,100,0,0,[0, 0, 0, 0],0,0,HEARTBEAT,6,8,0,0,0,3
2.1152191162109375,VFR_HUD,0.0,0.0197728481143713,56,0,-2.309999942779541,0.01239708811044693,,,,,,,,,,,,,,,,AHRS,0.006864463444799185,0.0005502239800989628,-0.0019969798158854246,0.0,0.0,0.0004906663089059293,0.004368630237877369,GPS_RAW_INT,0,1,0,0,-17000,9999,9999,0,0,0,0,4294967295,4294967295,1000000,0,0,RC_CHANNELS,6420036,16,1501,1499,1004,1502,1000,1000,1500,1500,0,0,0,0,0,0,0,0,0,0,0,MISSION_CURRENT,0,SYS_STATUS,52485167,52461615,53510447,33,0,-1,-1,0,0,0,0,0,0,GLOBAL_POSITION_INT,6420036,0,0,-2310,-2318,1,0,-1,5635,RAW_IMU,2125069405,20,10,-991,-7,0,1,294,-441,231,0,4308,BATTERY_STATUS,0,0,0,32767,[65535, 65535, 65535, 65535, 65535, 65535, 65535, 65535, 65535, 65535],-1,-1,-1,100,0,0,[0, 0, 0, 0],0,0,HEARTBEAT,6,8,0,0,0,3
2.1654014587402344,VFR_HUD,0.0,0.0197728481143713,56,0,-2.309999942779541,0.01239708811044693,,,,,,,,,,,,,,,,AHRS,0.006864463444799185,0.0005502239800989628,-0.0019969798158854246,0.0,0.0,0.0004906663089059293,0.004368630237877369,GPS_RAW_INT,0,1,0,0,-17000,9999,9999,0,0,0,0,4294967295,4294967295,1000000,0,0,RC_CHANNELS,6420036,16,1501,1499,1004,1502,1000,1000,1500,1500,0,0,0,0,0,0,0,0,0,0,0,MISSION_CURRENT,0,SYS_STATUS,52485167,52461615,53510447,33,0,-1,-1,0,0,0,0,0,0,GLOBAL_POSITION_INT,6420036,0,0,-2310,-2318,1,0,-1,5635,RAW_IMU,2125069405,20,10,-991,-7,0,1,294,-441,231,0,4308,BATTERY_STATUS,0,0,0,32767,[65535, 65535, 65535, 65535, 65535, 65535, 65535, 65535, 65535, 65535],-1,-1,-1,100,0,0,[0, 0, 0, 0],0,0,HEARTBEAT,6,8,0,0,0,3
2.215625524520874,VFR_HUD,0.0,0.0197728481143713,56,0,-2.309999942779541,0.01239708811044693,,,,,,,,,,,,,,,,AHRS,0.006864463444799185,0.0005502239800989628,-0.0019969798158854246,0.0,0.0,0.0004906663089059293,0.004368630237877369,GPS_RAW_INT,0,1,0,0,-17000,9999,9999,0,0,0,0,4294967295,4294967295,1000000,0,0,RC_CHANNELS,6420036,16,1501,1499,1004,1502,1000,1000,1500,1500,0,0,0,0,0,0,0,0,0,0,0,MISSION_CURRENT,0,SYS_STATUS,52485167,52461615,53510447,33,0,-1,-1,0,0,0,0,0,0,GLOBAL_POSITION_INT,6420036,0,0,-2310,-2318,1,0,-1,5635,RAW_IMU,2125069405,20,10,-991,-7,0,1,294,-441,231,0,4308,BATTERY_STATUS,0,0,0,32767,[65535, 65535, 65535, 65535, 65535, 65535, 65535, 65535, 65535, 65535],-1,-1,-1,100,0,0,[0, 0, 0, 0],0,0,HEARTBEAT,6,8,0,0,0,3
2.265805244445801,VFR_HUD,0.0,0.0197728481143713,56,0,-2.309999942779541,0.01239708811044693,,,,,,,,,,,,,,,,AHRS,0.006864463444799185,0.0005502239800989628,-0.0019969798158854246,0.0,0.0,0.0004906663089059293,0.004368630237877369,GPS_RAW_INT,0,1,0,0,-17000,9999,9999,0,0,0,0,4294967295,4294967295,1000000,0,0,RC_CHANNELS,6420036,16,1501,1499,1004,1502,1000,1000,1500,1500,0,0,0,0,0,0,0,0,0,0,0,MISSION_CURRENT,0,SYS_STATUS,52485167,52461615,53510447,33,0,-1,-1,0,0,0,0,0,0,GLOBAL_POSITION_INT,6420036,0,0,-2310,-2318,1,0,-1,5635,RAW_IMU,2125069405,20,10,-991,-7,0,1,294,-441,231,0,4308,BATTERY_STATUS,0,0,0,32767,[65535, 65535, 65535, 65535, 65535, 65535, 65535, 65535, 65535, 65535],-1,-1,-1,100,0,0,[0, 0, 0, 0],0,0,HEARTBEAT,6,8,0,0,0,3
2.315981149673462,VFR_HUD,0.0,0.0197728481143713,56,0,-2.309999942779541,0.01239708811044693,,,,,,,,,,,,,,,,AHRS,0.006864463444799185,0.0005502239800989628,-0.0019969798158854246,0.0,0.0,0.0004906663089059293,0.004368630237877369,GPS_RAW_INT,0,1,0,0,-17000,9999,9999,0,0,0,0,4294967295,4294967295,1000000,0,0,RC_CHANNELS,6420036,16,1501,1499,1004,1502,1000,1000,1500,1500,0,0,0,0,0,0,0,0,0,0,0,MISSION_CURRENT,0,SYS_STATUS,52485167,52461615,53510447,33,0,-1,-1,0,0,0,0,0,0,GLOBAL_POSITION_INT,6420036,0,0,-2310,-2318,1,0,-1,5635,RAW_IMU,2125069405,20,10,-991,-7,0,1,294,-441,231,0,4308,BATTERY_STATUS,0,0,0,32767,[65535, 65535, 65535, 65535, 65535, 65535, 65535, 65535, 65535, 65535],-1,-1,-1,100,0,0,[0, 0, 0, 0],0,0,HEARTBEAT,6,8,0,0,0,3
2.3661608695983887,VFR_HUD,0.0,0.0197728481143713,56,0,-2.309999942779541,0.01239708811044693,,,,,,,,,,,,,,,,AHRS,0.006864463444799185,0.0005502239800989628,-0.0019969798158854246,0.0,0.0,0.0004906663089059293,0.004368630237877369,GPS_RAW_INT,0,1,0,0,-17000,9999,9999,0,0,0,0,4294967295,4294967295,1000000,0,0,RC_CHANNELS,6420036,16,1501,1499,1004,1502,1000,1000,1500,1500,0,0,0,0,0,0,0,0,0,0,0,MISSION_CURRENT,0,SYS_STATUS,52485167,52461615,53510447,33,0,-1,-1,0,0,0,0,0,0,GLOBAL_POSITION_INT,6420036,0,0,-2310,-2318,1,0,-1,5635,RAW_IMU,2125069405,20,10,-991,-7,0,1,294,-441,231,0,4308,BATTERY_STATUS,0,0,0,32767,[65535, 65535, 65535, 65535, 65535, 65535, 65535, 65535, 65535, 65535],-1,-1,-1,100,0,0,[0, 0, 0, 0],0,0,HEARTBEAT,6,8,0,0,0,3
2.4163260459899902,VFR_HUD,0.0,0.0197728481143713,56,0,-2.309999942779541,0.01239708811044693,,,,,,,,,,,,,,,,AHRS,0.006864463444799185,0.0005502239800989628,-0.0019969798158854246,0.0,0.0,0.0004906663089059293,0.004368630237877369,GPS_RAW_INT,0,1,0,0,-17000,9999,9999,0,0,0,0,4294967295,4294967295,1000000,0,0,RC_CHANNELS,6420036,16,1501,1499,1004,1502,1000,1000,1500,1500,0,0,0,0,0,0,0,0,0,0,0,MISSION_CURRENT,0,SYS_STATUS,52485167,52461615,53510447,33,0,-1,-1,0,0,0,0,0,0,GLOBAL_POSITION_INT,6420036,0,0,-2310,-2318,1,0,-1,5635,RAW_IMU,2125069405,20,10,-991,-7,0,1,294,-441,231,0,4308,BATTERY_STATUS,0,0,0,32767,[65535, 65535, 65535, 65535, 65535, 65535, 65535, 65535, 65535, 65535],-1,-1,-1,100,0,0,[0, 0, 0, 0],0,0,HEARTBEAT,6,8,0,0,0,3
2.4664762020111084,VFR_HUD,0.0,0.0197728481143713,56,0,-2.309999942779541,0.01239708811044693,,,,,,,,,,,,,,,,AHRS,0.006864463444799185,0.0005502239800989628,-0.0019969798158854246,0.0,0.0,0.0004906663089059293,0.004368630237877369,GPS_RAW_INT,0,1,0,0,-17000,9999,9999,0,0,0,0,4294967295,4294967295,1000000,0,0,RC_CHANNELS,6420036,16,1501,1499,1004,1502,1000,1000,1500,1500,0,0,0,0,0,0,0,0,0,0,0,MISSION_CURRENT,0,SYS_STATUS,52485167,52461615,53510447,33,0,-1,-1,0,0,0,0,0,0,GLOBAL_POSITION_INT,6420036,0,0,-2310,-2318,1,0,-1,5635,RAW_IMU,2125069405,20,10,-991,-7,0,1,294,-441,231,0,4308,BATTERY_STATUS,0,0,0,32767,[65535, 65535, 65535, 65535, 65535, 65535, 65535, 65535, 65535, 65535],-1,-1,-1,100,0,0,[0, 0, 0, 0],0,0,HEARTBEAT,6,8,0,0,0,3
2.5166921615600586,VFR_HUD,0.0,0.0197728481143713,56,0,-2.309999942779541,0.01239708811044693,,,,,,,,,,,,,,,,AHRS,0.006864463444799185,0.0005502239800989628,-0.0019969798158854246,0.0,0.0,0.0004906663089059293,0.004368630237877369,GPS_RAW_INT,0,1,0,0,-17000,9999,9999,0,0,0,0,4294967295,4294967295,1000000,0,0,RC_CHANNELS,6420036,16,1501,1499,1004,1502,1000,1000,1500,1500,0,0,0,0,0,0,0,0,0,0,0,MISSION_CURRENT,0,SYS_STATUS,52485167,52461615,53510447,33,0,-1,-1,0,0,0,0,0,0,GLOBAL_POSITION_INT,6420036,0,0,-2310,-2318,1,0,-1,5635,RAW_IMU,2125069405,20,10,-991,-7,0,1,294,-441,231,0,4308,BATTERY_STATUS,0,0,0,32767,[65535, 65535, 65535, 65535, 65535, 65535, 65535, 65535, 65535, 65535],-1,-1,-1,100,0,0,[0, 0, 0, 0],0,0,HEARTBEAT,6,8,0,0,0,3
2.5669217109680176,VFR_HUD,0.0,0.0197728481143713,56,0,-2.309999942779541,0.01239708811044693,,,,,,,,,,,,,,,,AHRS,0.006864463444799185,0.0005502239800989628,-0.0019969798158854246,0.0,0.0,0.0004906663089059293,0.004368630237877369,GPS_RAW_INT,0,1,0,0,-17000,9999,9999,0,0,0,0,4294967295,4294967295,1000000,0,0,RC_CHANNELS,6420036,16,1501,1499,1004,1502,1000,1000,1500,1500,0,0,0,0,0,0,0,0,0,0,0,MISSION_CURRENT,0,SYS_STATUS,52485167,52461615,53510447,33,0,-1,-1,0,0,0,0,0,0,GLOBAL_POSITION_INT,6420036,0,0,-2310,-2318,1,0,-1,5635,RAW_IMU,2125069405,20,10,-991,-7,0,1,294,-441,231,0,4308,BATTERY_STATUS,0,0,0,32767,[65535, 65535, 65535, 65535, 65535, 65535, 65535, 65535, 65535, 65535],-1,-1,-1,100,0,0,[0, 0, 0, 0],0,0,HEARTBEAT,10,3,193,0,4,3
2.617180347442627,VFR_HUD,0.0,0.022961348295211792,56,0,-2.6499998569488525,0.011184214614331722,,,,,,,,,,,,,,,,AHRS,0.006864463444799185,0.0005502239800989628,-0.0019969798158854246,0.0,0.0,0.0004906663089059293,0.004368630237877369,GPS_RAW_INT,0,1,0,0,-17000,9999,9999,0,0,0,0,4294967295,4294967295,1000000,0,0,RC_CHANNELS,6420036,16,1501,1499,1004,1502,1000,1000,1500,1500,0,0,0,0,0,0,0,0,0,0,0,MISSION_CURRENT,0,SYS_STATUS,52485167,52461615,53510447,35,0,-1,-1,0,0,0,0,0,0,GLOBAL_POSITION_INT,6420536,0,0,-2650,-2651,2,0,-1,5635,RAW_IMU,2125069405,20,10,-991,-7,0,1,294,-441,231,0,4308,BATTERY_STATUS,0,0,0,32767,[65535, 65535, 65535, 65535, 65535, 65535, 65535, 65535, 65535, 65535],-1,-1,-1,100,0,0,[0, 0, 0, 0],0,0,HEARTBEAT,10,3,193,0,4,3
2.667391300201416,VFR_HUD,0.0,0.022961348295211792,56,0,-2.6499998569488525,0.011184214614331722,,,,,,,,,,,,,,,,AHRS,0.006860947236418724,0.0005499634426087141,-0.0019962771330028772,0.0,0.0,0.00039497457328252494,0.004542754963040352,GPS_RAW_INT,0,1,0,0,-17000,9999,9999,0,0,0,0,4294967295,4294967295,1000000,0,0,RC_CHANNELS,6420536,16,1501,1499,1004,1501,1000,1001,1500,1500,0,0,0,0,0,0,0,0,0,0,0,MISSION_CURRENT,0,SYS_STATUS,52485167,52461615,53510447,35,0,-1,-1,0,0,0,0,0,0,GLOBAL_POSITION_INT,6420536,0,0,-2650,-2651,2,0,-1,5635,RAW_IMU,2125569364,20,11,-991,-6,0,2,297,-447,232,0,4308,BATTERY_STATUS,0,0,0,32767,[65535, 65535, 65535, 65535, 65535, 65535, 65535, 65535, 65535, 65535],-1,-1,-1,100,0,0,[0, 0, 0, 0],0,0,HEARTBEAT,10,3,193,0,4,3
2.7176015377044678,VFR_HUD,0.0,0.022961348295211792,56,0,-2.6499998569488525,0.011184214614331722,,,,,,,,,,,,,,,,AHRS,0.006860947236418724,0.0005499634426087141,-0.0019962771330028772,0.0,0.0,0.00039497457328252494,0.004542754963040352,GPS_RAW_INT,0,1,0,0,-17000,9999,9999,0,0,0,0,4294967295,4294967295,1000000,0,0,RC_CHANNELS,6420536,16,1501,1499,1004,1501,1000,1001,1500,1500,0,0,0,0,0,0,0,0,0,0,0,MISSION_CURRENT,0,SYS_STATUS,52485167,52461615,53510447,35,0,-1,-1,0,0,0,0,0,0,GLOBAL_POSITION_INT,6420536,0,0,-2650,-2651,2,0,-1,5635,RAW_IMU,2125569364,20,11,-991,-6,0,2,297,-447,232,0,4308,BATTERY_STATUS,0,0,0,32767,[65535, 65535, 65535, 65535, 65535, 65535, 65535, 65535, 65535, 65535],-1,-1,-1,100,0,0,[0, 0, 0, 0],0,0,HEARTBEAT,10,3,193,0,4,3
2.767815351486206,VFR_HUD,0.0,0.022961348295211792,56,0,-2.6499998569488525,0.011184214614331722,,,,,,,,,,,,,,,,AHRS,0.006860947236418724,0.0005499634426087141,-0.0019962771330028772,0.0,0.0,0.00039497457328252494,0.004542754963040352,GPS_RAW_INT,0,1,0,0,-17000,9999,9999,0,0,0,0,4294967295,4294967295,1000000,0,0,RC_CHANNELS,6420536,16,1501,1499,1004,1501,1000,1001,1500,1500,0,0,0,0,0,0,0,0,0,0,0,MISSION_CURRENT,0,SYS_STATUS,52485167,52461615,53510447,35,0,-1,-1,0,0,0,0,0,0,GLOBAL_POSITION_INT,6420536,0,0,-2650,-2651,2,0,-1,5635,RAW_IMU,2125569364,20,11,-991,-6,0,2,297,-447,232,0,4308,BATTERY_STATUS,0,0,0,32767,[65535, 65535, 65535, 65535, 65535, 65535, 65535, 65535, 65535, 65535],-1,-1,-1,100,0,0,[0, 0, 0, 0],0,0,HEARTBEAT,10,3,193,0,4,3
2.818061590194702,VFR_HUD,0.0,0.022961348295211792,56,0,-2.6499998569488525,0.011184214614331722,,,,,,,,,,,,,,,,AHRS,0.006860947236418724,0.0005499634426087141,-0.0019962771330028772,0.0,0.0,0.00039497457328252494,0.004542754963040352,GPS_RAW_INT,0,1,0,0,-17000,9999,9999,0,0,0,0,4294967295,4294967295,1000000,0,0,RC_CHANNELS,6420536,16,1501,1499,1004,1501,1000,1001,1500,1500,0,0,0,0,0,0,0,0,0,0,0,MISSION_CURRENT,0,SYS_STATUS,52485167,52461615,53510447,35,0,-1,-1,0,0,0,0,0,0,GLOBAL_POSITION_INT,6420536,0,0,-2650,-2651,2,0,-1,5635,RAW_IMU,2125569364,20,11,-991,-6,0,2,297,-447,232,0,4308,BATTERY_STATUS,0,0,0,32767,[65535, 65535, 65535, 65535, 65535, 65535, 65535, 65535, 65535, 65535],-1,-1,-1,100,0,0,[0, 0, 0, 0],0,0,HEARTBEAT,10,3,193,0,4,3
2.8682894706726074,VFR_HUD,0.0,0.022961348295211792,56,0,-2.6499998569488525,0.011184214614331722,,,,,,,,,,,,,,,,AHRS,0.006860947236418724,0.0005499634426087141,-0.0019962771330028772,0.0,0.0,0.00039497457328252494,0.004542754963040352,GPS_RAW_INT,0,1,0,0,-17000,9999,9999,0,0,0,0,4294967295,4294967295,1000000,0,0,RC_CHANNELS,6420536,16,1501,1499,1004,1501,1000,1001,1500,1500,0,0,0,0,0,0,0,0,0,0,0,MISSION_CURRENT,0,SYS_STATUS,52485167,52461615,53510447,35,0,-1,-1,0,0,0,0,0,0,GLOBAL_POSITION_INT,6420536,0,0,-2650,-2651,2,0,-1,5635,RAW_IMU,2125569364,20,11,-991,-6,0,2,297,-447,232,0,4308,BATTERY_STATUS,0,0,0,32767,[65535, 65535, 65535, 65535, 65535, 65535, 65535, 65535, 65535, 65535],-1,-1,-1,100,0,0,[0, 0, 0, 0],0,0,HEARTBEAT,6,8,0,0,0,3
2.918513774871826,VFR_HUD,0.0,0.022961348295211792,56,0,-2.6499998569488525,0.011184214614331722,,,,,,,,,,,,,,,,AHRS,0.006860947236418724,0.0005499634426087141,-0.0019962771330028772,0.0,0.0,0.00039497457328252494,0.004542754963040352,GPS_RAW_INT,0,1,0,0,-17000,9999,9999,0,0,0,0,4294967295,4294967295,1000000,0,0,RC_CHANNELS,6420536,16,1501,1499,1004,1501,1000,1001,1500,1500,0,0,0,0,0,0,0,0,0,0,0,MISSION_CURRENT,0,SYS_STATUS,52485167,52461615,53510447,35,0,-1,-1,0,0,0,0,0,0,GLOBAL_POSITION_INT,6420536,0,0,-2650,-2651,2,0,-1,5635,RAW_IMU,2125569364,20,11,-991,-6,0,2,297,-447,232,0,4308,BATTERY_STATUS,0,0,0,32767,[65535, 65535, 65535, 65535, 65535, 65535, 65535, 65535, 65535, 65535],-1,-1,-1,100,0,0,[0, 0, 0, 0],0,0,HEARTBEAT,6,8,0,0,0,3
2.9688560962677,VFR_HUD,0.0,0.022961348295211792,56,0,-2.6499998569488525,0.011184214614331722,,,,,,,,,,,,,,,,AHRS,0.006860947236418724,0.0005499634426087141,-0.0019962771330028772,0.0,0.0,0.00039497457328252494,0.004542754963040352,GPS_RAW_INT,0,1,0,0,-17000,9999,9999,0,0,0,0,4294967295,4294967295,1000000,0,0,RC_CHANNELS,6420536,16,1501,1499,1004,1501,1000,1001,1500,1500,0,0,0,0,0,0,0,0,0,0,0,MISSION_CURRENT,0,SYS_STATUS,52485167,52461615,53510447,35,0,-1,-1,0,0,0,0,0,0,GLOBAL_POSITION_INT,6420536,0,0,-2650,-2651,2,0,-1,5635,RAW_IMU,2125569364,20,11,-991,-6,0,2,297,-447,232,0,4308,BATTERY_STATUS,0,0,0,32767,[65535, 65535, 65535, 65535, 65535, 65535, 65535, 65535, 65535, 65535],-1,-1,-1,100,0,0,[0, 0, 0, 0],0,0,HEARTBEAT,6,8,0,0,0,3
3.019089937210083,VFR_HUD,0.0,0.022961348295211792,56,0,-2.6499998569488525,0.011184214614331722,,,,,,,,,,,,,,,,AHRS,0.006860947236418724,0.0005499634426087141,-0.0019962771330028772,0.0,0.0,0.00039497457328252494,0.004542754963040352,GPS_RAW_INT,0,1,0,0,-17000,9999,9999,0,0,0,0,4294967295,4294967295,1000000,0,0,RC_CHANNELS,6420536,16,1501,1499,1004,1501,1000,1001,1500,1500,0,0,0,0,0,0,0,0,0,0,0,MISSION_CURRENT,0,SYS_STATUS,52485167,52461615,53510447,35,0,-1,-1,0,0,0,0,0,0,GLOBAL_POSITION_INT,6420536,0,0,-2650,-2651,2,0,-1,5635,RAW_IMU,2125569364,20,11,-991,-6,0,2,297,-447,232,0,4308,BATTERY_STATUS,0,0,0,32767,[65535, 65535, 65535, 65535, 65535, 65535, 65535, 65535, 65535, 65535],-1,-1,-1,100,0,0,[0, 0, 0, 0],0,0,HEARTBEAT,6,8,0,0,0,3
3.06929612159729,VFR_HUD,0.0,0.022961348295211792,56,0,-2.6499998569488525,0.011184214614331722,,,,,,,,,,,,,,,,AHRS,0.006860947236418724,0.0005499634426087141,-0.0019962771330028772,0.0,0.0,0.00039497457328252494,0.004542754963040352,GPS_RAW_INT,0,1,0,0,-17000,9999,9999,0,0,0,0,4294967295,4294967295,1000000,0,0,RC_CHANNELS,6420536,16,1501,1499,1004,1501,1000,1001,1500,1500,0,0,0,0,0,0,0,0,0,0,0,MISSION_CURRENT,0,SYS_STATUS,52485167,52461615,53510447,35,0,-1,-1,0,0,0,0,0,0,GLOBAL_POSITION_INT,6420536,0,0,-2650,-2651,2,0,-1,5635,RAW_IMU,2125569364,20,11,-991,-6,0,2,297,-447,232,0,4308,BATTERY_STATUS,0,0,0,32767,[65535, 65535, 65535, 65535, 65535, 65535, 65535, 65535, 65535, 65535],-1,-1,-1,100,0,0,[0, 0, 0, 0],0,0,HEARTBEAT,6,8,0,0,0,3
3.119503974914551,VFR_HUD,0.0,0.022961348295211792,56,0,-2.6499998569488525,0.011184214614331722,,,,,,,,,,,,,,,,AHRS,0.006860947236418724,0.0005499634426087141,-0.0019962771330028772,0.0,0.0,0.00039497457328252494,0.004542754963040352,GPS_RAW_INT,0,1,0,0,-17000,9999,9999,0,0,0,0,4294967295,4294967295,1000000,0,0,RC_CHANNELS,6420536,16,1501,1499,1004,1501,1000,1001,1500,1500,0,0,0,0,0,0,0,0,0,0,0,MISSION_CURRENT,0,SYS_STATUS,52485167,52461615,53510447,35,0,-1,-1,0,0,0,0,0,0,GLOBAL_POSITION_INT,6420536,0,0,-2650,-2651,2,0,-1,5635,RAW_IMU,2125569364,20,11,-991,-6,0,2,297,-447,232,0,4308,BATTERY_STATUS,0,0,0,32767,[65535, 65535, 65535, 65535, 65535, 65535, 65535, 65535, 65535, 65535],-1,-1,-1,100,0,0,[0, 0, 0, 0],0,0,HEARTBEAT,6,8,0,0,0,3
3.1696953773498535,VFR_HUD,0.0,0.022961348295211792,56,0,-2.6499998569488525,0.011184214614331722,,,,,,,,,,,,,,,,AHRS,0.006860947236418724,0.0005499634426087141,-0.0019962771330028772,0.0,0.0,0.00039497457328252494,0.004542754963040352,GPS_RAW_INT,0,1,0,0,-17000,9999,9999,0,0,0,0,4294967295,4294967295,1000000,0,0,RC_CHANNELS,6420536,16,1501,1499,1004,1501,1000,1001,1500,1500,0,0,0,0,0,0,0,0,0,0,0,MISSION_CURRENT,0,SYS_STATUS,52485167,52461615,53510447,35,0,-1,-1,0,0,0,0,0,0,GLOBAL_POSITION_INT,6420536,0,0,-2650,-2651,2,0,-1,5635,RAW_IMU,2125569364,20,11,-991,-6,0,2,297,-447,232,0,4308,BATTERY_STATUS,0,0,0,32767,[65535, 65535, 65535, 65535, 65535, 65535, 65535, 65535, 65535, 65535],-1,-1,-1,100,0,0,[0, 0, 0, 0],0,0,HEARTBEAT,6,8,0,0,0,3
3.219879388809204,VFR_HUD,0.0,0.022961348295211792,56,0,-2.6499998569488525,0.011184214614331722,,,,,,,,,,,,,,,,AHRS,0.006860947236418724,0.0005499634426087141,-0.0019962771330028772,0.0,0.0,0.00039497457328252494,0.004542754963040352,GPS_RAW_INT,0,1,0,0,-17000,9999,9999,0,0,0,0,4294967295,4294967295,1000000,0,0,RC_CHANNELS,6420536,16,1501,1499,1004,1501,1000,1001,1500,1500,0,0,0,0,0,0,0,0,0,0,0,MISSION_CURRENT,0,SYS_STATUS,52485167,52461615,53510447,35,0,-1,-1,0,0,0,0,0,0,GLOBAL_POSITION_INT,6421036,0,0,-2310,-2313,2,0,-1,5634,RAW_IMU,2125569364,20,11,-991,-6,0,2,297,-447,232,0,4308,BATTERY_STATUS,0,0,0,32767,[65535, 65535, 65535, 65535, 65535, 65535, 65535, 65535, 65535, 65535],-1,-1,-1,100,0,0,[0, 0, 0, 0],0,0,HEARTBEAT,6,8,0,0,0,3
3.270068407058716,VFR_HUD,0.0,0.02644568495452404,56,0,-2.309999942779541,0.011764244176447392,,,,,,,,,,,,,,,,AHRS,0.006860947236418724,0.0005499634426087141,-0.0019962771330028772,0.0,0.0,0.00039497457328252494,0.004542754963040352,GPS_RAW_INT,0,1,0,0,-17000,9999,9999,0,0,0,0,4294967295,4294967295,1000000,0,0,RC_CHANNELS,6421036,16,1501,1500,1004,1501,1000,1000,1500,1501,0,0,0,0,0,0,0,0,0,0,0,MISSION_CURRENT,0,SYS_STATUS,52485167,52461615,53510447,34,0,-1,-1,0,0,0,0,0,0,GLOBAL_POSITION_INT,6421036,0,0,-2310,-2313,2,0,-1,5634,RAW_IMU,2125569364,20,11,-991,-6,0,2,297,-447,232,0,4308,BATTERY_STATUS,0,0,0,32767,[65535, 65535, 65535, 65535, 65535, 65535, 65535, 65535, 65535, 65535],-1,-1,-1,100,0,0,[0, 0, 0, 0],0,0,HEARTBEAT,6,8,0,0,0,3
3.320769786834717,VFR_HUD,0.0,0.02644568495452404,56,0,-2.309999942779541,0.011764244176447392,,,,,,,,,,,,,,,,AHRS,0.00686307018622756,0.0005501676350831985,-0.0019972880836576223,0.0,0.0,0.00040968979010358453,0.003031003288924694,GPS_RAW_INT,0,1,0,0,-17000,9999,9999,0,0,0,0,4294967295,4294967295,1000000,0,0,RC_CHANNELS,6421036,16,1501,1500,1004,1501,1000,1000,1500,1501,0,0,0,0,0,0,0,0,0,0,0,MISSION_CURRENT,0,SYS_STATUS,52485167,52461615,53510447,34,0,-1,-1,0,0,0,0,0,0,GLOBAL_POSITION_INT,6421036,0,0,-2310,-2313,2,0,-1,5634,RAW_IMU,2126069358,18,11,-992,-7,-1,2,291,-444,238,0,4308,BATTERY_STATUS,0,0,0,32767,[65535, 65535, 65535, 65535, 65535, 65535, 65535, 65535, 65535, 65535],-1,-1,-1,100,0,0,[0, 0, 0, 0],0,0,HEARTBEAT,6,8,0,0,0,3
3.3712539672851562,VFR_HUD,0.0,0.02644568495452404,56,0,-2.309999942779541,0.011764244176447392,,,,,,,,,,,,,,,,AHRS,0.00686307018622756,0.0005501676350831985,-0.0019972880836576223,0.0,0.0,0.00040968979010358453,0.003031003288924694,GPS_RAW_INT,0,1,0,0,-17000,9999,9999,0,0,0,0,4294967295,4294967295,1000000,0,0,RC_CHANNELS,6421036,16,1501,1500,1004,1501,1000,1000,1500,1501,0,0,0,0,0,0,0,0,0,0,0,MISSION_CURRENT,0,SYS_STATUS,52485167,52461615,53510447,34,0,-1,-1,0,0,0,0,0,0,GLOBAL_POSITION_INT,6421036,0,0,-2310,-2313,2,0,-1,5634,RAW_IMU,2126069358,18,11,-992,-7,-1,2,291,-444,238,0,4308,BATTERY_STATUS,0,0,0,32767,[65535, 65535, 65535, 65535, 65535, 65535, 65535, 65535, 65535, 65535],-1,-1,-1,100,0,0,[0, 0, 0, 0],0,0,HEARTBEAT,6,8,0,0,0,3
3.4214518070220947,VFR_HUD,0.0,0.02644568495452404,56,0,-2.309999942779541,0.011764244176447392,,,,,,,,,,,,,,,,AHRS,0.00686307018622756,0.0005501676350831985,-0.0019972880836576223,0.0,0.0,0.00040968979010358453,0.003031003288924694,GPS_RAW_INT,0,1,0,0,-17000,9999,9999,0,0,0,0,4294967295,4294967295,1000000,0,0,RC_CHANNELS,6421036,16,1501,1500,1004,1501,1000,1000,1500,1501,0,0,0,0,0,0,0,0,0,0,0,MISSION_CURRENT,0,SYS_STATUS,52485167,52461615,53510447,34,0,-1,-1,0,0,0,0,0,0,GLOBAL_POSITION_INT,6421036,0,0,-2310,-2313,2,0,-1,5634,RAW_IMU,2126069358,18,11,-992,-7,-1,2,291,-444,238,0,4308,BATTERY_STATUS,0,0,0,32767,[65535, 65535, 65535, 65535, 65535, 65535, 65535, 65535, 65535, 65535],-1,-1,-1,100,0,0,[0, 0, 0, 0],0,0,HEARTBEAT,6,8,0,0,0,3
3.4716663360595703,VFR_HUD,0.0,0.02644568495452404,56,0,-2.309999942779541,0.011764244176447392,,,,,,,,,,,,,,,,AHRS,0.00686307018622756,0.0005501676350831985,-0.0019972880836576223,0.0,0.0,0.00040968979010358453,0.003031003288924694,GPS_RAW_INT,0,1,0,0,-17000,9999,9999,0,0,0,0,4294967295,4294967295,1000000,0,0,RC_CHANNELS,6421036,16,1501,1500,1004,1501,1000,1000,1500,1501,0,0,0,0,0,0,0,0,0,0,0,MISSION_CURRENT,0,SYS_STATUS,52485167,52461615,53510447,34,0,-1,-1,0,0,0,0,0,0,GLOBAL_POSITION_INT,6421036,0,0,-2310,-2313,2,0,-1,5634,RAW_IMU,2126069358,18,11,-992,-7,-1,2,291,-444,238,0,4308,BATTERY_STATUS,0,0,0,32767,[65535, 65535, 65535, 65535, 65535, 65535, 65535, 65535, 65535, 65535],-1,-1,-1,100,0,0,[0, 0, 0, 0],0,0,HEARTBEAT,6,8,0,0,0,3
3.521958589553833,VFR_HUD,0.0,0.02644568495452404,56,0,-2.309999942779541,0.011764244176447392,,,,,,,,,,,,,,,,AHRS,0.00686307018622756,0.0005501676350831985,-0.0019972880836576223,0.0,0.0,0.00040968979010358453,0.003031003288924694,GPS_RAW_INT,0,1,0,0,-17000,9999,9999,0,0,0,0,4294967295,4294967295,1000000,0,0,RC_CHANNELS,6421036,16,1501,1500,1004,1501,1000,1000,1500,1501,0,0,0,0,0,0,0,0,0,0,0,MISSION_CURRENT,0,SYS_STATUS,52485167,52461615,53510447,34,0,-1,-1,0,0,0,0,0,0,GLOBAL_POSITION_INT,6421036,0,0,-2310,-2313,2,0,-1,5634,RAW_IMU,2126069358,18,11,-992,-7,-1,2,291,-444,238,0,4308,BATTERY_STATUS,0,0,0,32767,[65535, 65535, 65535, 65535, 65535, 65535, 65535, 65535, 65535, 65535],-1,-1,-1,100,0,0,[0, 0, 0, 0],0,0,HEARTBEAT,6,8,0,0,0,3
3.57212495803833,VFR_HUD,0.0,0.02644568495452404,56,0,-2.309999942779541,0.011764244176447392,,,,,,,,,,,,,,,,AHRS,0.00686307018622756,0.0005501676350831985,-0.0019972880836576223,0.0,0.0,0.00040968979010358453,0.003031003288924694,GPS_RAW_INT,0,1,0,0,-17000,9999,9999,0,0,0,0,4294967295,4294967295,1000000,0,0,RC_CHANNELS,6421036,16,1501,1500,1004,1501,1000,1000,1500,1501,0,0,0,0,0,0,0,0,0,0,0,MISSION_CURRENT,0,SYS_STATUS,52485167,52461615,53510447,34,0,-1,-1,0,0,0,0,0,0,GLOBAL_POSITION_INT,6421036,0,0,-2310,-2313,2,0,-1,5634,RAW_IMU,2126069358,18,11,-992,-7,-1,2,291,-444,238,0,4308,BATTERY_STATUS,0,0,0,32767,[65535, 65535, 65535, 65535, 65535, 65535, 65535, 65535, 65535, 65535],-1,-1,-1,100,0,0,[0, 0, 0, 0],0,0,HEARTBEAT,6,8,0,0,0,3
3.622335195541382,VFR_HUD,0.0,0.02644568495452404,56,0,-2.309999942779541,0.011764244176447392,,,,,,,,,,,,,,,,AHRS,0.00686307018622756,0.0005501676350831985,-0.0019972880836576223,0.0,0.0,0.00040968979010358453,0.003031003288924694,GPS_RAW_INT,0,1,0,0,-17000,9999,9999,0,0,0,0,4294967295,4294967295,1000000,0,0,RC_CHANNELS,6421036,16,1501,1500,1004,1501,1000,1000,1500,1501,0,0,0,0,0,0,0,0,0,0,0,MISSION_CURRENT,0,SYS_STATUS,52485167,52461615,53510447,34,0,-1,-1,0,0,0,0,0,0,GLOBAL_POSITION_INT,6421036,0,0,-2310,-2313,2,0,-1,5634,RAW_IMU,2126069358,18,11,-992,-7,-1,2,291,-444,238,0,4308,BATTERY_STATUS,0,0,0,32767,[65535, 65535, 65535, 65535, 65535, 65535, 65535, 65535, 65535, 65535],-1,-1,-1,100,0,0,[0, 0, 0, 0],0,0,HEARTBEAT,6,8,0,0,0,3
3.6725258827209473,VFR_HUD,0.0,0.02644568495452404,56,0,-2.309999942779541,0.011764244176447392,,,,,,,,,,,,,,,,AHRS,0.00686307018622756,0.0005501676350831985,-0.0019972880836576223,0.0,0.0,0.00040968979010358453,0.003031003288924694,GPS_RAW_INT,0,1,0,0,-17000,9999,9999,0,0,0,0,4294967295,4294967295,1000000,0,0,RC_CHANNELS,6421036,16,1501,1500,1004,1501,1000,1000,1500,1501,0,0,0,0,0,0,0,0,0,0,0,MISSION_CURRENT,0,SYS_STATUS,52485167,52461615,53510447,34,0,-1,-1,0,0,0,0,0,0,GLOBAL_POSITION_INT,6421036,0,0,-2310,-2313,2,0,-1,5634,RAW_IMU,2126069358,18,11,-992,-7,-1,2,291,-444,238,0,4308,BATTERY_STATUS,0,0,0,32767,[65535, 65535, 65535, 65535, 65535, 65535, 65535, 65535, 65535, 65535],-1,-1,-1,100,0,0,[0, 0, 0, 0],0,0,HEARTBEAT,6,8,0,0,0,3
3.7227060794830322,VFR_HUD,0.0,0.02644568495452404,56,0,-2.309999942779541,0.011764244176447392,,,,,,,,,,,,,,,,AHRS,0.00686307018622756,0.0005501676350831985,-0.0019972880836576223,0.0,0.0,0.00040968979010358453,0.003031003288924694,GPS_RAW_INT,0,1,0,0,-17000,9999,9999,0,0,0,0,4294967295,4294967295,1000000,0,0,RC_CHANNELS,6421036,16,1501,1500,1004,1501,1000,1000,1500,1501,0,0,0,0,0,0,0,0,0,0,0,MISSION_CURRENT,0,SYS_STATUS,52485167,52461615,53510447,34,0,-1,-1,0,0,0,0,0,0,GLOBAL_POSITION_INT,6421036,0,0,-2310,-2313,2,0,-1,5634,RAW_IMU,2126069358,18,11,-992,-7,-1,2,291,-444,238,0,4308,BATTERY_STATUS,0,0,0,32767,[65535, 65535, 65535, 65535, 65535, 65535, 65535, 65535, 65535, 65535],-1,-1,-1,100,0,0,[0, 0, 0, 0],0,0,HEARTBEAT,6,8,0,0,0,3
3.772911310195923,VFR_HUD,0.0,0.02644568495452404,56,0,-2.309999942779541,0.011764244176447392,,,,,,,,,,,,,,,,AHRS,0.00686307018622756,0.0005501676350831985,-0.0019972880836576223,0.0,0.0,0.00040968979010358453,0.003031003288924694,GPS_RAW_INT,0,1,0,0,-17000,9999,9999,0,0,0,0,4294967295,4294967295,1000000,0,0,RC_CHANNELS,6421036,16,1501,1500,1004,1501,1000,1000,1500,1501,0,0,0,0,0,0,0,0,0,0,0,MISSION_CURRENT,0,SYS_STATUS,52485167,52461615,53510447,34,0,-1,-1,0,0,0,0,0,0,GLOBAL_POSITION_INT,6421036,0,0,-2310,-2313,2,0,-1,5634,RAW_IMU,2126069358,18,11,-992,-7,-1,2,291,-444,238,0,4308,BATTERY_STATUS,0,0,0,32767,[65535, 65535, 65535, 65535, 65535, 65535, 65535, 65535, 65535, 65535],-1,-1,-1,100,0,0,[0, 0, 0, 0],0,0,HEARTBEAT,6,8,0,0,0,3
3.823090076446533,VFR_HUD,0.0,0.02644568495452404,56,0,-2.309999942779541,0.011764244176447392,,,,,,,,,,,,,,,,AHRS,0.00686307018622756,0.0005501676350831985,-0.0019972880836576223,0.0,0.0,0.00040968979010358453,0.003031003288924694,GPS_RAW_INT,0,1,0,0,-17000,9999,9999,0,0,0,0,4294967295,4294967295,1000000,0,0,RC_CHANNELS,6421036,16,1501,1500,1004,1501,1000,1000,1500,1501,0,0,0,0,0,0,0,0,0,0,0,MISSION_CURRENT,0,SYS_STATUS,52485167,52461615,53510447,34,0,-1,-1,0,0,0,0,0,0,GLOBAL_POSITION_INT,6421036,0,0,-2310,-2313,2,0,-1,5634,RAW_IMU,2126069358,18,11,-992,-7,-1,2,291,-444,238,0,4308,BATTERY_STATUS,0,0,0,32767,[65535, 65535, 65535, 65535, 65535, 65535, 65535, 65535, 65535, 65535],-1,-1,-1,100,0,0,[0, 0, 0, 0],0,0,HEARTBEAT,6,8,0,0,0,3
3.9235928058624268,VFR_HUD,0.0,0.02644568495452404,56,0,-2.309999942779541,0.011764244176447392,,,,,,,,,,,,,,,,AHRS,0.00686307018622756,0.0005501676350831985,-0.0019972880836576223,0.0,0.0,0.00040968979010358453,0.003031003288924694,GPS_RAW_INT,0,1,0,0,-17000,9999,9999,0,0,0,0,4294967295,4294967295,1000000,0,0,RC_CHANNELS,6421036,16,1501,1500,1004,1501,1000,1000,1500,1501,0,0,0,0,0,0,0,0,0,0,0,MISSION_CURRENT,0,SYS_STATUS,52485167,52461615,53510447,34,0,-1,-1,0,0,0,0,0,0,GLOBAL_POSITION_INT,6421536,0,0,-2300,-2307,2,0,-1,5634,RAW_IMU,2126069358,18,11,-992,-7,-1,2,291,-444,238,0,4308,BATTERY_STATUS,0,0,0,32767,[65535, 65535, 65535, 65535, 65535, 65535, 65535, 65535, 65535, 65535],-1,-1,-1,100,0,0,[0, 0, 0, 0],0,0,HEARTBEAT,10,3,193,0,4,3
3.9738314151763916,VFR_HUD,0.0,0.030047323554754257,56,0,-2.299999952316284,0.015233947895467281,,,,,,,,,,,,,,,,AHRS,0.00686307018622756,0.0005501676350831985,-0.0019972880836576223,0.0,0.0,0.00040968979010358453,0.003031003288924694,GPS_RAW_INT,0,1,0,0,-17000,9999,9999,0,0,0,0,4294967295,4294967295,1000000,0,0,RC_CHANNELS,6421536,16,1501,1499,1005,1501,1000,1000,1500,1500,0,0,0,0,0,0,0,0,0,0,0,MISSION_CURRENT,0,SYS_STATUS,52485167,52461615,53510447,34,0,-1,-1,0,0,0,0,0,0,GLOBAL_POSITION_INT,6421536,0,0,-2300,-2307,2,0,-1,5634,RAW_IMU,2126569370,19,10,-992,-6,0,2,295,-449,231,0,4308,BATTERY_STATUS,0,0,0,32767,[65535, 65535, 65535, 65535, 65535, 65535, 65535, 65535, 65535, 65535],-1,-1,-1,100,0,0,[0, 0, 0, 0],0,0,HEARTBEAT,10,3,193,0,4,3
4.02402400970459,VFR_HUD,0.0,0.030047323554754257,56,0,-2.299999952316284,0.015233947895467281,,,,,,,,,,,,,,,,AHRS,0.006864381022751331,0.0005503217107616365,-0.0019977716729044914,0.0,0.0,0.0004317786660976708,0.002676610602065921,GPS_RAW_INT,0,1,0,0,-17000,9999,9999,0,0,0,0,4294967295,4294967295,1000000,0,0,RC_CHANNELS,6421536,16,1501,1499,1005,1501,1000,1000,1500,1500,0,0,0,0,0,0,0,0,0,0,0,MISSION_CURRENT,0,SYS_STATUS,52485167,52461615,53510447,34,0,-1,-1,0,0,0,0,0,0,GLOBAL_POSITION_INT,6421536,0,0,-2300,-2307,2,0,-1,5634,RAW_IMU,2126569370,19,10,-992,-6,0,2,295,-449,231,0,4308,BATTERY_STATUS,0,0,0,32767,[65535, 65535, 65535, 65535, 65535, 65535, 65535, 65535, 65535, 65535],-1,-1,-1,100,0,0,[0, 0, 0, 0],0,0,HEARTBEAT,10,3,193,0,4,3
4.0742104053497314,VFR_HUD,0.0,0.030047323554754257,56,0,-2.299999952316284,0.015233947895467281,,,,,,,,,,,,,,,,AHRS,0.006864381022751331,0.0005503217107616365,-0.0019977716729044914,0.0,0.0,0.0004317786660976708,0.002676610602065921,GPS_RAW_INT,0,1,0,0,-17000,9999,9999,0,0,0,0,4294967295,4294967295,1000000,0,0,RC_CHANNELS,6421536,16,1501,1499,1005,1501,1000,1000,1500,1500,0,0,0,0,0,0,0,0,0,0,0,MISSION_CURRENT,0,SYS_STATUS,52485167,52461615,53510447,34,0,-1,-1,0,0,0,0,0,0,GLOBAL_POSITION_INT,6421536,0,0,-2300,-2307,2,0,-1,5634,RAW_IMU,2126569370,19,10,-992,-6,0,2,295,-449,231,0,4308,BATTERY_STATUS,0,0,0,32767,[65535, 65535, 65535, 65535, 65535, 65535, 65535, 65535, 65535, 65535],-1,-1,-1,100,0,0,[0, 0, 0, 0],0,0,HEARTBEAT,10,3,193,0,4,3
