Time (s),mavpackettype,airspeed,groundspeed,heading,throttle,alt,climb,mavpackettype,time_boot_ms,coordinate_frame,type_mask,lat_int,lon_int,alt,vx,vy,vz,afx,afy,afz,yaw,yaw_rate,mavpackettype,omegaIx,omegaIy,omegaIz,accel_weight,renorm_val,error_rp,error_yaw,mavpackettype,time_usec,fix_type,lat,lon,alt,eph,epv,vel,cog,satellites_visible,mavpackettype,time_boot_ms,chancount,chan1_raw,chan2_raw,chan3_raw,chan4_raw,chan5_raw,chan6_raw,chan7_raw,chan8_raw,chan9_raw,chan10_raw,chan11_raw,chan12_raw,chan13_raw,chan14_raw,chan15_raw,chan16_raw,chan17_raw,chan18_raw,rssi,mavpackettype,seq,mavpackettype,onboard_control_sensors_present,onboard_control_sensors_enabled,onboard_control_sensors_health,load,voltage_battery,current_battery,battery_remaining,drop_rate_comm,errors_comm,errors_count1,errors_count2,errors_count3,errors_count4,mavpackettype,time_boot_ms,lat,lon,alt,relative_alt,vx,vy,vz,hdg,mavpackettype,time_usec,xacc,yacc,zacc,xgyro,ygyro,zgyro,xmag,ymag,zmag,mavpackettype,id,battery_function,type,temperature,voltages,current_battery,current_consumed,energy_consumed,battery_remaining,mavpackettype,type,autopilot,base_mode,custom_mode,system_status,mavlink_version
9.9587881565094,VFR_HUD,0.0,0.0,56,0,-2.5399999618530273,-0.0,,,,,,,,,,,,,,,,AHRS,0.006829814985394478,0.000696519622579217,-0.002002740278840065,0.0,0.0,0.0008163413149304688,0.00987920444458723,GPS_RAW_INT,0,1,0,0,-17000,9999,9999,0,0,0,0,4294967295,4294967295,1000000,0,0,RC_CHANNELS,6412036,16,1501,1499,1004,1502,1000,1000,1500,1500,0,0,0,0,0,0,0,0,0,0,0,MISSION_CURRENT,0,SYS_STATUS,52485167,35684399,51413295,31,0,-1,-1,0,0,0,0,0,0,GLOBAL_POSITION_INT,6412036,0,0,-2540,-2549,0,0,0,5619,RAW_IMU,2117069308,19,11,-992,-7,0,2,300,-450,237,0,4308,BATTERY_STATUS,0,0,0,32767,[65535, 65535, 65535, 65535, 65535, 65535, 65535, 65535, 65535, 65535],-1,-1,-1,100,0,0,[0, 0, 0, 0],0,0,HEARTBEAT,6,8,0,0,0,3
10.012695074081421,VFR_HUD,0.0,0.0,56,0,-2.5399999618530273,-0.0,,,,,,,,,,,,,,,,AHRS,0.006829814985394478,0.000696519622579217,-0.002002740278840065,0.0,0.0,0.0008163413149304688,0.00987920444458723,GPS_RAW_INT,0,1,0,0,-17000,9999,9999,0,0,0,0,4294967295,4294967295,1000000,0,0,RC_CHANNELS,6412036,16,1501,1499,1004,1502,1000,1000,1500,1500,0,0,0,0,0,0,0,0,0,0,0,MISSION_CURRENT,0,SYS_STATUS,52485167,35684399,51413295,31,0,-1,-1,0,0,0,0,0,0,GLOBAL_POSITION_INT,6412036,0,0,-2540,-2549,0,0,0,5619,RAW_IMU,2117069308,19,11,-992,-7,0,2,300,-450,237,0,4308,BATTERY_STATUS,0,0,0,32767,[65535, 65535, 65535, 65535, 65535, 65535, 65535, 65535, 65535, 65535],-1,-1,-1,100,0,0,[0, 0, 0, 0],0,0,HEARTBEAT,6,8,0,0,0,3
10.064945936203003,VFR_HUD,0.0,0.0,56,0,-2.5399999618530273,-0.0,,,,,,,,,,,,,,,,AHRS,0.006829814985394478,0.000696519622579217,-0.002002740278840065,0.0,0.0,0.0008163413149304688,0.00987920444458723,GPS_RAW_INT,0,1,0,0,-17000,9999,9999,0,0,0,0,4294967295,4294967295,1000000,0,0,RC_CHANNELS,6412036,16,1501,1499,1004,1502,1000,1000,1500,1500,0,0,0,0,0,0,0,0,0,0,0,MISSION_CURRENT,0,SYS_STATUS,52485167,35684399,51413295,31,0,-1,-1,0,0,0,0,0,0,GLOBAL_POSITION_INT,6412036,0,0,-2540,-2549,0,0,0,5619,RAW_IMU,2117069308,19,11,-992,-7,0,2,300,-450,237,0,4308,BATTERY_STATUS,0,0,0,32767,[65535, 65535, 65535, 65535, 65535, 65535, 65535, 65535, 65535, 65535],-1,-1,-1,100,0,0,[0, 0, 0, 0],0,0,HEARTBEAT,6,8,0,0,0,3
10.116072177886963,VFR_HUD,0.0,0.0,56,0,-2.5399999618530273,-0.0,,,,,,,,,,,,,,,,AHRS,0.006829814985394478,0.000696519622579217,-0.002002740278840065,0.0,0.0,0.0008163413149304688,0.00987920444458723,GPS_RAW_INT,0,1,0,0,-17000,9999,9999,0,0,0,0,4294967295,4294967295,1000000,0,0,RC_CHANNELS,6412036,16,1501,1499,1004,1502,1000,1000,1500,1500,0,0,0,0,0,0,0,0,0,0,0,MISSION_CURRENT,0,SYS_STATUS,52485167,35684399,51413295,31,0,-1,-1,0,0,0,0,0,0,GLOBAL_POSITION_INT,6412036,0,0,-2540,-2549,0,0,0,5619,RAW_IMU,2117069308,19,11,-992,-7,0,2,300,-450,237,0,4308,BATTERY_STATUS,0,0,0,32767,[65535, 65535, 65535, 65535, 65535, 65535, 65535, 65535, 65535, 65535],-1,-1,-1,100,0,0,[0, 0, 0, 0],0,0,HEARTBEAT,6,8,0,0,0,3
10.167656183242798,VFR_HUD,0.0,0.0,56,0,-2.5399999618530273,-0.0,,,,,,,,,,,,,,,,AHRS,0.006829814985394478,0.000696519622579217,-0.002002740278840065,0.0,0.0,0.0008163413149304688,0.00987920444458723,GPS_RAW_INT,0,1,0,0,-17000,9999,9999,0,0,0,0,4294967295,4294967295,1000000,0,0,RC_CHANNELS,6412036,16,1501,1499,1004,1502,1000,1000,1500,1500,0,0,0,0,0,0,0,0,0,0,0,MISSION_CURRENT,0,SYS_STATUS,52485167,35684399,51413295,31,0,-1,-1,0,0,0,0,0,0,GLOBAL_POSITION_INT,6412036,0,0,-2540,-2549,0,0,0,5619,RAW_IMU,2117069308,19,11,-992,-7,0,2,300,-450,237,0,4308,BATTERY_STATUS,0,0,0,32767,[65535, 65535, 65535, 65535, 65535, 65535, 65535, 65535, 65535, 65535],-1,-1,-1,100,0,0,[0, 0, 0, 0],0,0,HEARTBEAT,6,8,0,0,0,3
10.219107866287231,VFR_HUD,0.0,0.0,56,0,-2.5399999618530273,-0.0,,,,,,,,,,,,,,,,AHRS,0.006829814985394478,0.000696519622579217,-0.002002740278840065,0.0,0.0,0.0008163413149304688,0.00987920444458723,GPS_RAW_INT,0,1,0,0,-17000,9999,9999,0,0,0,0,4294967295,4294967295,1000000,0,0,RC_CHANNELS,6412036,16,1501,1499,1004,1502,1000,1000,1500,1500,0,0,0,0,0,0,0,0,0,0,0,MISSION_CURRENT,0,SYS_STATUS,52485167,35684399,51413295,31,0,-1,-1,0,0,0,0,0,0,GLOBAL_POSITION_INT,6412036,0,0,-2540,-2549,0,0,0,5619,RAW_IMU,2117069308,19,11,-992,-7,0,2,300,-450,237,0,4308,BATTERY_STATUS,0,0,0,32767,[65535, 65535, 65535, 65535, 65535, 65535, 65535, 65535, 65535, 65535],-1,-1,-1,100,0,0,[0, 0, 0, 0],0,0,HEARTBEAT,6,8,0,0,0,3
10.271538019180298,VFR_HUD,0.0,0.0,56,0,-2.5399999618530273,-0.0,,,,,,,,,,,,,,,,AHRS,0.006829814985394478,0.000696519622579217,-0.002002740278840065,0.0,0.0,0.0008163413149304688,0.00987920444458723,GPS_RAW_INT,0,1,0,0,-17000,9999,9999,0,0,0,0,4294967295,4294967295,1000000,0,0,RC_CHANNELS,6412036,16,1501,1499,1004,1502,1000,1000,1500,1500,0,0,0,0,0,0,0,0,0,0,0,MISSION_CURRENT,0,SYS_STATUS,52485167,35684399,51413295,31,0,-1,-1,0,0,0,0,0,0,GLOBAL_POSITION_INT,6412036,0,0,-2540,-2549,0,0,0,5619,RAW_IMU,2117069308,19,11,-992,-7,0,2,300,-450,237,0,4308,BATTERY_STATUS,0,0,0,32767,[65535, 65535, 65535, 65535, 65535, 65535, 65535, 65535, 65535, 65535],-1,-1,-1,100,0,0,[0, 0, 0, 0],0,0,HEARTBEAT,6,8,0,0,0,3
10.373258352279663,VFR_HUD,0.0,0.0,56,0,-2.5399999618530273,-0.0,,,,,,,,,,,,,,,,AHRS,0.006829814985394478,0.000696519622579217,-0.002002740278840065,0.0,0.0,0.0008163413149304688,0.00987920444458723,GPS_RAW_INT,0,1,0,0,-17000,9999,9999,0,0,0,0,4294967295,4294967295,1000000,0,0,RC_CHANNELS,6412036,16,1501,1499,1004,1502,1000,1000,1500,1500,0,0,0,0,0,0,0,0,0,0,0,MISSION_CURRENT,0,SYS_STATUS,52485167,35684399,51413295,31,0,-1,-1,0,0,0,0,0,0,GLOBAL_POSITION_INT,6412036,0,0,-2540,-2549,0,0,0,5619,RAW_IMU,2117069308,19,11,-992,-7,0,2,300,-450,237,0,4308,BATTERY_STATUS,0,0,0,32767,[65535, 65535, 65535, 65535, 65535, 65535, 65535, 65535, 65535, 65535],-1,-1,-1,100,0,0,[0, 0, 0, 0],0,0,HEARTBEAT,6,8,0,0,0,3
10.423511266708374,VFR_HUD,0.0,0.0,56,0,-2.5399999618530273,-0.0,,,,,,,,,,,,,,,,AHRS,0.006829814985394478,0.000696519622579217,-0.002002740278840065,0.0,0.0,0.0008163413149304688,0.00987920444458723,GPS_RAW_INT,0,1,0,0,-17000,9999,9999,0,0,0,0,4294967295,4294967295,1000000,0,0,RC_CHANNELS,6412036,16,1501,1499,1004,1502,1000,1000,1500,1500,0,0,0,0,0,0,0,0,0,0,0,MISSION_CURRENT,0,SYS_STATUS,52485167,35684399,51413295,31,0,-1,-1,0,0,0,0,0,0,GLOBAL_POSITION_INT,6412036,0,0,-2540,-2549,0,0,0,5619,RAW_IMU,2117069308,19,11,-992,-7,0,2,300,-450,237,0,4308,BATTERY_STATUS,0,0,0,32767,[65535, 65535, 65535, 65535, 65535, 65535, 65535, 65535, 65535, 65535],-1,-1,-1,100,0,0,[0, 0, 0, 0],0,0,HEARTBEAT,6,8,0,0,0,3
10.473730564117432,VFR_HUD,0.0,0.0,56,0,-2.5399999618530273,-0.0,,,,,,,,,,,,,,,,AHRS,0.006829814985394478,0.000696519622579217,-0.002002740278840065,0.0,0.0,0.0008163413149304688,0.00987920444458723,GPS_RAW_INT,0,1,0,0,-17000,9999,9999,0,0,0,0,4294967295,4294967295,1000000,0,0,RC_CHANNELS,6412036,16,1501,1499,1004,1502,1000,1000,1500,1500,0,0,0,0,0,0,0,0,0,0,0,MISSION_CURRENT,0,SYS_STATUS,52485167,35684399,51413295,31,0,-1,-1,0,0,0,0,0,0,GLOBAL_POSITION_INT,6412036,0,0,-2540,-2549,0,0,0,5619,RAW_IMU,2117069308,19,11,-992,-7,0,2,300,-450,237,0,4308,BATTERY_STATUS,0,0,0,32767,[65535, 65535, 65535, 65535, 65535, 65535, 65535, 65535, 65535, 65535],-1,-1,-1,100,0,0,[0, 0, 0, 0],0,0,HEARTBEAT,6,8,0,0,0,3
10.524100065231323,VFR_HUD,0.0,0.0,56,0,-2.5399999618530273,-0.0,,,,,,,,,,,,,,,,AHRS,0.006829814985394478,0.000696519622579217,-0.002002740278840065,0.0,0.0,0.0008163413149304688,0.00987920444458723,GPS_RAW_INT,0,1,0,0,-17000,9999,9999,0,0,0,0,4294967295,4294967295,1000000,0,0,RC_CHANNELS,6412036,16,1501,1499,1004,1502,1000,1000,1500,1500,0,0,0,0,0,0,0,0,0,0,0,MISSION_CURRENT,0,SYS_STATUS,52485167,35684399,51413295,31,0,-1,-1,0,0,0,0,0,0,GLOBAL_POSITION_INT,6412036,0,0,-2540,-2549,0,0,0,5619,RAW_IMU,2117069308,19,11,-992,-7,0,2,300,-450,237,0,4308,BATTERY_STATUS,0,0,0,32767,[65535, 65535, 65535, 65535, 65535, 65535, 65535, 65535, 65535, 65535],-1,-1,-1,100,0,0,[0, 0, 0, 0],0,0,HEARTBEAT,6,8,0,0,0,3
10.57440733909607,VFR_HUD,0.0,0.0,56,0,-2.5399999618530273,-0.0,,,,,,,,,,,,,,,,AHRS,0.006829814985394478,0.000696519622579217,-0.002002740278840065,0.0,0.0,0.0008163413149304688,0.00987920444458723,GPS_RAW_INT,0,1,0,0,-17000,9999,9999,0,0,0,0,4294967295,4294967295,1000000,0,0,RC_CHANNELS,6412036,16,1501,1499,1004,1502,1000,1000,1500,1500,0,0,0,0,0,0,0,0,0,0,0,MISSION_CURRENT,0,SYS_STATUS,52485167,35684399,51413295,31,0,-1,-1,0,0,0,0,0,0,GLOBAL_POSITION_INT,6412036,0,0,-2540,-2549,0,0,0,5619,RAW_IMU,2117069308,19,11,-992,-7,0,2,300,-450,237,0,4308,BATTERY_STATUS,0,0,0,32767,[65535, 65535, 65535, 65535, 65535, 65535, 65535, 65535, 65535, 65535],-1,-1,-1,100,0,0,[0, 0, 0, 0],0,0,HEARTBEAT,6,8,0,0,0,3
10.62594485282898,VFR_HUD,0.0,0.0,56,0,-2.5899999141693115,-0.0,,,,,,,,,,,,,,,,AHRS,0.006829814985394478,0.000696519622579217,-0.002002740278840065,0.0,0.0,0.0007732542580924928,0.0064499215222895145,GPS_RAW_INT,0,1,0,0,-17000,9999,9999,0,0,0,0,4294967295,4294967295,1000000,0,0,RC_CHANNELS,6412536,16,1501,1499,1004,1501,1001,1000,1500,1500,0,0,0,0,0,0,0,0,0,0,0,MISSION_CURRENT,0,SYS_STATUS,52485167,35684399,51413295,32,0,-1,-1,0,0,0,0,0,0,GLOBAL_POSITION_INT,6412536,0,0,-2590,-2592,0,0,0,5617,RAW_IMU,2117569308,19,11,-991,-7,0,2,294,-448,239,0,4308,BATTERY_STATUS,0,0,0,32767,[65535, 65535, 65535, 65535, 65535, 65535, 65535, 65535, 65535, 65535],-1,-1,-1,100,0,0,[0, 0, 0, 0],0,0,HEARTBEAT,6,8,0,0,0,3
10.676220178604126,VFR_HUD,0.0,0.0,56,0,-2.5899999141693115,-0.0,,,,,,,,,,,,,,,,AHRS,0.006829814985394478,0.000696519622579217,-0.002002740278840065,0.0,0.0,0.0007732542580924928,0.0064499215222895145,GPS_RAW_INT,0,1,0,0,-17000,9999,9999,0,0,0,0,4294967295,4294967295,1000000,0,0,RC_CHANNELS,6412536,16,1501,1499,1004,1501,1001,1000,1500,1500,0,0,0,0,0,0,0,0,0,0,0,MISSION_CURRENT,0,SYS_STATUS,52485167,35684399,51413295,32,0,-1,-1,0,0,0,0,0,0,GLOBAL_POSITION_INT,6412536,0,0,-2590,-2592,0,0,0,5617,RAW_IMU,2117569308,19,11,-991,-7,0,2,294,-448,239,0,4308,BATTERY_STATUS,0,0,0,32767,[65535, 65535, 65535, 65535, 65535, 65535, 65535, 65535, 65535, 65535],-1,-1,-1,100,0,0,[0, 0, 0, 0],0,0,HEARTBEAT,6,8,0,0,0,3
10.72649884223938,VFR_HUD,0.0,0.0,56,0,-2.5899999141693115,-0.0,,,,,,,,,,,,,,,,AHRS,0.006829814985394478,0.000696519622579217,-0.002002740278840065,0.0,0.0,0.0007732542580924928,0.0064499215222895145,GPS_RAW_INT,0,1,0,0,-17000,9999,9999,0,0,0,0,4294967295,4294967295,1000000,0,0,RC_CHANNELS,6412536,16,1501,1499,1004,1501,1001,1000,1500,1500,0,0,0,0,0,0,0,0,0,0,0,MISSION_CURRENT,0,SYS_STATUS,52485167,35684399,51413295,32,0,-1,-1,0,0,0,0,0,0,GLOBAL_POSITION_INT,6412536,0,0,-2590,-2592,0,0,0,5617,RAW_IMU,2117569308,19,11,-991,-7,0,2,294,-448,239,0,4308,BATTERY_STATUS,0,0,0,32767,[65535, 65535, 65535, 65535, 65535, 65535, 65535, 65535, 65535, 65535],-1,-1,-1,100,0,0,[0, 0, 0, 0],0,0,HEARTBEAT,6,8,0,0,0,3
10.7767493724823,VFR_HUD,0.0,0.0,56,0,-2.5899999141693115,-0.0,,,,,,,,,,,,,,,,AHRS,0.006829814985394478,0.000696519622579217,-0.002002740278840065,0.0,0.0,0.0007732542580924928,0.0064499215222895145,GPS_RAW_INT,0,1,0,0,-17000,9999,9999,0,0,0,0,4294967295,4294967295,1000000,0,0,RC_CHANNELS,6412536,16,1501,1499,1004,1501,1001,1000,1500,1500,0,0,0,0,0,0,0,0,0,0,0,MISSION_CURRENT,0,SYS_STATUS,52485167,35684399,51413295,32,0,-1,-1,0,0,0,0,0,0,GLOBAL_POSITION_INT,6412536,0,0,-2590,-2592,0,0,0,5617,RAW_IMU,2117569308,19,11,-991,-7,0,2,294,-448,239,0,4308,BATTERY_STATUS,0,0,0,32767,[65535, 65535, 65535, 65535, 65535, 65535, 65535, 65535, 65535, 65535],-1,-1,-1,100,0,0,[0, 0, 0, 0],0,0,HEARTBEAT,6,8,0,0,0,3
10.827137231826782,VFR_HUD,0.0,0.0,56,0,-2.5899999141693115,-0.0,,,,,,,,,,,,,,,,AHRS,0.006829814985394478,0.000696519622579217,-0.002002740278840065,0.0,0.0,0.0007732542580924928,0.0064499215222895145,GPS_RAW_INT,0,1,0,0,-17000,9999,9999,0,0,0,0,4294967295,4294967295,1000000,0,0,RC_CHANNELS,6412536,16,1501,1499,1004,1501,1001,1000,1500,1500,0,0,0,0,0,0,0,0,0,0,0,MISSION_CURRENT,0,SYS_STATUS,52485167,35684399,51413295,32,0,-1,-1,0,0,0,0,0,0,GLOBAL_POSITION_INT,6412536,0,0,-2590,-2592,0,0,0,5617,RAW_IMU,2117569308,19,11,-991,-7,0,2,294,-448,239,0,4308,BATTERY_STATUS,0,0,0,32767,[65535, 65535, 65535, 65535, 65535, 65535, 65535, 65535, 65535, 65535],-1,-1,-1,100,0,0,[0, 0, 0, 0],0,0,HEARTBEAT,6,8,0,0,0,3
10.877373456954956,VFR_HUD,0.0,0.0,56,0,-2.5899999141693115,-0.0,,,,,,,,,,,,,,,,AHRS,0.006829814985394478,0.000696519622579217,-0.002002740278840065,0.0,0.0,0.0007732542580924928,0.0064499215222895145,GPS_RAW_INT,0,1,0,0,-17000,9999,9999,0,0,0,0,4294967295,4294967295,1000000,0,0,RC_CHANNELS,6412536,16,1501,1499,1004,1501,1001,1000,1500,1500,0,0,0,0,0,0,0,0,0,0,0,MISSION_CURRENT,0,SYS_STATUS,52485167,35684399,51413295,32,0,-1,-1,0,0,0,0,0,0,GLOBAL_POSITION_INT,6412536,0,0,-2590,-2592,0,0,0,5617,RAW_IMU,2117569308,19,11,-991,-7,0,2,294,-448,239,0,4308,BATTERY_STATUS,0,0,0,32767,[65535, 65535, 65535, 65535, 65535, 65535, 65535, 65535, 65535, 65535],-1,-1,-1,100,0,0,[0, 0, 0, 0],0,0,HEARTBEAT,6,8,0,0,0,3
10.927602767944336,VFR_HUD,0.0,0.0,56,0,-2.5899999141693115,-0.0,,,,,,,,,,,,,,,,AHRS,0.006829814985394478,0.000696519622579217,-0.002002740278840065,0.0,0.0,0.0007732542580924928,0.0064499215222895145,GPS_RAW_INT,0,1,0,0,-17000,9999,9999,0,0,0,0,4294967295,4294967295,1000000,0,0,RC_CHANNELS,6412536,16,1501,1499,1004,1501,1001,1000,1500,1500,0,0,0,0,0,0,0,0,0,0,0,MISSION_CURRENT,0,SYS_STATUS,52485167,35684399,51413295,32,0,-1,-1,0,0,0,0,0,0,GLOBAL_POSITION_INT,6412536,0,0,-2590,-2592,0,0,0,5617,RAW_IMU,2117569308,19,11,-991,-7,0,2,294,-448,239,0,4308,BATTERY_STATUS,0,0,0,32767,[65535, 65535, 65535, 65535, 65535, 65535, 65535, 65535, 65535, 65535],-1,-1,-1,100,0,0,[0, 0, 0, 0],0,0,HEARTBEAT,6,8,0,0,0,3
10.977805376052856,VFR_HUD,0.0,0.0,56,0,-2.5899999141693115,-0.0,,,,,,,,,,,,,,,,AHRS,0.006829814985394478,0.000696519622579217,-0.002002740278840065,0.0,0.0,0.0007732542580924928,0.0064499215222895145,GPS_RAW_INT,0,1,0,0,-17000,9999,9999,0,0,0,0,4294967295,4294967295,1000000,0,0,RC_CHANNELS,6412536,16,1501,1499,1004,1501,1001,1000,1500,1500,0,0,0,0,0,0,0,0,0,0,0,MISSION_CURRENT,0,SYS_STATUS,52485167,35684399,51413295,32,0,-1,-1,0,0,0,0,0,0,GLOBAL_POSITION_INT,6412536,0,0,-2590,-2592,0,0,0,5617,RAW_IMU,2117569308,19,11,-991,-7,0,2,294,-448,239,0,4308,BATTERY_STATUS,0,0,0,32767,[65535, 65535, 65535, 65535, 65535, 65535, 65535, 65535, 65535, 65535],-1,-1,-1,100,0,0,[0, 0, 0, 0],0,0,HEARTBEAT,6,8,0,0,0,3
11.028026103973389,VFR_HUD,0.0,0.0,56,0,-2.5899999141693115,-0.0,,,,,,,,,,,,,,,,AHRS,0.006829814985394478,0.000696519622579217,-0.002002740278840065,0.0,0.0,0.0007732542580924928,0.0064499215222895145,GPS_RAW_INT,0,1,0,0,-17000,9999,9999,0,0,0,0,4294967295,4294967295,1000000,0,0,RC_CHANNELS,6412536,16,1501,1499,1004,1501,1001,1000,1500,1500,0,0,0,0,0,0,0,0,0,0,0,MISSION_CURRENT,0,SYS_STATUS,52485167,35684399,51413295,32,0,-1,-1,0,0,0,0,0,0,GLOBAL_POSITION_INT,6412536,0,0,-2590,-2592,0,0,0,5617,RAW_IMU,2117569308,19,11,-991,-7,0,2,294,-448,239,0,4308,BATTERY_STATUS,0,0,0,32767,[65535, 65535, 65535, 65535, 65535, 65535, 65535, 65535, 65535, 65535],-1,-1,-1,100,0,0,[0, 0, 0, 0],0,0,HEARTBEAT,6,8,0,0,0,3
11.07823395729065,VFR_HUD,0.0,0.0,56,0,-2.5899999141693115,-0.0,,,,,,,,,,,,,,,,AHRS,0.006829814985394478,0.000696519622579217,-0.002002740278840065,0.0,0.0,0.0007732542580924928,0.0064499215222895145,GPS_RAW_INT,0,1,0,0,-17000,9999,9999,0,0,0,0,4294967295,4294967295,1000000,0,0,RC_CHANNELS,6412536,16,1501,1499,1004,1501,1001,1000,1500,1500,0,0,0,0,0,0,0,0,0,0,0,MISSION_CURRENT,0,SYS_STATUS,52485167,35684399,51413295,32,0,-1,-1,0,0,0,0,0,0,GLOBAL_POSITION_INT,6412536,0,0,-2590,-2592,0,0,0,5617,RAW_IMU,2117569308,19,11,-991,-7,0,2,294,-448,239,0,4308,BATTERY_STATUS,0,0,0,32767,[65535, 65535, 65535, 65535, 65535, 65535, 65535, 65535, 65535, 65535],-1,-1,-1,100,0,0,[0, 0, 0, 0],0,0,HEARTBEAT,6,8,0,0,0,3
11.128442287445068,VFR_HUD,0.0,0.0,56,0,-2.5899999141693115,-0.0,,,,,,,,,,,,,,,,AHRS,0.006829814985394478,0.000696519622579217,-0.002002740278840065,0.0,0.0,0.0007732542580924928,0.0064499215222895145,GPS_RAW_INT,0,1,0,0,-17000,9999,9999,0,0,0,0,4294967295,4294967295,1000000,0,0,RC_CHANNELS,6412536,16,1501,1499,1004,1501,1001,1000,1500,1500,0,0,0,0,0,0,0,0,0,0,0,MISSION_CURRENT,0,SYS_STATUS,52485167,35684399,51413295,32,0,-1,-1,0,0,0,0,0,0,GLOBAL_POSITION_INT,6412536,0,0,-2590,-2592,0,0,0,5617,RAW_IMU,2117569308,19,11,-991,-7,0,2,294,-448,239,0,4308,BATTERY_STATUS,0,0,0,32767,[65535, 65535, 65535, 65535, 65535, 65535, 65535, 65535, 65535, 65535],-1,-1,-1,100,0,0,[0, 0, 0, 0],0,0,HEARTBEAT,6,8,0,0,0,3
11.17881441116333,VFR_HUD,0.0,0.0,56,0,-2.5899999141693115,-0.0,,,,,,,,,,,,,,,,AHRS,0.006829814985394478,0.000696519622579217,-0.002002740278840065,0.0,0.0,0.0007732542580924928,0.0064499215222895145,GPS_RAW_INT,0,1,0,0,-17000,9999,9999,0,0,0,0,4294967295,4294967295,1000000,0,0,RC_CHANNELS,6412536,16,1501,1499,1004,1501,1001,1000,1500,1500,0,0,0,0,0,0,0,0,0,0,0,MISSION_CURRENT,0,SYS_STATUS,52485167,35684399,51413295,31,0,-1,-1,0,0,0,0,0,0,GLOBAL_POSITION_INT,6413036,0,0,-2740,-2747,0,0,0,5616,RAW_IMU,2117569308,19,11,-991,-7,0,2,294,-448,239,0,4308,BATTERY_STATUS,0,0,0,32767,[65535, 65535, 65535, 65535, 65535, 65535, 65535, 65535, 65535, 65535],-1,-1,-1,100,0,0,[0, 0, 0, 0],0,0,HEARTBEAT,6,8,0,0,0,3
11.22905683517456,VFR_HUD,0.0,0.0,56,0,-2.740000009536743,-0.0,,,,,,,,,,,,,,,,AHRS,0.006829814985394478,0.000696519622579217,-0.002002740278840065,0.0,0.0,0.0007732542580924928,0.0064499215222895145,GPS_RAW_INT,0,1,0,0,-17000,9999,9999,0,0,0,0,4294967295,4294967295,1000000,0,0,RC_CHANNELS,6413036,16,1502,1499,1004,1501,1000,1000,1501,1500,0,0,0,0,0,0,0,0,0,0,0,MISSION_CURRENT,0,SYS_STATUS,52485167,35684399,51413295,31,0,-1,-1,0,0,0,0,0,0,GLOBAL_POSITION_INT,6413036,0,0,-2740,-2747,0,0,0,5616,RAW_IMU,2118069312,20,10,-992,-6,0,2,298,-449,226,0,4308,BATTERY_STATUS,0,0,0,32767,[65535, 65535, 65535, 65535, 65535, 65535, 65535, 65535, 65535, 65535],-1,-1,-1,100,0,0,[0, 0, 0, 0],0,0,HEARTBEAT,6,8,0,0,0,3
11.279269456863403,VFR_HUD,0.0,0.0,56,0,-2.740000009536743,-0.0,,,,,,,,,,,,,,,,AHRS,0.006829814985394478,0.000696519622579217,-0.002002740278840065,0.0,0.0,0.000699492753483355,0.005614658817648888,GPS_RAW_INT,0,1,0,0,-17000,9999,9999,0,0,0,0,4294967295,4294967295,1000000,0,0,RC_CHANNELS,6413036,16,1502,1499,1004,1501,1000,1000,1501,1500,0,0,0,0,0,0,0,0,0,0,0,MISSION_CURRENT,0,SYS_STATUS,52485167,35684399,51413295,31,0,-1,-1,0,0,0,0,0,0,GLOBAL_POSITION_INT,6413036,0,0,-2740,-2747,0,0,0,5616,RAW_IMU,2118069312,20,10,-992,-6,0,2,298,-449,226,0,4308,BATTERY_STATUS,0,0,0,32767,[65535, 65535, 65535, 65535, 65535, 65535, 65535, 65535, 65535, 65535],-1,-1,-1,100,0,0,[0, 0, 0, 0],0,0,HEARTBEAT,6,8,0,0,0,3
11.32951545715332,VFR_HUD,0.0,0.0,56,0,-2.740000009536743,-0.0,,,,,,,,,,,,,,,,AHRS,0.006829814985394478,0.000696519622579217,-0.002002740278840065,0.0,0.0,0.000699492753483355,0.005614658817648888,GPS_RAW_INT,0,1,0,0,-17000,9999,9999,0,0,0,0,4294967295,4294967295,1000000,0,0,RC_CHANNELS,6413036,16,1502,1499,1004,1501,1000,1000,1501,1500,0,0,0,0,0,0,0,0,0,0,0,MISSION_CURRENT,0,SYS_STATUS,52485167,35684399,51413295,31,0,-1,-1,0,0,0,0,0,0,GLOBAL_POSITION_INT,6413036,0,0,-2740,-2747,0,0,0,5616,RAW_IMU,2118069312,20,10,-992,-6,0,2,298,-449,226,0,4308,BATTERY_STATUS,0,0,0,32767,[65535, 65535, 65535, 65535, 65535, 65535, 65535, 65535, 65535, 65535],-1,-1,-1,100,0,0,[0, 0, 0, 0],0,0,HEARTBEAT,6,8,0,0,0,3
11.380253791809082,VFR_HUD,0.0,0.0,56,0,-2.740000009536743,-0.0,,,,,,,,,,,,,,,,AHRS,0.006829814985394478,0.000696519622579217,-0.002002740278840065,0.0,0.0,0.000699492753483355,0.005614658817648888,GPS_RAW_INT,0,1,0,0,-17000,9999,9999,0,0,0,0,4294967295,4294967295,1000000,0,0,RC_CHANNELS,6413036,16,1502,1499,1004,1501,1000,1000,1501,1500,0,0,0,0,0,0,0,0,0,0,0,MISSION_CURRENT,0,SYS_STATUS,52485167,35684399,51413295,31,0,-1,-1,0,0,0,0,0,0,GLOBAL_POSITION_INT,6413036,0,0,-2740,-2747,0,0,0,5616,RAW_IMU,2118069312,20,10,-992,-6,0,2,298,-449,226,0,4308,BATTERY_STATUS,0,0,0,32767,[65535, 65535, 65535, 65535, 65535, 65535, 65535, 65535, 65535, 65535],-1,-1,-1,100,0,0,[0, 0, 0, 0],0,0,HEARTBEAT,6,8,0,0,0,3
11.430454969406128,VFR_HUD,0.0,0.0,56,0,-2.740000009536743,-0.0,,,,,,,,,,,,,,,,AHRS,0.006829814985394478,0.000696519622579217,-0.002002740278840065,0.0,0.0,0.000699492753483355,0.005614658817648888,GPS_RAW_INT,0,1,0,0,-17000,9999,9999,0,0,0,0,4294967295,4294967295,1000000,0,0,RC_CHANNELS,6413036,16,1502,1499,1004,1501,1000,1000,1501,1500,0,0,0,0,0,0,0,0,0,0,0,MISSION_CURRENT,0,SYS_STATUS,52485167,35684399,51413295,31,0,-1,-1,0,0,0,0,0,0,GLOBAL_POSITION_INT,6413036,0,0,-2740,-2747,0,0,0,5616,RAW_IMU,2118069312,20,10,-992,-6,0,2,298,-449,226,0,4308,BATTERY_STATUS,0,0,0,32767,[65535, 65535, 65535, 65535, 65535, 65535, 65535, 65535, 65535, 65535],-1,-1,-1,100,0,0,[0, 0, 0, 0],0,0,HEARTBEAT,6,8,0,0,0,3
11.48064112663269,VFR_HUD,0.0,0.0,56,0,-2.740000009536743,-0.0,,,,,,,,,,,,,,,,AHRS,0.006829814985394478,0.000696519622579217,-0.002002740278840065,0.0,0.0,0.000699492753483355,0.005614658817648888,GPS_RAW_INT,0,1,0,0,-17000,9999,9999,0,0,0,0,4294967295,4294967295,1000000,0,0,RC_CHANNELS,6413036,16,1502,1499,1004,1501,1000,1000,1501,1500,0,0,0,0,0,0,0,0,0,0,0,MISSION_CURRENT,0,SYS_STATUS,52485167,35684399,51413295,31,0,-1,-1,0,0,0,0,0,0,GLOBAL_POSITION_INT,6413036,0,0,-2740,-2747,0,0,0,5616,RAW_IMU,2118069312,20,10,-992,-6,0,2,298,-449,226,0,4308,BATTERY_STATUS,0,0,0,32767,[65535, 65535, 65535, 65535, 65535, 65535, 65535, 65535, 65535, 65535],-1,-1,-1,100,0,0,[0, 0, 0, 0],0,0,HEARTBEAT,6,8,0,0,0,3
11.530915021896362,VFR_HUD,0.0,0.0,56,0,-2.740000009536743,-0.0,,,,,,,,,,,,,,,,AHRS,0.006829814985394478,0.000696519622579217,-0.002002740278840065,0.0,0.0,0.000699492753483355,0.005614658817648888,GPS_RAW_INT,0,1,0,0,-17000,9999,9999,0,0,0,0,4294967295,4294967295,1000000,0,0,RC_CHANNELS,6413036,16,1502,1499,1004,1501,1000,1000,1501,1500,0,0,0,0,0,0,0,0,0,0,0,MISSION_CURRENT,0,SYS_STATUS,52485167,35684399,51413295,31,0,-1,-1,0,0,0,0,0,0,GLOBAL_POSITION_INT,6413036,0,0,-2740,-2747,0,0,0,5616,RAW_IMU,2118069312,20,10,-992,-6,0,2,298,-449,226,0,4308,BATTERY_STATUS,0,0,0,32767,[65535, 65535, 65535, 65535, 65535, 65535, 65535, 65535, 65535, 65535],-1,-1,-1,100,0,0,[0, 0, 0, 0],0,0,HEARTBEAT,6,8,0,0,0,3
11.581146717071533,VFR_HUD,0.0,0.0,56,0,-2.740000009536743,-0.0,,,,,,,,,,,,,,,,AHRS,0.006829814985394478,0.000696519622579217,-0.002002740278840065,0.0,0.0,0.000699492753483355,0.005614658817648888,GPS_RAW_INT,0,1,0,0,-17000,9999,9999,0,0,0,0,4294967295,4294967295,1000000,0,0,RC_CHANNELS,6413036,16,1502,1499,1004,1501,1000,1000,1501,1500,0,0,0,0,0,0,0,0,0,0,0,MISSION_CURRENT,0,SYS_STATUS,52485167,35684399,51413295,31,0,-1,-1,0,0,0,0,0,0,GLOBAL_POSITION_INT,6413036,0,0,-2740,-2747,0,0,0,5616,RAW_IMU,2118069312,20,10,-992,-6,0,2,298,-449,226,0,4308,BATTERY_STATUS,0,0,0,32767,[65535, 65535, 65535, 65535, 65535, 65535, 65535, 65535, 65535, 65535],-1,-1,-1,100,0,0,[0, 0, 0, 0],0,0,HEARTBEAT,6,8,0,0,0,3
11.631357669830322,VFR_HUD,0.0,0.0,56,0,-2.740000009536743,-0.0,,,,,,,,,,,,,,,,AHRS,0.006829814985394478,0.000696519622579217,-0.002002740278840065,0.0,0.0,0.000699492753483355,0.005614658817648888,GPS_RAW_INT,0,1,0,0,-17000,9999,9999,0,0,0,0,4294967295,4294967295,1000000,0,0,RC_CHANNELS,6413036,16,1502,1499,1004,1501,1000,1000,1501,1500,0,0,0,0,0,0,0,0,0,0,0,MISSION_CURRENT,0,SYS_STATUS,52485167,35684399,51413295,31,0,-1,-1,0,0,0,0,0,0,GLOBAL_POSITION_INT,6413036,0,0,-2740,-2747,0,0,0,5616,RAW_IMU,2118069312,20,10,-992,-6,0,2,298,-449,226,0,4308,BATTERY_STATUS,0,0,0,32767,[65535, 65535, 65535, 65535, 65535, 65535, 65535, 65535, 65535, 65535],-1,-1,-1,100,0,0,[0, 0, 0, 0],0,0,HEARTBEAT,6,8,0,0,0,3
11.681569814682007,VFR_HUD,0.0,0.0,56,0,-2.740000009536743,-0.0,,,,,,,,,,,,,,,,AHRS,0.006829814985394478,0.000696519622579217,-0.002002740278840065,0.0,0.0,0.000699492753483355,0.005614658817648888,GPS_RAW_INT,0,1,0,0,-17000,9999,9999,0,0,0,0,4294967295,4294967295,1000000,0,0,RC_CHANNELS,6413036,16,1502,1499,1004,1501,1000,1000,1501,1500,0,0,0,0,0,0,0,0,0,0,0,MISSION_CURRENT,0,SYS_STATUS,52485167,35684399,51413295,31,0,-1,-1,0,0,0,0,0,0,GLOBAL_POSITION_INT,6413036,0,0,-2740,-2747,0,0,0,5616,RAW_IMU,2118069312,20,10,-992,-6,0,2,298,-449,226,0,4308,BATTERY_STATUS,0,0,0,32767,[65535, 65535, 65535, 65535, 65535, 65535, 65535, 65535, 65535, 65535],-1,-1,-1,100,0,0,[0, 0, 0, 0],0,0,HEARTBEAT,6,8,0,0,0,3
11.731801271438599,VFR_HUD,0.0,0.0,56,0,-2.740000009536743,-0.0,,,,,,,,,,,,,,,,AHRS,0.006829814985394478,0.000696519622579217,-0.002002740278840065,0.0,0.0,0.000699492753483355,0.005614658817648888,GPS_RAW_INT,0,1,0,0,-17000,9999,9999,0,0,0,0,4294967295,4294967295,1000000,0,0,RC_CHANNELS,6413036,16,1502,1499,1004,1501,1000,1000,1501,1500,0,0,0,0,0,0,0,0,0,0,0,MISSION_CURRENT,0,SYS_STATUS,52485167,35684399,51413295,31,0,-1,-1,0,0,0,0,0,0,GLOBAL_POSITION_INT,6413036,0,0,-2740,-2747,0,0,0,5616,RAW_IMU,2118069312,20,10,-992,-6,0,2,298,-449,226,0,4308,BATTERY_STATUS,0,0,0,32767,[65535, 65535, 65535, 65535, 65535, 65535, 65535, 65535, 65535, 65535],-1,-1,-1,100,0,0,[0, 0, 0, 0],0,0,HEARTBEAT,6,8,0,0,0,3
11.78201174736023,VFR_HUD,0.0,0.0,56,0,-2.740000009536743,-0.0,,,,,,,,,,,,,,,,AHRS,0.006829814985394478,0.000696519622579217,-0.002002740278840065,0.0,0.0,0.000699492753483355,0.005614658817648888,GPS_RAW_INT,0,1,0,0,-17000,9999,9999,0,0,0,0,4294967295,4294967295,1000000,0,0,RC_CHANNELS,6413036,16,1502,1499,1004,1501,1000,1000,1501,1500,0,0,0,0,0,0,0,0,0,0,0,MISSION_CURRENT,0,SYS_STATUS,52485167,35684399,51413295,31,0,-1,-1,0,0,0,0,0,0,GLOBAL_POSITION_INT,6413036,0,0,-2740,-2747,0,0,0,5616,RAW_IMU,2118069312,20,10,-992,-6,0,2,298,-449,226,0,4308,BATTERY_STATUS,0,0,0,32767,[65535, 65535, 65535, 65535, 65535, 65535, 65535, 65535, 65535, 65535],-1,-1,-1,100,0,0,[0, 0, 0, 0],0,0,HEARTBEAT,6,8,0,0,0,3
11.83227801322937,VFR_HUD,0.0,0.0,56,0,-2.740000009536743,-0.0,,,,,,,,,,,,,,,,AHRS,0.006829814985394478,0.000696519622579217,-0.002002740278840065,0.0,0.0,0.000699492753483355,0.005614658817648888,GPS_RAW_INT,0,1,0,0,-17000,9999,9999,0,0,0,0,4294967295,4294967295,1000000,0,0,RC_CHANNELS,6413036,16,1502,1499,1004,1501,1000,1000,1501,1500,0,0,0,0,0,0,0,0,0,0,0,MISSION_CURRENT,0,SYS_STATUS,52485167,35684399,51413295,31,0,-1,-1,0,0,0,0,0,0,GLOBAL_POSITION_INT,6413036,0,0,-2740,-2747,0,0,0,5616,RAW_IMU,2118069312,20,10,-992,-6,0,2,298,-449,226,0,4308,BATTERY_STATUS,0,0,0,32767,[65535, 65535, 65535, 65535, 65535, 65535, 65535, 65535, 65535, 65535],-1,-1,-1,100,0,0,[0, 0, 0, 0],0,0,HEARTBEAT,6,8,0,0,0,3
11.88249158859253,VFR_HUD,0.0,0.0,56,0,-2.740000009536743,-0.0,,,,,,,,,,,,,,,,AHRS,0.006829814985394478,0.000696519622579217,-0.002002740278840065,0.0,0.0,0.000699492753483355,0.005614658817648888,GPS_RAW_INT,0,1,0,0,-17000,9999,9999,0,0,0,0,4294967295,4294967295,1000000,0,0,RC_CHANNELS,6413036,16,1502,1499,1004,1501,1000,1000,1501,1500,0,0,0,0,0,0,0,0,0,0,0,MISSION_CURRENT,0,SYS_STATUS,52485167,35684399,51413295,31,0,-1,-1,0,0,0,0,0,0,GLOBAL_POSITION_INT,6413036,0,0,-2740,-2747,0,0,0,5616,RAW_IMU,2118069312,20,10,-992,-6,0,2,298,-449,226,0,4308,BATTERY_STATUS,0,0,0,32767,[65535, 65535, 65535, 65535, 65535, 65535, 65535, 65535, 65535, 65535],-1,-1,-1,100,0,0,[0, 0, 0, 0],0,0,HEARTBEAT,6,8,0,0,0,3
11.932736158370972,VFR_HUD,0.0,0.0,56,0,-2.740000009536743,-0.0,,,,,,,,,,,,,,,,AHRS,0.006829814985394478,0.000696519622579217,-0.002002740278840065,0.0,0.0,0.000699492753483355,0.005614658817648888,GPS_RAW_INT,0,1,0,0,-17000,9999,9999,0,0,0,0,4294967295,4294967295,1000000,0,0,RC_CHANNELS,6413036,16,1502,1499,1004,1501,1000,1000,1501,1500,0,0,0,0,0,0,0,0,0,0,0,MISSION_CURRENT,0,SYS_STATUS,52485167,35684399,51413295,31,0,-1,-1,0,0,0,0,0,0,GLOBAL_POSITION_INT,6413036,0,0,-2740,-2747,0,0,0,5616,RAW_IMU,2118069312,20,10,-992,-6,0,2,298,-449,226,0,4308,BATTERY_STATUS,0,0,0,32767,[65535, 65535, 65535, 65535, 65535, 65535, 65535, 65535, 65535, 65535],-1,-1,-1,100,0,0,[0, 0, 0, 0],0,0,HEARTBEAT,6,8,0,0,0,3
11.984438419342041,VFR_HUD,0.0,0.0,56,0,-2.740000009536743,-0.0,,,,,,,,,,,,,,,,AHRS,0.006829814985394478,0.000696519622579217,-0.002002740278840065,0.0,0.0,0.000699492753483355,0.005614658817648888,GPS_RAW_INT,0,1,0,0,-17000,9999,9999,0,0,0,0,4294967295,4294967295,1000000,0,0,RC_CHANNELS,6413036,16,1502,1499,1004,1501,1000,1000,1501,1500,0,0,0,0,0,0,0,0,0,0,0,MISSION_CURRENT,0,SYS_STATUS,52485167,35684399,51413295,31,0,-1,-1,0,0,0,0,0,0,GLOBAL_POSITION_INT,6413036,0,0,-2740,-2747,0,0,0,5616,RAW_IMU,2118069312,20,10,-992,-6,0,2,298,-449,226,0,4308,BATTERY_STATUS,0,0,0,32767,[65535, 65535, 65535, 65535, 65535, 65535, 65535, 65535, 65535, 65535],-1,-1,-1,100,0,0,[0, 0, 0, 0],0,0,HEARTBEAT,6,8,0,0,0,3
12.034631252288818,VFR_HUD,0.0,0.0,56,0,-2.740000009536743,-0.0,,,,,,,,,,,,,,,,AHRS,0.006829814985394478,0.000696519622579217,-0.002002740278840065,0.0,0.0,0.000699492753483355,0.005614658817648888,GPS_RAW_INT,0,1,0,0,-17000,9999,9999,0,0,0,0,4294967295,4294967295,1000000,0,0,RC_CHANNELS,6413036,16,1502,1499,1004,1501,1000,1000,1501,1500,0,0,0,0,0,0,0,0,0,0,0,MISSION_CURRENT,0,SYS_STATUS,52485167,35684399,51413295,31,0,-1,-1,0,0,0,0,0,0,GLOBAL_POSITION_INT,6413036,0,0,-2740,-2747,0,0,0,5616,RAW_IMU,2118069312,20,10,-992,-6,0,2,298,-449,226,0,4308,BATTERY_STATUS,0,0,0,32767,[65535, 65535, 65535, 65535, 65535, 65535, 65535, 65535, 65535, 65535],-1,-1,-1,100,0,0,[0, 0, 0, 0],0,0,HEARTBEAT,6,8,0,0,0,3
12.085103273391724,VFR_HUD,0.0,0.0,56,0,-2.7200000286102295,-0.0,,,,,,,,,,,,,,,,AHRS,0.006829814985394478,0.000696519622579217,-0.002002740278840065,0.0,0.0,0.0006792902131564915,0.005357328336685896,GPS_RAW_INT,0,1,0,0,-17000,9999,9999,0,0,0,0,4294967295,4294967295,1000000,0,0,RC_CHANNELS,6413536,16,1501,1500,1004,1501,1000,1000,1500,1501,0,0,0,0,0,0,0,0,0,0,0,MISSION_CURRENT,0,SYS_STATUS,52485167,35684399,51413295,31,0,-1,-1,0,0,0,0,0,0,GLOBAL_POSITION_INT,6413536,0,0,-2720,-2726,0,0,0,5612,RAW_IMU,2118569323,19,10,-991,-7,0,1,293,-446,238,0,4308,BATTERY_STATUS,0,0,0,32767,[65535, 65535, 65535, 65535, 65535, 65535, 65535, 65535, 65535, 65535],-1,-1,-1,100,0,0,[0, 0, 0, 0],0,0,HEARTBEAT,6,8,0,0,0,3
12.136389970779419,VFR_HUD,0.0,0.0,56,0,-2.7200000286102295,-0.0,,,,,,,,,,,,,,,,AHRS,0.006829814985394478,0.000696519622579217,-0.002002740278840065,0.0,0.0,0.0006792902131564915,0.005357328336685896,GPS_RAW_INT,0,1,0,0,-17000,9999,9999,0,0,0,0,4294967295,4294967295,1000000,0,0,RC_CHANNELS,6413536,16,1501,1500,1004,1501,1000,1000,1500,1501,0,0,0,0,0,0,0,0,0,0,0,MISSION_CURRENT,0,SYS_STATUS,52485167,35684399,51413295,31,0,-1,-1,0,0,0,0,0,0,GLOBAL_POSITION_INT,6413536,0,0,-2720,-2726,0,0,0,5612,RAW_IMU,2118569323,19,10,-991,-7,0,1,293,-446,238,0,4308,BATTERY_STATUS,0,0,0,32767,[65535, 65535, 65535, 65535, 65535, 65535, 65535, 65535, 65535, 65535],-1,-1,-1,100,0,0,[0, 0, 0, 0],0,0,HEARTBEAT,6,8,0,0,0,3
12.187930583953857,VFR_HUD,0.0,0.0,56,0,-2.7200000286102295,-0.0,,,,,,,,,,,,,,,,AHRS,0.006829814985394478,0.000696519622579217,-0.002002740278840065,0.0,0.0,0.0006792902131564915,0.005357328336685896,GPS_RAW_INT,0,1,0,0,-17000,9999,9999,0,0,0,0,4294967295,4294967295,1000000,0,0,RC_CHANNELS,6413536,16,1501,1500,1004,1501,1000,1000,1500,1501,0,0,0,0,0,0,0,0,0,0,0,MISSION_CURRENT,0,SYS_STATUS,52485167,35684399,51413295,31,0,-1,-1,0,0,0,0,0,0,GLOBAL_POSITION_INT,6413536,0,0,-2720,-2726,0,0,0,5612,RAW_IMU,2118569323,19,10,-991,-7,0,1,293,-446,238,0,4308,BATTERY_STATUS,0,0,0,32767,[65535, 65535, 65535, 65535, 65535, 65535, 65535, 65535, 65535, 65535],-1,-1,-1,100,0,0,[0, 0, 0, 0],0,0,HEARTBEAT,6,8,0,0,0,3
12.239402294158936,VFR_HUD,0.0,0.0,56,0,-2.7200000286102295,-0.0,,,,,,,,,,,,,,,,AHRS,0.006829814985394478,0.000696519622579217,-0.002002740278840065,0.0,0.0,0.0006792902131564915,0.005357328336685896,GPS_RAW_INT,0,1,0,0,-17000,9999,9999,0,0,0,0,4294967295,4294967295,1000000,0,0,RC_CHANNELS,6413536,16,1501,1500,1004,1501,1000,1000,1500,1501,0,0,0,0,0,0,0,0,0,0,0,MISSION_CURRENT,0,SYS_STATUS,52485167,35684399,51413295,31,0,-1,-1,0,0,0,0,0,0,GLOBAL_POSITION_INT,6413536,0,0,-2720,-2726,0,0,0,5612,RAW_IMU,2118569323,19,10,-991,-7,0,1,293,-446,238,0,4308,BATTERY_STATUS,0,0,0,32767,[65535, 65535, 65535, 65535, 65535, 65535, 65535, 65535, 65535, 65535],-1,-1,-1,100,0,0,[0, 0, 0, 0],0,0,HEARTBEAT,6,8,0,0,0,3
12.292409181594849,VFR_HUD,0.0,0.0,56,0,-2.7200000286102295,-0.0,,,,,,,,,,,,,,,,AHRS,0.006829814985394478,0.000696519622579217,-0.002002740278840065,0.0,0.0,0.0006792902131564915,0.005357328336685896,GPS_RAW_INT,0,1,0,0,-17000,9999,9999,0,0,0,0,4294967295,4294967295,1000000,0,0,RC_CHANNELS,6413536,16,1501,1500,1004,1501,1000,1000,1500,1501,0,0,0,0,0,0,0,0,0,0,0,MISSION_CURRENT,0,SYS_STATUS,52485167,35684399,51413295,31,0,-1,-1,0,0,0,0,0,0,GLOBAL_POSITION_INT,6413536,0,0,-2720,-2726,0,0,0,5612,RAW_IMU,2118569323,19,10,-991,-7,0,1,293,-446,238,0,4308,BATTERY_STATUS,0,0,0,32767,[65535, 65535, 65535, 65535, 65535, 65535, 65535, 65535, 65535, 65535],-1,-1,-1,100,0,0,[0, 0, 0, 0],0,0,HEARTBEAT,6,8,0,0,0,3
12.34386157989502,VFR_HUD,0.0,0.0,56,0,-2.7200000286102295,-0.0,,,,,,,,,,,,,,,,AHRS,0.006829814985394478,0.000696519622579217,-0.002002740278840065,0.0,0.0,0.0006792902131564915,0.005357328336685896,GPS_RAW_INT,0,1,0,0,-17000,9999,9999,0,0,0,0,4294967295,4294967295,1000000,0,0,RC_CHANNELS,6413536,16,1501,1500,1004,1501,1000,1000,1500,1501,0,0,0,0,0,0,0,0,0,0,0,MISSION_CURRENT,0,SYS_STATUS,52485167,35684399,51413295,31,0,-1,-1,0,0,0,0,0,0,GLOBAL_POSITION_INT,6413536,0,0,-2720,-2726,0,0,0,5612,RAW_IMU,2118569323,19,10,-991,-7,0,1,293,-446,238,0,4308,BATTERY_STATUS,0,0,0,32767,[65535, 65535, 65535, 65535, 65535, 65535, 65535, 65535, 65535, 65535],-1,-1,-1,100,0,0,[0, 0, 0, 0],0,0,HEARTBEAT,6,8,0,0,0,3
12.446187734603882,VFR_HUD,0.0,0.0,56,0,-2.7200000286102295,-0.0,,,,,,,,,,,,,,,,AHRS,0.006829814985394478,0.000696519622579217,-0.002002740278840065,0.0,0.0,0.0006792902131564915,0.005357328336685896,GPS_RAW_INT,0,1,0,0,-17000,9999,9999,0,0,0,0,4294967295,4294967295,1000000,0,0,RC_CHANNELS,6413536,16,1501,1500,1004,1501,1000,1000,1500,1501,0,0,0,0,0,0,0,0,0,0,0,MISSION_CURRENT,0,SYS_STATUS,52485167,35684399,51413295,31,0,-1,-1,0,0,0,0,0,0,GLOBAL_POSITION_INT,6413536,0,0,-2720,-2726,0,0,0,5612,RAW_IMU,2118569323,19,10,-991,-7,0,1,293,-446,238,0,4308,BATTERY_STATUS,0,0,0,32767,[65535, 65535, 65535, 65535, 65535, 65535, 65535, 65535, 65535, 65535],-1,-1,-1,100,0,0,[0, 0, 0, 0],0,0,HEARTBEAT,6,8,0,0,0,3
12.496409893035889,VFR_HUD,0.0,0.0,56,0,-2.7200000286102295,-0.0,,,,,,,,,,,,,,,,AHRS,0.006829814985394478,0.000696519622579217,-0.002002740278840065,0.0,0.0,0.0006792902131564915,0.005357328336685896,GPS_RAW_INT,0,1,0,0,-17000,9999,9999,0,0,0,0,4294967295,4294967295,1000000,0,0,RC_CHANNELS,6413536,16,1501,1500,1004,1501,1000,1000,1500,1501,0,0,0,0,0,0,0,0,0,0,0,MISSION_CURRENT,0,SYS_STATUS,52485167,35684399,51413295,30,0,-1,-1,0,0,0,0,0,0,GLOBAL_POSITION_INT,6414036,0,0,-2600,-2608,0,0,0,5611,RAW_IMU,2118569323,19,10,-991,-7,0,1,293,-446,238,0,4308,BATTERY_STATUS,0,0,0,32767,[65535, 65535, 65535, 65535, 65535, 65535, 65535, 65535, 65535, 65535],-1,-1,-1,100,0,0,[0, 0, 0, 0],0,0,HEARTBEAT,6,8,0,0,0,3
12.546602964401245,VFR_HUD,0.0,0.0,56,0,-2.5999999046325684,-0.0,,,,,,,,,,,,,,,,AHRS,0.006829814985394478,0.000696519622579217,-0.002002740278840065,0.0,0.0,0.0006792902131564915,0.005357328336685896,GPS_RAW_INT,0,1,0,0,-17000,9999,9999,0,0,0,0,4294967295,4294967295,1000000,0,0,RC_CHANNELS,6414036,16,1501,1499,1005,1501,1000,1000,1500,1500,0,0,0,0,0,0,0,0,0,0,0,MISSION_CURRENT,0,SYS_STATUS,52485167,35684399,51413295,30,0,-1,-1,0,0,0,0,0,0,GLOBAL_POSITION_INT,6414036,0,0,-2600,-2608,0,0,0,5611,RAW_IMU,2119069305,20,12,-992,-6,-1,1,296,-445,238,0,4308,BATTERY_STATUS,0,0,0,32767,[65535, 65535, 65535, 65535, 65535, 65535, 65535, 65535, 65535, 65535],-1,-1,-1,100,0,0,[0, 0, 0, 0],0,0,HEARTBEAT,6,8,0,0,0,3
12.596817016601562,VFR_HUD,0.0,0.0,56,0,-2.5999999046325684,-0.0,,,,,,,,,,,,,,,,AHRS,0.006829814985394478,0.000696519622579217,-0.002002740278840065,0.0,0.0,0.0006115436553955078,0.005181241314858198,GPS_RAW_INT,0,1,0,0,-17000,9999,9999,0,0,0,0,4294967295,4294967295,1000000,0,0,RC_CHANNELS,6414036,16,1501,1499,1005,1501,1000,1000,1500,1500,0,0,0,0,0,0,0,0,0,0,0,MISSION_CURRENT,0,SYS_STATUS,52485167,35684399,51413295,30,0,-1,-1,0,0,0,0,0,0,GLOBAL_POSITION_INT,6414036,0,0,-2600,-2608,0,0,0,5611,RAW_IMU,2119069305,20,12,-992,-6,-1,1,296,-445,238,0,4308,BATTERY_STATUS,0,0,0,32767,[65535, 65535, 65535, 65535, 65535, 65535, 65535, 65535, 65535, 65535],-1,-1,-1,100,0,0,[0, 0, 0, 0],0,0,HEARTBEAT,6,8,0,0,0,3
12.647050380706787,VFR_HUD,0.0,0.0,56,0,-2.5999999046325684,-0.0,,,,,,,,,,,,,,,,AHRS,0.006829814985394478,0.000696519622579217,-0.002002740278840065,0.0,0.0,0.0006115436553955078,0.005181241314858198,GPS_RAW_INT,0,1,0,0,-17000,9999,9999,0,0,0,0,4294967295,4294967295,1000000,0,0,RC_CHANNELS,6414036,16,1501,1499,1005,1501,1000,1000,1500,1500,0,0,0,0,0,0,0,0,0,0,0,MISSION_CURRENT,0,SYS_STATUS,52485167,35684399,51413295,30,0,-1,-1,0,0,0,0,0,0,GLOBAL_POSITION_INT,6414036,0,0,-2600,-2608,0,0,0,5611,RAW_IMU,2119069305,20,12,-992,-6,-1,1,296,-445,238,0,4308,BATTERY_STATUS,0,0,0,32767,[65535, 65535, 65535, 65535, 65535, 65535, 65535, 65535, 65535, 65535],-1,-1,-1,100,0,0,[0, 0, 0, 0],0,0,HEARTBEAT,6,8,0,0,0,3
12.697236061096191,VFR_HUD,0.0,0.0,56,0,-2.5999999046325684,-0.0,,,,,,,,,,,,,,,,AHRS,0.006829814985394478,0.000696519622579217,-0.002002740278840065,0.0,0.0,0.0006115436553955078,0.005181241314858198,GPS_RAW_INT,0,1,0,0,-17000,9999,9999,0,0,0,0,4294967295,4294967295,1000000,0,0,RC_CHANNELS,6414036,16,1501,1499,1005,1501,1000,1000,1500,1500,0,0,0,0,0,0,0,0,0,0,0,MISSION_CURRENT,0,SYS_STATUS,52485167,35684399,51413295,30,0,-1,-1,0,0,0,0,0,0,GLOBAL_POSITION_INT,6414036,0,0,-2600,-2608,0,0,0,5611,RAW_IMU,2119069305,20,12,-992,-6,-1,1,296,-445,238,0,4308,BATTERY_STATUS,0,0,0,32767,[65535, 65535, 65535, 65535, 65535, 65535, 65535, 65535, 65535, 65535],-1,-1,-1,100,0,0,[0, 0, 0, 0],0,0,HEARTBEAT,6,8,0,0,0,3
12.74748682975769,VFR_HUD,0.0,0.0,56,0,-2.5999999046325684,-0.0,,,,,,,,,,,,,,,,AHRS,0.006829814985394478,0.000696519622579217,-0.002002740278840065,0.0,0.0,0.0006115436553955078,0.005181241314858198,GPS_RAW_INT,0,1,0,0,-17000,9999,9999,0,0,0,0,4294967295,4294967295,1000000,0,0,RC_CHANNELS,6414036,16,1501,1499,1005,1501,1000,1000,1500,1500,0,0,0,0,0,0,0,0,0,0,0,MISSION_CURRENT,0,SYS_STATUS,52485167,35684399,51413295,30,0,-1,-1,0,0,0,0,0,0,GLOBAL_POSITION_INT,6414036,0,0,-2600,-2608,0,0,0,5611,RAW_IMU,2119069305,20,12,-992,-6,-1,1,296,-445,238,0,4308,BATTERY_STATUS,0,0,0,32767,[65535, 65535, 65535, 65535, 65535, 65535, 65535, 65535, 65535, 65535],-1,-1,-1,100,0,0,[0, 0, 0, 0],0,0,HEARTBEAT,6,8,0,0,0,3
12.797719240188599,VFR_HUD,0.0,0.0,56,0,-2.5999999046325684,-0.0,,,,,,,,,,,,,,,,AHRS,0.006829814985394478,0.000696519622579217,-0.002002740278840065,0.0,0.0,0.0006115436553955078,0.005181241314858198,GPS_RAW_INT,0,1,0,0,-17000,9999,9999,0,0,0,0,4294967295,4294967295,1000000,0,0,RC_CHANNELS,6414036,16,1501,1499,1005,1501,1000,1000,1500,1500,0,0,0,0,0,0,0,0,0,0,0,MISSION_CURRENT,0,SYS_STATUS,52485167,35684399,51413295,30,0,-1,-1,0,0,0,0,0,0,GLOBAL_POSITION_INT,6414036,0,0,-2600,-2608,0,0,0,5611,RAW_IMU,2119069305,20,12,-992,-6,-1,1,296,-445,238,0,4308,BATTERY_STATUS,0,0,0,32767,[65535, 65535, 65535, 65535, 65535, 65535, 65535, 65535, 65535, 65535],-1,-1,-1,100,0,0,[0, 0, 0, 0],0,0,HEARTBEAT,6,8,0,0,0,3
12.847947120666504,VFR_HUD,0.0,0.0,56,0,-2.5999999046325684,-0.0,,,,,,,,,,,,,,,,AHRS,0.006829814985394478,0.000696519622579217,-0.002002740278840065,0.0,0.0,0.0006115436553955078,0.005181241314858198,GPS_RAW_INT,0,1,0,0,-17000,9999,9999,0,0,0,0,4294967295,4294967295,1000000,0,0,RC_CHANNELS,6414036,16,1501,1499,1005,1501,1000,1000,1500,1500,0,0,0,0,0,0,0,0,0,0,0,MISSION_CURRENT,0,SYS_STATUS,52485167,35684399,51413295,30,0,-1,-1,0,0,0,0,0,0,GLOBAL_POSITION_INT,6414036,0,0,-2600,-2608,0,0,0,5611,RAW_IMU,2119069305,20,12,-992,-6,-1,1,296,-445,238,0,4308,BATTERY_STATUS,0,0,0,32767,[65535, 65535, 65535, 65535, 65535, 65535, 65535, 65535, 65535, 65535],-1,-1,-1,100,0,0,[0, 0, 0, 0],0,0,HEARTBEAT,6,8,0,0,0,3
12.89814829826355,VFR_HUD,0.0,0.0,56,0,-2.5999999046325684,-0.0,,,,,,,,,,,,,,,,AHRS,0.006829814985394478,0.000696519622579217,-0.002002740278840065,0.0,0.0,0.0006115436553955078,0.005181241314858198,GPS_RAW_INT,0,1,0,0,-17000,9999,9999,0,0,0,0,4294967295,4294967295,1000000,0,0,RC_CHANNELS,6414036,16,1501,1499,1005,1501,1000,1000,1500,1500,0,0,0,0,0,0,0,0,0,0,0,MISSION_CURRENT,0,SYS_STATUS,52485167,35684399,51413295,30,0,-1,-1,0,0,0,0,0,0,GLOBAL_POSITION_INT,6414036,0,0,-2600,-2608,0,0,0,5611,RAW_IMU,2119069305,20,12,-992,-6,-1,1,296,-445,238,0,4308,BATTERY_STATUS,0,0,0,32767,[65535, 65535, 65535, 65535, 65535, 65535, 65535, 65535, 65535, 65535],-1,-1,-1,100,0,0,[0, 0, 0, 0],0,0,HEARTBEAT,6,8,0,0,0,3
12.948418140411377,VFR_HUD,0.0,0.0,56,0,-2.5999999046325684,-0.0,,,,,,,,,,,,,,,,AHRS,0.006829814985394478,0.000696519622579217,-0.002002740278840065,0.0,0.0,0.0006115436553955078,0.005181241314858198,GPS_RAW_INT,0,1,0,0,-17000,9999,9999,0,0,0,0,4294967295,4294967295,1000000,0,0,RC_CHANNELS,6414036,16,1501,1499,1005,1501,1000,1000,1500,1500,0,0,0,0,0,0,0,0,0,0,0,MISSION_CURRENT,0,SYS_STATUS,52485167,35684399,51413295,30,0,-1,-1,0,0,0,0,0,0,GLOBAL_POSITION_INT,6414036,0,0,-2600,-2608,0,0,0,5611,RAW_IMU,2119069305,20,12,-992,-6,-1,1,296,-445,238,0,4308,BATTERY_STATUS,0,0,0,32767,[65535, 65535, 65535, 65535, 65535, 65535, 65535, 65535, 65535, 65535],-1,-1,-1,100,0,0,[0, 0, 0, 0],0,0,HEARTBEAT,6,8,0,0,0,3
12.998674392700195,VFR_HUD,0.0,0.0,56,0,-2.5999999046325684,-0.0,,,,,,,,,,,,,,,,AHRS,0.006829814985394478,0.000696519622579217,-0.002002740278840065,0.0,0.0,0.0006115436553955078,0.005181241314858198,GPS_RAW_INT,0,1,0,0,-17000,9999,9999,0,0,0,0,4294967295,4294967295,1000000,0,0,RC_CHANNELS,6414036,16,1501,1499,1005,1501,1000,1000,1500,1500,0,0,0,0,0,0,0,0,0,0,0,MISSION_CURRENT,0,SYS_STATUS,52485167,35684399,51413295,30,0,-1,-1,0,0,0,0,0,0,GLOBAL_POSITION_INT,6414036,0,0,-2600,-2608,0,0,0,5611,RAW_IMU,2119069305,20,12,-992,-6,-1,1,296,-445,238,0,4308,BATTERY_STATUS,0,0,0,32767,[65535, 65535, 65535, 65535, 65535, 65535, 65535, 65535, 65535, 65535],-1,-1,-1,100,0,0,[0, 0, 0, 0],0,0,HEARTBEAT,6,8,0,0,0,3
13.048878192901611,VFR_HUD,0.0,0.0,56,0,-2.5999999046325684,-0.0,,,,,,,,,,,,,,,,AHRS,0.006829814985394478,0.000696519622579217,-0.002002740278840065,0.0,0.0,0.0006115436553955078,0.005181241314858198,GPS_RAW_INT,0,1,0,0,-17000,9999,9999,0,0,0,0,4294967295,4294967295,1000000,0,0,RC_CHANNELS,6414036,16,1501,1499,1005,1501,1000,1000,1500,1500,0,0,0,0,0,0,0,0,0,0,0,MISSION_CURRENT,0,SYS_STATUS,52485167,35684399,51413295,30,0,-1,-1,0,0,0,0,0,0,GLOBAL_POSITION_INT,6414036,0,0,-2600,-2608,0,0,0,5611,RAW_IMU,2119069305,20,12,-992,-6,-1,1,296,-445,238,0,4308,BATTERY_STATUS,0,0,0,32767,[65535, 65535, 65535, 65535, 65535, 65535, 65535, 65535, 65535, 65535],-1,-1,-1,100,0,0,[0, 0, 0, 0],0,0,HEARTBEAT,6,8,0,0,0,3
13.099096775054932,VFR_HUD,0.0,0.0,56,0,-2.5999999046325684,-0.0,,,,,,,,,,,,,,,,AHRS,0.006829814985394478,0.000696519622579217,-0.002002740278840065,0.0,0.0,0.0006115436553955078,0.005181241314858198,GPS_RAW_INT,0,1,0,0,-17000,9999,9999,0,0,0,0,4294967295,4294967295,1000000,0,0,RC_CHANNELS,6414036,16,1501,1499,1005,1501,1000,1000,1500,1500,0,0,0,0,0,0,0,0,0,0,0,MISSION_CURRENT,0,SYS_STATUS,52485167,35684399,51413295,30,0,-1,-1,0,0,0,0,0,0,GLOBAL_POSITION_INT,6414036,0,0,-2600,-2608,0,0,0,5611,RAW_IMU,2119069305,20,12,-992,-6,-1,1,296,-445,238,0,4308,BATTERY_STATUS,0,0,0,32767,[65535, 65535, 65535, 65535, 65535, 65535, 65535, 65535, 65535, 65535],-1,-1,-1,100,0,0,[0, 0, 0, 0],0,0,HEARTBEAT,6,8,0,0,0,3
13.149333953857422,VFR_HUD,0.0,0.0,56,0,-2.5999999046325684,-0.0,,,,,,,,,,,,,,,,AHRS,0.006829814985394478,0.000696519622579217,-0.002002740278840065,0.0,0.0,0.0006115436553955078,0.005181241314858198,GPS_RAW_INT,0,1,0,0,-17000,9999,9999,0,0,0,0,4294967295,4294967295,1000000,0,0,RC_CHANNELS,6414036,16,1501,1499,1005,1501,1000,1000,1500,1500,0,0,0,0,0,0,0,0,0,0,0,MISSION_CURRENT,0,SYS_STATUS,52485167,35684399,51413295,30,0,-1,-1,0,0,0,0,0,0,GLOBAL_POSITION_INT,6414036,0,0,-2600,-2608,0,0,0,5611,RAW_IMU,2119069305,20,12,-992,-6,-1,1,296,-445,238,0,4308,BATTERY_STATUS,0,0,0,32767,[65535, 65535, 65535, 65535, 65535, 65535, 65535, 65535, 65535, 65535],-1,-1,-1,100,0,0,[0, 0, 0, 0],0,0,HEARTBEAT,6,8,0,0,0,3
13.19952654838562,VFR_HUD,0.0,0.0,56,0,-2.5999999046325684,-0.0,,,,,,,,,,,,,,,,AHRS,0.006829814985394478,0.000696519622579217,-0.002002740278840065,0.0,0.0,0.0006115436553955078,0.005181241314858198,GPS_RAW_INT,0,1,0,0,-17000,9999,9999,0,0,0,0,4294967295,4294967295,1000000,0,0,RC_CHANNELS,6414036,16,1501,1499,1005,1501,1000,1000,1500,1500,0,0,0,0,0,0,0,0,0,0,0,MISSION_CURRENT,0,SYS_STATUS,52485167,35684399,51413295,30,0,-1,-1,0,0,0,0,0,0,GLOBAL_POSITION_INT,6414036,0,0,-2600,-2608,0,0,0,5611,RAW_IMU,2119069305,20,12,-992,-6,-1,1,296,-445,238,0,4308,BATTERY_STATUS,0,0,0,32767,[65535, 65535, 65535, 65535, 65535, 65535, 65535, 65535, 65535, 65535],-1,-1,-1,100,0,0,[0, 0, 0, 0],0,0,HEARTBEAT,6,8,0,0,0,3
13.24976134300232,VFR_HUD,0.0,0.0,56,0,-2.5999999046325684,-0.0,,,,,,,,,,,,,,,,AHRS,0.006829814985394478,0.000696519622579217,-0.002002740278840065,0.0,0.0,0.0006115436553955078,0.005181241314858198,GPS_RAW_INT,0,1,0,0,-17000,9999,9999,0,0,0,0,4294967295,4294967295,1000000,0,0,RC_CHANNELS,6414036,16,1501,1499,1005,1501,1000,1000,1500,1500,0,0,0,0,0,0,0,0,0,0,0,MISSION_CURRENT,0,SYS_STATUS,52485167,35684399,51413295,30,0,-1,-1,0,0,0,0,0,0,GLOBAL_POSITION_INT,6414036,0,0,-2600,-2608,0,0,0,5611,RAW_IMU,2119069305,20,12,-992,-6,-1,1,296,-445,238,0,4308,BATTERY_STATUS,0,0,0,32767,[65535, 65535, 65535, 65535, 65535, 65535, 65535, 65535, 65535, 65535],-1,-1,-1,100,0,0,[0, 0, 0, 0],0,0,HEARTBEAT,6,8,0,0,0,3
13.299985408782959,VFR_HUD,0.0,0.0,56,0,-2.5999999046325684,-0.0,,,,,,,,,,,,,,,,AHRS,0.006829814985394478,0.000696519622579217,-0.002002740278840065,0.0,0.0,0.0006115436553955078,0.005181241314858198,GPS_RAW_INT,0,1,0,0,-17000,9999,9999,0,0,0,0,4294967295,4294967295,1000000,0,0,RC_CHANNELS,6414036,16,1501,1499,1005,1501,1000,1000,1500,1500,0,0,0,0,0,0,0,0,0,0,0,MISSION_CURRENT,0,SYS_STATUS,52485167,35684399,51413295,30,0,-1,-1,0,0,0,0,0,0,GLOBAL_POSITION_INT,6414036,0,0,-2600,-2608,0,0,0,5611,RAW_IMU,2119069305,20,12,-992,-6,-1,1,296,-445,238,0,4308,BATTERY_STATUS,0,0,0,32767,[65535, 65535, 65535, 65535, 65535, 65535, 65535, 65535, 65535, 65535],-1,-1,-1,100,0,0,[0, 0, 0, 0],0,0,HEARTBEAT,6,8,0,0,0,3
13.35018014907837,VFR_HUD,0.0,0.0,56,0,-2.5999999046325684,-0.0,,,,,,,,,,,,,,,,AHRS,0.006829814985394478,0.000696519622579217,-0.002002740278840065,0.0,0.0,0.0006115436553955078,0.005181241314858198,GPS_RAW_INT,0,1,0,0,-17000,9999,9999,0,0,0,0,4294967295,4294967295,1000000,0,0,RC_CHANNELS,6414036,16,1501,1499,1005,1501,1000,1000,1500,1500,0,0,0,0,0,0,0,0,0,0,0,MISSION_CURRENT,0,SYS_STATUS,52485167,35684399,51413295,30,0,-1,-1,0,0,0,0,0,0,GLOBAL_POSITION_INT,6414036,0,0,-2600,-2608,0,0,0,5611,RAW_IMU,2119069305,20,12,-992,-6,-1,1,296,-445,238,0,4308,BATTERY_STATUS,0,0,0,32767,[65535, 65535, 65535, 65535, 65535, 65535, 65535, 65535, 65535, 65535],-1,-1,-1,100,0,0,[0, 0, 0, 0],0,0,HEARTBEAT,6,8,0,0,0,3
13.400372743606567,VFR_HUD,0.0,0.0,56,0,-2.569999933242798,-0.0,,,,,,,,,,,,,,,,AHRS,0.006829814985394478,0.000696519622579217,-0.002002740278840065,0.0,0.0,0.0005812764866277575,0.005826001986861229,GPS_RAW_INT,0,1,0,0,-17000,9999,9999,0,0,0,0,4294967295,4294967295,1000000,0,0,RC_CHANNELS,6414536,16,1501,1499,1004,1502,1000,1000,1500,1500,0,0,0,0,0,0,0,0,0,0,0,MISSION_CURRENT,0,SYS_STATUS,52485167,35684399,51413295,32,0,-1,-1,0,0,0,0,0,0,GLOBAL_POSITION_INT,6414536,0,0,-2570,-2570,0,0,0,5608,RAW_IMU,2119569310,19,11,-991,-6,0,1,293,-442,228,0,4308,BATTERY_STATUS,0,0,0,32767,[65535, 65535, 65535, 65535, 65535, 65535, 65535, 65535, 65535, 65535],-1,-1,-1,100,0,0,[0, 0, 0, 0],0,0,HEARTBEAT,6,8,0,0,0,3
13.450592994689941,VFR_HUD,0.0,0.0,56,0,-2.569999933242798,-0.0,,,,,,,,,,,,,,,,AHRS,0.006829814985394478,0.000696519622579217,-0.002002740278840065,0.0,0.0,0.0005812764866277575,0.005826001986861229,GPS_RAW_INT,0,1,0,0,-17000,9999,9999,0,0,0,0,4294967295,4294967295,1000000,0,0,RC_CHANNELS,6414536,16,1501,1499,1004,1502,1000,1000,1500,1500,0,0,0,0,0,0,0,0,0,0,0,MISSION_CURRENT,0,SYS_STATUS,52485167,35684399,51413295,32,0,-1,-1,0,0,0,0,0,0,GLOBAL_POSITION_INT,6414536,0,0,-2570,-2570,0,0,0,5608,RAW_IMU,2119569310,19,11,-991,-6,0,1,293,-442,228,0,4308,BATTERY_STATUS,0,0,0,32767,[65535, 65535, 65535, 65535, 65535, 65535, 65535, 65535, 65535, 65535],-1,-1,-1,100,0,0,[0, 0, 0, 0],0,0,HEARTBEAT,6,8,0,0,0,3
13.500828266143799,VFR_HUD,0.0,0.0,56,0,-2.569999933242798,-0.0,,,,,,,,,,,,,,,,AHRS,0.006829814985394478,0.000696519622579217,-0.002002740278840065,0.0,0.0,0.0005812764866277575,0.005826001986861229,GPS_RAW_INT,0,1,0,0,-17000,9999,9999,0,0,0,0,4294967295,4294967295,1000000,0,0,RC_CHANNELS,6414536,16,1501,1499,1004,1502,1000,1000,1500,1500,0,0,0,0,0,0,0,0,0,0,0,MISSION_CURRENT,0,SYS_STATUS,52485167,35684399,51413295,32,0,-1,-1,0,0,0,0,0,0,GLOBAL_POSITION_INT,6414536,0,0,-2570,-2570,0,0,0,5608,RAW_IMU,2119569310,19,11,-991,-6,0,1,293,-442,228,0,4308,BATTERY_STATUS,0,0,0,32767,[65535, 65535, 65535, 65535, 65535, 65535, 65535, 65535, 65535, 65535],-1,-1,-1,100,0,0,[0, 0, 0, 0],0,0,HEARTBEAT,6,8,0,0,0,3
13.5514235496521,VFR_HUD,0.0,0.0,56,0,-2.569999933242798,-0.0,,,,,,,,,,,,,,,,AHRS,0.006829814985394478,0.000696519622579217,-0.002002740278840065,0.0,0.0,0.0005812764866277575,0.005826001986861229,GPS_RAW_INT,0,1,0,0,-17000,9999,9999,0,0,0,0,4294967295,4294967295,1000000,0,0,RC_CHANNELS,6414536,16,1501,1499,1004,1502,1000,1000,1500,1500,0,0,0,0,0,0,0,0,0,0,0,MISSION_CURRENT,0,SYS_STATUS,52485167,35684399,51413295,32,0,-1,-1,0,0,0,0,0,0,GLOBAL_POSITION_INT,6414536,0,0,-2570,-2570,0,0,0,5608,RAW_IMU,2119569310,19,11,-991,-6,0,1,293,-442,228,0,4308,BATTERY_STATUS,0,0,0,32767,[65535, 65535, 65535, 65535, 65535, 65535, 65535, 65535, 65535, 65535],-1,-1,-1,100,0,0,[0, 0, 0, 0],0,0,HEARTBEAT,6,8,0,0,0,3
13.601635694503784,VFR_HUD,0.0,0.0,56,0,-2.569999933242798,-0.0,,,,,,,,,,,,,,,,AHRS,0.006829814985394478,0.000696519622579217,-0.002002740278840065,0.0,0.0,0.0005812764866277575,0.005826001986861229,GPS_RAW_INT,0,1,0,0,-17000,9999,9999,0,0,0,0,4294967295,4294967295,1000000,0,0,RC_CHANNELS,6414536,16,1501,1499,1004,1502,1000,1000,1500,1500,0,0,0,0,0,0,0,0,0,0,0,MISSION_CURRENT,0,SYS_STATUS,52485167,35684399,51413295,32,0,-1,-1,0,0,0,0,0,0,GLOBAL_POSITION_INT,6414536,0,0,-2570,-2570,0,0,0,5608,RAW_IMU,2119569310,19,11,-991,-6,0,1,293,-442,228,0,4308,BATTERY_STATUS,0,0,0,32767,[65535, 65535, 65535, 65535, 65535, 65535, 65535, 65535, 65535, 65535],-1,-1,-1,100,0,0,[0, 0, 0, 0],0,0,HEARTBEAT,6,8,0,0,0,3
13.651866436004639,VFR_HUD,0.0,0.0,56,0,-2.569999933242798,-0.0,,,,,,,,,,,,,,,,AHRS,0.006829814985394478,0.000696519622579217,-0.002002740278840065,0.0,0.0,0.0005812764866277575,0.005826001986861229,GPS_RAW_INT,0,1,0,0,-17000,9999,9999,0,0,0,0,4294967295,4294967295,1000000,0,0,RC_CHANNELS,6414536,16,1501,1499,1004,1502,1000,1000,1500,1500,0,0,0,0,0,0,0,0,0,0,0,MISSION_CURRENT,0,SYS_STATUS,52485167,35684399,51413295,32,0,-1,-1,0,0,0,0,0,0,GLOBAL_POSITION_INT,6414536,0,0,-2570,-2570,0,0,0,5608,RAW_IMU,2119569310,19,11,-991,-6,0,1,293,-442,228,0,4308,BATTERY_STATUS,0,0,0,32767,[65535, 65535, 65535, 65535, 65535, 65535, 65535, 65535, 65535, 65535],-1,-1,-1,100,0,0,[0, 0, 0, 0],0,0,HEARTBEAT,6,8,0,0,0,3
13.702354669570923,VFR_HUD,0.0,0.0,56,0,-2.569999933242798,-0.0,,,,,,,,,,,,,,,,AHRS,0.006829814985394478,0.000696519622579217,-0.002002740278840065,0.0,0.0,0.0005812764866277575,0.005826001986861229,GPS_RAW_INT,0,1,0,0,-17000,9999,9999,0,0,0,0,4294967295,4294967295,1000000,0,0,RC_CHANNELS,6414536,16,1501,1499,1004,1502,1000,1000,1500,1500,0,0,0,0,0,0,0,0,0,0,0,MISSION_CURRENT,0,SYS_STATUS,52485167,35684399,51413295,32,0,-1,-1,0,0,0,0,0,0,GLOBAL_POSITION_INT,6414536,0,0,-2570,-2570,0,0,0,5608,RAW_IMU,2119569310,19,11,-991,-6,0,1,293,-442,228,0,4308,BATTERY_STATUS,0,0,0,32767,[65535, 65535, 65535, 65535, 65535, 65535, 65535, 65535, 65535, 65535],-1,-1,-1,100,0,0,[0, 0, 0, 0],0,0,HEARTBEAT,6,8,0,0,0,3
13.75257420539856,VFR_HUD,0.0,0.0,56,0,-2.569999933242798,-0.0,,,,,,,,,,,,,,,,AHRS,0.006829814985394478,0.000696519622579217,-0.002002740278840065,0.0,0.0,0.0005812764866277575,0.005826001986861229,GPS_RAW_INT,0,1,0,0,-17000,9999,9999,0,0,0,0,4294967295,4294967295,1000000,0,0,RC_CHANNELS,6414536,16,1501,1499,1004,1502,1000,1000,1500,1500,0,0,0,0,0,0,0,0,0,0,0,MISSION_CURRENT,0,SYS_STATUS,52485167,35684399,51413295,32,0,-1,-1,0,0,0,0,0,0,GLOBAL_POSITION_INT,6415036,0,0,-2370,-2372,0,0,0,5605,RAW_IMU,2119569310,19,11,-991,-6,0,1,293,-442,228,0,4308,BATTERY_STATUS,0,0,0,32767,[65535, 65535, 65535, 65535, 65535, 65535, 65535, 65535, 65535, 65535],-1,-1,-1,100,0,0,[0, 0, 0, 0],0,0,HEARTBEAT,6,8,0,0,0,3
13.802769184112549,VFR_HUD,0.0,0.0,56,0,-2.369999885559082,-0.0,,,,,,,,,,,,,,,,AHRS,0.006829814985394478,0.000696519622579217,-0.002002740278840065,0.0,0.0,0.0005812764866277575,0.005826001986861229,GPS_RAW_INT,0,1,0,0,-17000,9999,9999,0,0,0,0,4294967295,4294967295,1000000,0,0,RC_CHANNELS,6415036,16,1501,1499,1004,1501,1001,1000,1500,1500,0,0,0,0,0,0,0,0,0,0,0,MISSION_CURRENT,0,SYS_STATUS,52485167,35684399,51413295,30,0,-1,-1,0,0,0,0,0,0,GLOBAL_POSITION_INT,6415036,0,0,-2370,-2372,0,0,0,5605,RAW_IMU,2120069306,18,10,-991,-7,0,1,294,-447,234,0,4308,BATTERY_STATUS,0,0,0,32767,[65535, 65535, 65535, 65535, 65535, 65535, 65535, 65535, 65535, 65535],-1,-1,-1,100,0,0,[0, 0, 0, 0],0,0,HEARTBEAT,6,8,0,0,0,3
13.852978467941284,VFR_HUD,0.0,0.0,56,0,-2.369999885559082,-0.0,,,,,,,,,,,,,,,,AHRS,0.006812583655118942,0.0007207017042674124,-0.002239919500425458,0.0,0.0,0.0006046649068593979,0.004725450649857521,GPS_RAW_INT,0,1,0,0,-17000,9999,9999,0,0,0,0,4294967295,4294967295,1000000,0,0,RC_CHANNELS,6415036,16,1501,1499,1004,1501,1001,1000,1500,1500,0,0,0,0,0,0,0,0,0,0,0,MISSION_CURRENT,0,SYS_STATUS,52485167,35684399,51413295,30,0,-1,-1,0,0,0,0,0,0,GLOBAL_POSITION_INT,6415036,0,0,-2370,-2372,0,0,0,5605,RAW_IMU,2120069306,18,10,-991,-7,0,1,294,-447,234,0,4308,BATTERY_STATUS,0,0,0,32767,[65535, 65535, 65535, 65535, 65535, 65535, 65535, 65535, 65535, 65535],-1,-1,-1,100,0,0,[0, 0, 0, 0],0,0,HEARTBEAT,6,8,0,0,0,3
13.903204679489136,VFR_HUD,0.0,0.0,56,0,-2.369999885559082,-0.0,,,,,,,,,,,,,,,,AHRS,0.006812583655118942,0.0007207017042674124,-0.002239919500425458,0.0,0.0,0.0006046649068593979,0.004725450649857521,GPS_RAW_INT,0,1,0,0,-17000,9999,9999,0,0,0,0,4294967295,4294967295,1000000,0,0,RC_CHANNELS,6415036,16,1501,1499,1004,1501,1001,1000,1500,1500,0,0,0,0,0,0,0,0,0,0,0,MISSION_CURRENT,0,SYS_STATUS,52485167,35684399,51413295,30,0,-1,-1,0,0,0,0,0,0,GLOBAL_POSITION_INT,6415036,0,0,-2370,-2372,0,0,0,5605,RAW_IMU,2120069306,18,10,-991,-7,0,1,294,-447,234,0,4308,BATTERY_STATUS,0,0,0,32767,[65535, 65535, 65535, 65535, 65535, 65535, 65535, 65535, 65535, 65535],-1,-1,-1,100,0,0,[0, 0, 0, 0],0,0,HEARTBEAT,6,8,0,0,0,3
13.954296588897705,VFR_HUD,0.0,0.0,56,0,-2.369999885559082,-0.0,,,,,,,,,,,,,,,,AHRS,0.006812583655118942,0.0007207017042674124,-0.002239919500425458,0.0,0.0,0.0006046649068593979,0.004725450649857521,GPS_RAW_INT,0,1,0,0,-17000,9999,9999,0,0,0,0,4294967295,4294967295,1000000,0,0,RC_CHANNELS,6415036,16,1501,1499,1004,1501,1001,1000,1500,1500,0,0,0,0,0,0,0,0,0,0,0,MISSION_CURRENT,0,SYS_STATUS,52485167,35684399,51413295,30,0,-1,-1,0,0,0,0,0,0,GLOBAL_POSITION_INT,6415036,0,0,-2370,-2372,0,0,0,5605,RAW_IMU,2120069306,18,10,-991,-7,0,1,294,-447,234,0,4308,BATTERY_STATUS,0,0,0,32767,[65535, 65535, 65535, 65535, 65535, 65535, 65535, 65535, 65535, 65535],-1,-1,-1,100,0,0,[0, 0, 0, 0],0,0,HEARTBEAT,6,8,0,0,0,3
14.004592418670654,VFR_HUD,0.0,0.0,56,0,-2.369999885559082,-0.0,,,,,,,,,,,,,,,,AHRS,0.006812583655118942,0.0007207017042674124,-0.002239919500425458,0.0,0.0,0.0006046649068593979,0.004725450649857521,GPS_RAW_INT,0,1,0,0,-17000,9999,9999,0,0,0,0,4294967295,4294967295,1000000,0,0,RC_CHANNELS,6415036,16,1501,1499,1004,1501,1001,1000,1500,1500,0,0,0,0,0,0,0,0,0,0,0,MISSION_CURRENT,0,SYS_STATUS,52485167,35684399,51413295,30,0,-1,-1,0,0,0,0,0,0,GLOBAL_POSITION_INT,6415036,0,0,-2370,-2372,0,0,0,5605,RAW_IMU,2120069306,18,10,-991,-7,0,1,294,-447,234,0,4308,BATTERY_STATUS,0,0,0,32767,[65535, 65535, 65535, 65535, 65535, 65535, 65535, 65535, 65535, 65535],-1,-1,-1,100,0,0,[0, 0, 0, 0],0,0,HEARTBEAT,6,8,0,0,0,3
14.10549545288086,VFR_HUD,0.0,0.0,56,0,-2.369999885559082,-0.0,,,,,,,,,,,,,,,,AHRS,0.006812583655118942,0.0007207017042674124,-0.002239919500425458,0.0,0.0,0.0006046649068593979,0.004725450649857521,GPS_RAW_INT,0,1,0,0,-17000,9999,9999,0,0,0,0,4294967295,4294967295,1000000,0,0,RC_CHANNELS,6415036,16,1501,1499,1004,1501,1001,1000,1500,1500,0,0,0,0,0,0,0,0,0,0,0,MISSION_CURRENT,0,SYS_STATUS,52485167,35684399,51413295,30,0,-1,-1,0,0,0,0,0,0,GLOBAL_POSITION_INT,6415036,0,0,-2370,-2372,0,0,0,5605,RAW_IMU,2120069306,18,10,-991,-7,0,1,294,-447,234,0,4308,BATTERY_STATUS,0,0,0,32767,[65535, 65535, 65535, 65535, 65535, 65535, 65535, 65535, 65535, 65535],-1,-1,-1,100,0,0,[0, 0, 0, 0],0,0,HEARTBEAT,6,8,0,0,0,3
14.15573501586914,VFR_HUD,0.0,0.0,56,0,-2.369999885559082,-0.0,,,,,,,,,,,,,,,,AHRS,0.006812583655118942,0.0007207017042674124,-0.002239919500425458,0.0,0.0,0.0006046649068593979,0.004725450649857521,GPS_RAW_INT,0,1,0,0,-17000,9999,9999,0,0,0,0,4294967295,4294967295,1000000,0,0,RC_CHANNELS,6415036,16,1501,1499,1004,1501,1001,1000,1500,1500,0,0,0,0,0,0,0,0,0,0,0,MISSION_CURRENT,0,SYS_STATUS,52485167,35684399,51413295,30,0,-1,-1,0,0,0,0,0,0,GLOBAL_POSITION_INT,6415036,0,0,-2370,-2372,0,0,0,5605,RAW_IMU,2120069306,18,10,-991,-7,0,1,294,-447,234,0,4308,BATTERY_STATUS,0,0,0,32767,[65535, 65535, 65535, 65535, 65535, 65535, 65535, 65535, 65535, 65535],-1,-1,-1,100,0,0,[0, 0, 0, 0],0,0,HEARTBEAT,6,8,0,0,0,3
14.205944299697876,VFR_HUD,0.0,0.0,56,0,-2.369999885559082,-0.0,,,,,,,,,,,,,,,,AHRS,0.006812583655118942,0.0007207017042674124,-0.002239919500425458,0.0,0.0,0.0006046649068593979,0.004725450649857521,GPS_RAW_INT,0,1,0,0,-17000,9999,9999,0,0,0,0,4294967295,4294967295,1000000,0,0,RC_CHANNELS,6415036,16,1501,1499,1004,1501,1001,1000,1500,1500,0,0,0,0,0,0,0,0,0,0,0,MISSION_CURRENT,0,SYS_STATUS,52485167,35684399,51413295,30,0,-1,-1,0,0,0,0,0,0,GLOBAL_POSITION_INT,6415036,0,0,-2370,-2372,0,0,0,5605,RAW_IMU,2120069306,18,10,-991,-7,0,1,294,-447,234,0,4308,BATTERY_STATUS,0,0,0,32767,[65535, 65535, 65535, 65535, 65535, 65535, 65535, 65535, 65535, 65535],-1,-1,-1,100,0,0,[0, 0, 0, 0],0,0,HEARTBEAT,6,8,0,0,0,3
14.256142139434814,VFR_HUD,0.0,0.0,56,0,-2.369999885559082,-0.0,,,,,,,,,,,,,,,,AHRS,0.006812583655118942,0.0007207017042674124,-0.002239919500425458,0.0,0.0,0.0006046649068593979,0.004725450649857521,GPS_RAW_INT,0,1,0,0,-17000,9999,9999,0,0,0,0,4294967295,4294967295,1000000,0,0,RC_CHANNELS,6415036,16,1501,1499,1004,1501,1001,1000,1500,1500,0,0,0,0,0,0,0,0,0,0,0,MISSION_CURRENT,0,SYS_STATUS,52485167,35684399,51413295,30,0,-1,-1,0,0,0,0,0,0,GLOBAL_POSITION_INT,6415036,0,0,-2370,-2372,0,0,0,5605,RAW_IMU,2120069306,18,10,-991,-7,0,1,294,-447,234,0,4308,BATTERY_STATUS,0,0,0,32767,[65535, 65535, 65535, 65535, 65535, 65535, 65535, 65535, 65535, 65535],-1,-1,-1,100,0,0,[0, 0, 0, 0],0,0,HEARTBEAT,6,8,0,0,0,3
