57.42502427101135,VFR_HUD,0.0,0.014813949353992939,56,0,-2.2200000286102295,-0.008731890469789505,,,,,,,,,,,,,,,,AHRS,0.0068626548163592815,0.0005698915338143706,-0.002012483775615692,0.0,0.0,0.0006696527125313878,0.006370119284838438,GPS_RAW_INT,0,1,0,0,-17000,9999,9999,0,0,0,0,4294967295,4294967295,1000000,0,0,RC_CHANNELS,6463036,16,1501,1499,1004,1501,1000,1001,1500,1500,0,0,0,0,0,0,0,0,0,0,0,MISSION_CURRENT,0,SYS_STATUS,52485167,52461615,53510447,55,0,-1,-1,0,0,0,0,0,0,GLOBAL_POSITION_INT,6463536,0,0,-2140,-2146,0,1,0,5621,RAW_IMU,2168069424,18,12,-992,-6,0,1,292,-448,234,0,4308,BATTERY_STATUS,0,0,0,32767,[65535, 65535, 65535, 65535, 65535, 65535, 65535, 65535, 65535, 65535],-1,-1,-1,100,0,0,[0, 0, 0, 0],0,0,HEARTBEAT,10,3,193,0,4,3
0.010718345642089844,VFR_HUD,0.0,0.01650446094572544,56,0,-2.1399998664855957,-0.005985265132039785,,,,,,,,,,,,,,,,AHRS,0.0068626548163592815,0.0005698915338143706,-0.002012483775615692,0.0,0.0,0.0006696527125313878,0.006370119284838438,GPS_RAW_INT,0,1,0,0,-17000,9999,9999,0,0,0,0,4294967295,4294967295,1000000,0,0,RC_CHANNELS,6463536,16,1502,1499,1004,1501,1000,1000,1501,1500,0,0,0,0,0,0,0,0,0,0,0,MISSION_CURRENT,0,SYS_STATUS,52485167,52461615,53510447,42,0,-1,-1,0,0,0,0,0,0,GLOBAL_POSITION_INT,6463536,0,0,-2140,-2146,0,1,0,5621,RAW_IMU,2168069424,18,12,-992,-6,0,1,292,-448,234,0,4308,BATTERY_STATUS,0,0,0,32767,[65535, 65535, 65535, 65535, 65535, 65535, 65535, 65535, 65535, 65535],-1,-1,-1,100,0,0,[0, 0, 0, 0],0,0,HEARTBEAT,10,3,193,0,4,3
0.06096076965332031,VFR_HUD,0.0,0.01650446094572544,56,0,-2.1399998664855957,-0.005985265132039785,,,,,,,,,,,,,,,,AHRS,0.006865515373647213,0.0005701311165466905,-0.0020132374484091997,0.0,0.0,0.0005879243253730237,0.007646247744560242,GPS_RAW_INT,0,1,0,0,-17000,9999,9999,0,0,0,0,4294967295,4294967295,1000000,0,0,RC_CHANNELS,6463536,16,1502,1499,1004,1501,1000,1000,1501,1500,0,0,0,0,0,0,0,0,0,0,0,MISSION_CURRENT,0,SYS_STATUS,52485167,52461615,53510447,42,0,-1,-1,0,0,0,0,0,0,GLOBAL_POSITION_INT,6463536,0,0,-2140,-2146,0,1,0,5621,RAW_IMU,2168569373,19,10,-991,-6,0,1,288,-446,238,0,4308,BATTERY_STATUS,0,0,0,32767,[65535, 65535, 65535, 65535, 65535, 65535, 65535, 65535, 65535, 65535],-1,-1,-1,100,0,0,[0, 0, 0, 0],0,0,HEARTBEAT,10,3,193,0,4,3
0.11111807823181152,VFR_HUD,0.0,0.01650446094572544,56,0,-2.1399998664855957,-0.005985265132039785,,,,,,,,,,,,,,,,AHRS,0.006865515373647213,0.0005701311165466905,-0.0020132374484091997,0.0,0.0,0.0005879243253730237,0.007646247744560242,GPS_RAW_INT,0,1,0,0,-17000,9999,9999,0,0,0,0,4294967295,4294967295,1000000,0,0,RC_CHANNELS,6463536,16,1502,1499,1004,1501,1000,1000,1501,1500,0,0,0,0,0,0,0,0,0,0,0,MISSION_CURRENT,0,SYS_STATUS,52485167,52461615,53510447,42,0,-1,-1,0,0,0,0,0,0,GLOBAL_POSITION_INT,6463536,0,0,-2140,-2146,0,1,0,5621,RAW_IMU,2168569373,19,10,-991,-6,0,1,288,-446,238,0,4308,BATTERY_STATUS,0,0,0,32767,[65535, 65535, 65535, 65535, 65535, 65535, 65535, 65535, 65535, 65535],-1,-1,-1,100,0,0,[0, 0, 0, 0],0,0,HEARTBEAT,10,3,193,0,4,3
0.16126608848571777,VFR_HUD,0.0,0.01650446094572544,56,0,-2.1399998664855957,-0.005985265132039785,,,,,,,,,,,,,,,,AHRS,0.006865515373647213,0.0005701311165466905,-0.0020132374484091997,0.0,0.0,0.0005879243253730237,0.007646247744560242,GPS_RAW_INT,0,1,0,0,-17000,9999,9999,0,0,0,0,4294967295,4294967295,1000000,0,0,RC_CHANNELS,6463536,16,1502,1499,1004,1501,1000,1000,1501,1500,0,0,0,0,0,0,0,0,0,0,0,MISSION_CURRENT,0,SYS_STATUS,52485167,52461615,53510447,42,0,-1,-1,0,0,0,0,0,0,GLOBAL_POSITION_INT,6463536,0,0,-2140,-2146,0,1,0,5621,RAW_IMU,2168569373,19,10,-991,-6,0,1,288,-446,238,0,4308,BATTERY_STATUS,0,0,0,32767,[65535, 65535, 65535, 65535, 65535, 65535, 65535, 65535, 65535, 65535],-1,-1,-1,100,0,0,[0, 0, 0, 0],0,0,HEARTBEAT,10,3,193,0,4,3
0.2623462677001953,VFR_HUD,0.0,0.01650446094572544,56,0,-2.1399998664855957,-0.005985265132039785,,,,,,,,,,,,,,,,AHRS,0.006865515373647213,0.0005701311165466905,-0.0020132374484091997,0.0,0.0,0.0005879243253730237,0.007646247744560242,GPS_RAW_INT,0,1,0,0,-17000,9999,9999,0,0,0,0,4294967295,4294967295,1000000,0,0,RC_CHANNELS,6463536,16,1502,1499,1004,1501,1000,1000,1501,1500,0,0,0,0,0,0,0,0,0,0,0,MISSION_CURRENT,0,SYS_STATUS,52485167,52461615,53510447,42,0,-1,-1,0,0,0,0,0,0,GLOBAL_POSITION_INT,6463536,0,0,-2140,-2146,0,1,0,5621,RAW_IMU,2168569373,19,10,-991,-6,0,1,288,-446,238,0,4308,BATTERY_STATUS,0,0,0,32767,[65535, 65535, 65535, 65535, 65535, 65535, 65535, 65535, 65535, 65535],-1,-1,-1,100,0,0,[0, 0, 0, 0],0,0,HEARTBEAT,10,3,193,0,4,3
0.31253719329833984,VFR_HUD,0.0,0.01650446094572544,56,0,-2.1399998664855957,-0.005985265132039785,,,,,,,,,,,,,,,,AHRS,0.006865515373647213,0.0005701311165466905,-0.0020132374484091997,0.0,0.0,0.0005879243253730237,0.007646247744560242,GPS_RAW_INT,0,1,0,0,-17000,9999,9999,0,0,0,0,4294967295,4294967295,1000000,0,0,RC_CHANNELS,6463536,16,1502,1499,1004,1501,1000,1000,1501,1500,0,0,0,0,0,0,0,0,0,0,0,MISSION_CURRENT,0,SYS_STATUS,52485167,52461615,53510447,42,0,-1,-1,0,0,0,0,0,0,GLOBAL_POSITION_INT,6463536,0,0,-2140,-2146,0,1,0,5621,RAW_IMU,2168569373,19,10,-991,-6,0,1,288,-446,238,0,4308,BATTERY_STATUS,0,0,0,32767,[65535, 65535, 65535, 65535, 65535, 65535, 65535, 65535, 65535, 65535],-1,-1,-1,100,0,0,[0, 0, 0, 0],0,0,HEARTBEAT,6,8,0,0,0,3
0.36272239685058594,VFR_HUD,0.0,0.01650446094572544,56,0,-2.1399998664855957,-0.005985265132039785,,,,,,,,,,,,,,,,AHRS,0.006865515373647213,0.0005701311165466905,-0.0020132374484091997,0.0,0.0,0.0005879243253730237,0.007646247744560242,GPS_RAW_INT,0,1,0,0,-17000,9999,9999,0,0,0,0,4294967295,4294967295,1000000,0,0,RC_CHANNELS,6463536,16,1502,1499,1004,1501,1000,1000,1501,1500,0,0,0,0,0,0,0,0,0,0,0,MISSION_CURRENT,0,SYS_STATUS,52485167,52461615,53510447,42,0,-1,-1,0,0,0,0,0,0,GLOBAL_POSITION_INT,6463536,0,0,-2140,-2146,0,1,0,5621,RAW_IMU,2168569373,19,10,-991,-6,0,1,288,-446,238,0,4308,BATTERY_STATUS,0,0,0,32767,[65535, 65535, 65535, 65535, 65535, 65535, 65535, 65535, 65535, 65535],-1,-1,-1,100,0,0,[0, 0, 0, 0],0,0,HEARTBEAT,6,8,0,0,0,3
0.41287946701049805,VFR_HUD,0.0,0.01650446094572544,56,0,-2.1399998664855957,-0.005985265132039785,,,,,,,,,,,,,,,,AHRS,0.006865515373647213,0.0005701311165466905,-0.0020132374484091997,0.0,0.0,0.0005879243253730237,0.007646247744560242,GPS_RAW_INT,0,1,0,0,-17000,9999,9999,0,0,0,0,4294967295,4294967295,1000000,0,0,RC_CHANNELS,6463536,16,1502,1499,1004,1501,1000,1000,1501,1500,0,0,0,0,0,0,0,0,0,0,0,MISSION_CURRENT,0,SYS_STATUS,52485167,52461615,53510447,42,0,-1,-1,0,0,0,0,0,0,GLOBAL_POSITION_INT,6463536,0,0,-2140,-2146,0,1,0,5621,RAW_IMU,2168569373,19,10,-991,-6,0,1,288,-446,238,0,4308,BATTERY_STATUS,0,0,0,32767,[65535, 65535, 65535, 65535, 65535, 65535, 65535, 65535, 65535, 65535],-1,-1,-1,100,0,0,[0, 0, 0, 0],0,0,HEARTBEAT,6,8,0,0,0,3
0.46301960945129395,VFR_HUD,0.0,0.01650446094572544,56,0,-2.1399998664855957,-0.005985265132039785,,,,,,,,,,,,,,,,AHRS,0.006865515373647213,0.0005701311165466905,-0.0020132374484091997,0.0,0.0,0.0005879243253730237,0.007646247744560242,GPS_RAW_INT,0,1,0,0,-17000,9999,9999,0,0,0,0,4294967295,4294967295,1000000,0,0,RC_CHANNELS,6463536,16,1502,1499,1004,1501,1000,1000,1501,1500,0,0,0,0,0,0,0,0,0,0,0,MISSION_CURRENT,0,SYS_STATUS,52485167,52461615,53510447,42,0,-1,-1,0,0,0,0,0,0,GLOBAL_POSITION_INT,6463536,0,0,-2140,-2146,0,1,0,5621,RAW_IMU,2168569373,19,10,-991,-6,0,1,288,-446,238,0,4308,BATTERY_STATUS,0,0,0,32767,[65535, 65535, 65535, 65535, 65535, 65535, 65535, 65535, 65535, 65535],-1,-1,-1,100,0,0,[0, 0, 0, 0],0,0,HEARTBEAT,6,8,0,0,0,3
0.5131616592407227,VFR_HUD,0.0,0.01650446094572544,56,0,-2.1399998664855957,-0.005985265132039785,,,,,,,,,,,,,,,,AHRS,0.006865515373647213,0.0005701311165466905,-0.0020132374484091997,0.0,0.0,0.0005879243253730237,0.007646247744560242,GPS_RAW_INT,0,1,0,0,-17000,9999,9999,0,0,0,0,4294967295,4294967295,1000000,0,0,RC_CHANNELS,6463536,16,1502,1499,1004,1501,1000,1000,1501,1500,0,0,0,0,0,0,0,0,0,0,0,MISSION_CURRENT,0,SYS_STATUS,52485167,52461615,53510447,42,0,-1,-1,0,0,0,0,0,0,GLOBAL_POSITION_INT,6463536,0,0,-2140,-2146,0,1,0,5621,RAW_IMU,2168569373,19,10,-991,-6,0,1,288,-446,238,0,4308,BATTERY_STATUS,0,0,0,32767,[65535, 65535, 65535, 65535, 65535, 65535, 65535, 65535, 65535, 65535],-1,-1,-1,100,0,0,[0, 0, 0, 0],0,0,HEARTBEAT,6,8,0,0,0,3
0.5633032321929932,VFR_HUD,0.0,0.01650446094572544,56,0,-2.1399998664855957,-0.005985265132039785,,,,,,,,,,,,,,,,AHRS,0.006865515373647213,0.0005701311165466905,-0.0020132374484091997,0.0,0.0,0.0005879243253730237,0.007646247744560242,GPS_RAW_INT,0,1,0,0,-17000,9999,9999,0,0,0,0,4294967295,4294967295,1000000,0,0,RC_CHANNELS,6463536,16,1502,1499,1004,1501,1000,1000,1501,1500,0,0,0,0,0,0,0,0,0,0,0,MISSION_CURRENT,0,SYS_STATUS,52485167,52461615,53510447,42,0,-1,-1,0,0,0,0,0,0,GLOBAL_POSITION_INT,6463536,0,0,-2140,-2146,0,1,0,5621,RAW_IMU,2168569373,19,10,-991,-6,0,1,288,-446,238,0,4308,BATTERY_STATUS,0,0,0,32767,[65535, 65535, 65535, 65535, 65535, 65535, 65535, 65535, 65535, 65535],-1,-1,-1,100,0,0,[0, 0, 0, 0],0,0,HEARTBEAT,6,8,0,0,0,3
0.6136782169342041,VFR_HUD,0.0,0.01650446094572544,56,0,-2.1399998664855957,-0.005985265132039785,,,,,,,,,,,,,,,,AHRS,0.006865515373647213,0.0005701311165466905,-0.0020132374484091997,0.0,0.0,0.0005879243253730237,0.007646247744560242,GPS_RAW_INT,0,1,0,0,-17000,9999,9999,0,0,0,0,4294967295,4294967295,1000000,0,0,RC_CHANNELS,6463536,16,1502,1499,1004,1501,1000,1000,1501,1500,0,0,0,0,0,0,0,0,0,0,0,MISSION_CURRENT,0,SYS_STATUS,52485167,52461615,53510447,42,0,-1,-1,0,0,0,0,0,0,GLOBAL_POSITION_INT,6463536,0,0,-2140,-2146,0,1,0,5621,RAW_IMU,2168569373,19,10,-991,-6,0,1,288,-446,238,0,4308,BATTERY_STATUS,0,0,0,32767,[65535, 65535, 65535, 65535, 65535, 65535, 65535, 65535, 65535, 65535],-1,-1,-1,100,0,0,[0, 0, 0, 0],0,0,HEARTBEAT,6,8,0,0,0,3
0.6638150215148926,VFR_HUD,0.0,0.020936058834195137,56,0,-2.4099998474121094,-0.007838697172701359,,,,,,,,,,,,,,,,AHRS,0.006865515373647213,0.0005701311165466905,-0.0020132374484091997,0.0,0.0,0.0005879243253730237,0.007646247744560242,GPS_RAW_INT,0,1,0,0,-17000,9999,9999,0,0,0,0,4294967295,4294967295,1000000,0,0,RC_CHANNELS,6463536,16,1502,1499,1004,1501,1000,1000,1501,1500,0,0,0,0,0,0,0,0,0,0,0,MISSION_CURRENT,0,SYS_STATUS,52485167,52461615,53510447,36,0,-1,-1,0,0,0,0,0,0,GLOBAL_POSITION_INT,6464036,0,0,-2410,-2415,0,1,0,5622,RAW_IMU,2168569373,19,10,-991,-6,0,1,288,-446,238,0,4308,BATTERY_STATUS,0,0,0,32767,[65535, 65535, 65535, 65535, 65535, 65535, 65535, 65535, 65535, 65535],-1,-1,-1,100,0,0,[0, 0, 0, 0],0,0,HEARTBEAT,6,8,0,0,0,3
0.71413254737854,VFR_HUD,0.0,0.020936058834195137,56,0,-2.4099998474121094,-0.007838697172701359,,,,,,,,,,,,,,,,AHRS,0.0068672350607812405,0.0005702805938199162,-0.0020136754028499126,0.0,0.0,0.0005049650790169835,0.004973782692104578,GPS_RAW_INT,0,1,0,0,-17000,9999,9999,0,0,0,0,4294967295,4294967295,1000000,0,0,RC_CHANNELS,6464036,16,1501,1500,1004,1501,1000,1000,1500,1501,0,0,0,0,0,0,0,0,0,0,0,MISSION_CURRENT,0,SYS_STATUS,52485167,52461615,53510447,36,0,-1,-1,0,0,0,0,0,0,GLOBAL_POSITION_INT,6464036,0,0,-2410,-2415,0,1,0,5622,RAW_IMU,2169069354,19,11,-991,-6,0,2,293,-443,235,0,4308,BATTERY_STATUS,0,0,0,32767,[65535, 65535, 65535, 65535, 65535, 65535, 65535, 65535, 65535, 65535],-1,-1,-1,100,0,0,[0, 0, 0, 0],0,0,HEARTBEAT,6,8,0,0,0,3
0.7642736434936523,VFR_HUD,0.0,0.020936058834195137,56,0,-2.4099998474121094,-0.007838697172701359,,,,,,,,,,,,,,,,AHRS,0.0068672350607812405,0.0005702805938199162,-0.0020136754028499126,0.0,0.0,0.0005049650790169835,0.004973782692104578,GPS_RAW_INT,0,1,0,0,-17000,9999,9999,0,0,0,0,4294967295,4294967295,1000000,0,0,RC_CHANNELS,6464036,16,1501,1500,1004,1501,1000,1000,1500,1501,0,0,0,0,0,0,0,0,0,0,0,MISSION_CURRENT,0,SYS_STATUS,52485167,52461615,53510447,36,0,-1,-1,0,0,0,0,0,0,GLOBAL_POSITION_INT,6464036,0,0,-2410,-2415,0,1,0,5622,RAW_IMU,2169069354,19,11,-991,-6,0,2,293,-443,235,0,4308,BATTERY_STATUS,0,0,0,32767,[65535, 65535, 65535, 65535, 65535, 65535, 65535, 65535, 65535, 65535],-1,-1,-1,100,0,0,[0, 0, 0, 0],0,0,HEARTBEAT,6,8,0,0,0,3
0.8151123523712158,VFR_HUD,0.0,0.020936058834195137,56,0,-2.4099998474121094,-0.007838697172701359,,,,,,,,,,,,,,,,AHRS,0.0068672350607812405,0.0005702805938199162,-0.0020136754028499126,0.0,0.0,0.0005049650790169835,0.004973782692104578,GPS_RAW_INT,0,1,0,0,-17000,9999,9999,0,0,0,0,4294967295,4294967295,1000000,0,0,RC_CHANNELS,6464036,16,1501,1500,1004,1501,1000,1000,1500,1501,0,0,0,0,0,0,0,0,0,0,0,MISSION_CURRENT,0,SYS_STATUS,52485167,52461615,53510447,36,0,-1,-1,0,0,0,0,0,0,GLOBAL_POSITION_INT,6464036,0,0,-2410,-2415,0,1,0,5622,RAW_IMU,2169069354,19,11,-991,-6,0,2,293,-443,235,0,4308,BATTERY_STATUS,0,0,0,32767,[65535, 65535, 65535, 65535, 65535, 65535, 65535, 65535, 65535, 65535],-1,-1,-1,100,0,0,[0, 0, 0, 0],0,0,HEARTBEAT,6,8,0,0,0,3
0.8652870655059814,VFR_HUD,0.0,0.020936058834195137,56,0,-2.4099998474121094,-0.007838697172701359,,,,,,,,,,,,,,,,AHRS,0.0068672350607812405,0.0005702805938199162,-0.0020136754028499126,0.0,0.0,0.0005049650790169835,0.004973782692104578,GPS_RAW_INT,0,1,0,0,-17000,9999,9999,0,0,0,0,4294967295,4294967295,1000000,0,0,RC_CHANNELS,6464036,16,1501,1500,1004,1501,1000,1000,1500,1501,0,0,0,0,0,0,0,0,0,0,0,MISSION_CURRENT,0,SYS_STATUS,52485167,52461615,53510447,36,0,-1,-1,0,0,0,0,0,0,GLOBAL_POSITION_INT,6464036,0,0,-2410,-2415,0,1,0,5622,RAW_IMU,2169069354,19,11,-991,-6,0,2,293,-443,235,0,4308,BATTERY_STATUS,0,0,0,32767,[65535, 65535, 65535, 65535, 65535, 65535, 65535, 65535, 65535, 65535],-1,-1,-1,100,0,0,[0, 0, 0, 0],0,0,HEARTBEAT,6,8,0,0,0,3
0.9154648780822754,VFR_HUD,0.0,0.020936058834195137,56,0,-2.4099998474121094,-0.007838697172701359,,,,,,,,,,,,,,,,AHRS,0.0068672350607812405,0.0005702805938199162,-0.0020136754028499126,0.0,0.0,0.0005049650790169835,0.004973782692104578,GPS_RAW_INT,0,1,0,0,-17000,9999,9999,0,0,0,0,4294967295,4294967295,1000000,0,0,RC_CHANNELS,6464036,16,1501,1500,1004,1501,1000,1000,1500,1501,0,0,0,0,0,0,0,0,0,0,0,MISSION_CURRENT,0,SYS_STATUS,52485167,52461615,53510447,36,0,-1,-1,0,0,0,0,0,0,GLOBAL_POSITION_INT,6464036,0,0,-2410,-2415,0,1,0,5622,RAW_IMU,2169069354,19,11,-991,-6,0,2,293,-443,235,0,4308,BATTERY_STATUS,0,0,0,32767,[65535, 65535, 65535, 65535, 65535, 65535, 65535, 65535, 65535, 65535],-1,-1,-1,100,0,0,[0, 0, 0, 0],0,0,HEARTBEAT,6,8,0,0,0,3
0.9662590026855469,VFR_HUD,0.0,0.020936058834195137,56,0,-2.4099998474121094,-0.007838697172701359,,,,,,,,,,,,,,,,AHRS,0.0068672350607812405,0.0005702805938199162,-0.0020136754028499126,0.0,0.0,0.0005049650790169835,0.004973782692104578,GPS_RAW_INT,0,1,0,0,-17000,9999,9999,0,0,0,0,4294967295,4294967295,1000000,0,0,RC_CHANNELS,6464036,16,1501,1500,1004,1501,1000,1000,1500,1501,0,0,0,0,0,0,0,0,0,0,0,MISSION_CURRENT,0,SYS_STATUS,52485167,52461615,53510447,36,0,-1,-1,0,0,0,0,0,0,GLOBAL_POSITION_INT,6464036,0,0,-2410,-2415,0,1,0,5622,RAW_IMU,2169069354,19,11,-991,-6,0,2,293,-443,235,0,4308,BATTERY_STATUS,0,0,0,32767,[65535, 65535, 65535, 65535, 65535, 65535, 65535, 65535, 65535, 65535],-1,-1,-1,100,0,0,[0, 0, 0, 0],0,0,HEARTBEAT,6,8,0,0,0,3
1.0164380073547363,VFR_HUD,0.0,0.020936058834195137,56,0,-2.4099998474121094,-0.007838697172701359,,,,,,,,,,,,,,,,AHRS,0.0068672350607812405,0.0005702805938199162,-0.0020136754028499126,0.0,0.0,0.0005049650790169835,0.004973782692104578,GPS_RAW_INT,0,1,0,0,-17000,9999,9999,0,0,0,0,4294967295,4294967295,1000000,0,0,RC_CHANNELS,6464036,16,1501,1500,1004,1501,1000,1000,1500,1501,0,0,0,0,0,0,0,0,0,0,0,MISSION_CURRENT,0,SYS_STATUS,52485167,52461615,53510447,36,0,-1,-1,0,0,0,0,0,0,GLOBAL_POSITION_INT,6464036,0,0,-2410,-2415,0,1,0,5622,RAW_IMU,2169069354,19,11,-991,-6,0,2,293,-443,235,0,4308,BATTERY_STATUS,0,0,0,32767,[65535, 65535, 65535, 65535, 65535, 65535, 65535, 65535, 65535, 65535],-1,-1,-1,100,0,0,[0, 0, 0, 0],0,0,HEARTBEAT,6,8,0,0,0,3
1.0666170120239258,VFR_HUD,0.0,0.020936058834195137,56,0,-2.4099998474121094,-0.007838697172701359,,,,,,,,,,,,,,,,AHRS,0.0068672350607812405,0.0005702805938199162,-0.0020136754028499126,0.0,0.0,0.0005049650790169835,0.004973782692104578,GPS_RAW_INT,0,1,0,0,-17000,9999,9999,0,0,0,0,4294967295,4294967295,1000000,0,0,RC_CHANNELS,6464036,16,1501,1500,1004,1501,1000,1000,1500,1501,0,0,0,0,0,0,0,0,0,0,0,MISSION_CURRENT,0,SYS_STATUS,52485167,52461615,53510447,36,0,-1,-1,0,0,0,0,0,0,GLOBAL_POSITION_INT,6464036,0,0,-2410,-2415,0,1,0,5622,RAW_IMU,2169069354,19,11,-991,-6,0,2,293,-443,235,0,4308,BATTERY_STATUS,0,0,0,32767,[65535, 65535, 65535, 65535, 65535, 65535, 65535, 65535, 65535, 65535],-1,-1,-1,100,0,0,[0, 0, 0, 0],0,0,HEARTBEAT,6,8,0,0,0,3
1.1167957782745361,VFR_HUD,0.0,0.020936058834195137,56,0,-2.4099998474121094,-0.007838697172701359,,,,,,,,,,,,,,,,AHRS,0.0068672350607812405,0.0005702805938199162,-0.0020136754028499126,0.0,0.0,0.0005049650790169835,0.004973782692104578,GPS_RAW_INT,0,1,0,0,-17000,9999,9999,0,0,0,0,4294967295,4294967295,1000000,0,0,RC_CHANNELS,6464036,16,1501,1500,1004,1501,1000,1000,1500,1501,0,0,0,0,0,0,0,0,0,0,0,MISSION_CURRENT,0,SYS_STATUS,52485167,52461615,53510447,36,0,-1,-1,0,0,0,0,0,0,GLOBAL_POSITION_INT,6464036,0,0,-2410,-2415,0,1,0,5622,RAW_IMU,2169069354,19,11,-991,-6,0,2,293,-443,235,0,4308,BATTERY_STATUS,0,0,0,32767,[65535, 65535, 65535, 65535, 65535, 65535, 65535, 65535, 65535, 65535],-1,-1,-1,100,0,0,[0, 0, 0, 0],0,0,HEARTBEAT,6,8,0,0,0,3
1.1669716835021973,VFR_HUD,0.0,0.020936058834195137,56,0,-2.4099998474121094,-0.007838697172701359,,,,,,,,,,,,,,,,AHRS,0.0068672350607812405,0.0005702805938199162,-0.0020136754028499126,0.0,0.0,0.0005049650790169835,0.004973782692104578,GPS_RAW_INT,0,1,0,0,-17000,9999,9999,0,0,0,0,4294967295,4294967295,1000000,0,0,RC_CHANNELS,6464036,16,1501,1500,1004,1501,1000,1000,1500,1501,0,0,0,0,0,0,0,0,0,0,0,MISSION_CURRENT,0,SYS_STATUS,52485167,52461615,53510447,36,0,-1,-1,0,0,0,0,0,0,GLOBAL_POSITION_INT,6464036,0,0,-2410,-2415,0,1,0,5622,RAW_IMU,2169069354,19,11,-991,-6,0,2,293,-443,235,0,4308,BATTERY_STATUS,0,0,0,32767,[65535, 65535, 65535, 65535, 65535, 65535, 65535, 65535, 65535, 65535],-1,-1,-1,100,0,0,[0, 0, 0, 0],0,0,HEARTBEAT,6,8,0,0,0,3
1.217210292816162,VFR_HUD,0.0,0.020936058834195137,56,0,-2.4099998474121094,-0.007838697172701359,,,,,,,,,,,,,,,,AHRS,0.0068672350607812405,0.0005702805938199162,-0.0020136754028499126,0.0,0.0,0.0005049650790169835,0.004973782692104578,GPS_RAW_INT,0,1,0,0,-17000,9999,9999,0,0,0,0,4294967295,4294967295,1000000,0,0,RC_CHANNELS,6464036,16,1501,1500,1004,1501,1000,1000,1500,1501,0,0,0,0,0,0,0,0,0,0,0,MISSION_CURRENT,0,SYS_STATUS,52485167,52461615,53510447,36,0,-1,-1,0,0,0,0,0,0,GLOBAL_POSITION_INT,6464036,0,0,-2410,-2415,0,1,0,5622,RAW_IMU,2169069354,19,11,-991,-6,0,2,293,-443,235,0,4308,BATTERY_STATUS,0,0,0,32767,[65535, 65535, 65535, 65535, 65535, 65535, 65535, 65535, 65535, 65535],-1,-1,-1,100,0,0,[0, 0, 0, 0],0,0,HEARTBEAT,6,8,0,0,0,3
1.2673981189727783,VFR_HUD,0.0,0.020936058834195137,56,0,-2.4099998474121094,-0.007838697172701359,,,,,,,,,,,,,,,,AHRS,0.0068672350607812405,0.0005702805938199162,-0.0020136754028499126,0.0,0.0,0.0005049650790169835,0.004973782692104578,GPS_RAW_INT,0,1,0,0,-17000,9999,9999,0,0,0,0,4294967295,4294967295,1000000,0,0,RC_CHANNELS,6464036,16,1501,1500,1004,1501,1000,1000,1500,1501,0,0,0,0,0,0,0,0,0,0,0,MISSION_CURRENT,0,SYS_STATUS,52485167,52461615,53510447,35,0,-1,-1,0,0,0,0,0,0,GLOBAL_POSITION_INT,6464536,0,0,-2440,-2441,1,2,1,5622,RAW_IMU,2169069354,19,11,-991,-6,0,2,293,-443,235,0,4308,BATTERY_STATUS,0,0,0,32767,[65535, 65535, 65535, 65535, 65535, 65535, 65535, 65535, 65535, 65535],-1,-1,-1,100,0,0,[0, 0, 0, 0],0,0,HEARTBEAT,10,3,193,0,4,3
1.3175764083862305,VFR_HUD,0.0,0.025955986231565475,56,0,-2.440000057220459,-0.010627927258610725,,,,,,,,,,,,,,,,AHRS,0.0068672350607812405,0.0005702805938199162,-0.0020136754028499126,0.0,0.0,0.0005049650790169835,0.004973782692104578,GPS_RAW_INT,0,1,0,0,-17000,9999,9999,0,0,0,0,4294967295,4294967295,1000000,0,0,RC_CHANNELS,6464536,16,1501,1499,1005,1501,1000,1000,1500,1500,0,0,0,0,0,0,0,0,0,0,0,MISSION_CURRENT,0,SYS_STATUS,52485167,52461615,53510447,35,0,-1,-1,0,0,0,0,0,0,GLOBAL_POSITION_INT,6464536,0,0,-2440,-2441,1,2,1,5622,RAW_IMU,2169569419,19,9,-990,-6,-1,2,293,-443,242,0,4308,BATTERY_STATUS,0,0,0,32767,[65535, 65535, 65535, 65535, 65535, 65535, 65535, 65535, 65535, 65535],-1,-1,-1,100,0,0,[0, 0, 0, 0],0,0,HEARTBEAT,10,3,193,0,4,3
1.3677222728729248,VFR_HUD,0.0,0.025955986231565475,56,0,-2.440000057220459,-0.010627927258610725,,,,,,,,,,,,,,,,AHRS,0.006861533038318157,0.0005698220920749009,-0.002012035110965371,0.0,0.0,0.0004887855029664934,0.0038970750756561756,GPS_RAW_INT,0,1,0,0,-17000,9999,9999,0,0,0,0,4294967295,4294967295,1000000,0,0,RC_CHANNELS,6464536,16,1501,1499,1005,1501,1000,1000,1500,1500,0,0,0,0,0,0,0,0,0,0,0,MISSION_CURRENT,0,SYS_STATUS,52485167,52461615,53510447,35,0,-1,-1,0,0,0,0,0,0,GLOBAL_POSITION_INT,6464536,0,0,-2440,-2441,1,2,1,5622,RAW_IMU,2169569419,19,9,-990,-6,-1,2,293,-443,242,0,4308,BATTERY_STATUS,0,0,0,32767,[65535, 65535, 65535, 65535, 65535, 65535, 65535, 65535, 65535, 65535],-1,-1,-1,100,0,0,[0, 0, 0, 0],0,0,HEARTBEAT,6,8,0,0,0,3
1.4178564548492432,VFR_HUD,0.0,0.025955986231565475,56,0,-2.440000057220459,-0.010627927258610725,,,,,,,,,,,,,,,,AHRS,0.006861533038318157,0.0005698220920749009,-0.002012035110965371,0.0,0.0,0.0004887855029664934,0.0038970750756561756,GPS_RAW_INT,0,1,0,0,-17000,9999,9999,0,0,0,0,4294967295,4294967295,1000000,0,0,RC_CHANNELS,6464536,16,1501,1499,1005,1501,1000,1000,1500,1500,0,0,0,0,0,0,0,0,0,0,0,MISSION_CURRENT,0,SYS_STATUS,52485167,52461615,53510447,35,0,-1,-1,0,0,0,0,0,0,GLOBAL_POSITION_INT,6464536,0,0,-2440,-2441,1,2,1,5622,RAW_IMU,2169569419,19,9,-990,-6,-1,2,293,-443,242,0,4308,BATTERY_STATUS,0,0,0,32767,[65535, 65535, 65535, 65535, 65535, 65535, 65535, 65535, 65535, 65535],-1,-1,-1,100,0,0,[0, 0, 0, 0],0,0,HEARTBEAT,6,8,0,0,0,3
1.4680020809173584,VFR_HUD,0.0,0.025955986231565475,56,0,-2.440000057220459,-0.010627927258610725,,,,,,,,,,,,,,,,AHRS,0.006861533038318157,0.0005698220920749009,-0.002012035110965371,0.0,0.0,0.0004887855029664934,0.0038970750756561756,GPS_RAW_INT,0,1,0,0,-17000,9999,9999,0,0,0,0,4294967295,4294967295,1000000,0,0,RC_CHANNELS,6464536,16,1501,1499,1005,1501,1000,1000,1500,1500,0,0,0,0,0,0,0,0,0,0,0,MISSION_CURRENT,0,SYS_STATUS,52485167,52461615,53510447,35,0,-1,-1,0,0,0,0,0,0,GLOBAL_POSITION_INT,6464536,0,0,-2440,-2441,1,2,1,5622,RAW_IMU,2169569419,19,9,-990,-6,-1,2,293,-443,242,0,4308,BATTERY_STATUS,0,0,0,32767,[65535, 65535, 65535, 65535, 65535, 65535, 65535, 65535, 65535, 65535],-1,-1,-1,100,0,0,[0, 0, 0, 0],0,0,HEARTBEAT,6,8,0,0,0,3
1.5181419849395752,VFR_HUD,0.0,0.025955986231565475,56,0,-2.440000057220459,-0.010627927258610725,,,,,,,,,,,,,,,,AHRS,0.006861533038318157,0.0005698220920749009,-0.002012035110965371,0.0,0.0,0.0004887855029664934,0.0038970750756561756,GPS_RAW_INT,0,1,0,0,-17000,9999,9999,0,0,0,0,4294967295,4294967295,1000000,0,0,RC_CHANNELS,6464536,16,1501,1499,1005,1501,1000,1000,1500,1500,0,0,0,0,0,0,0,0,0,0,0,MISSION_CURRENT,0,SYS_STATUS,52485167,52461615,53510447,35,0,-1,-1,0,0,0,0,0,0,GLOBAL_POSITION_INT,6464536,0,0,-2440,-2441,1,2,1,5622,RAW_IMU,2169569419,19,9,-990,-6,-1,2,293,-443,242,0,4308,BATTERY_STATUS,0,0,0,32767,[65535, 65535, 65535, 65535, 65535, 65535, 65535, 65535, 65535, 65535],-1,-1,-1,100,0,0,[0, 0, 0, 0],0,0,HEARTBEAT,6,8,0,0,0,3
1.5682916641235352,VFR_HUD,0.0,0.025955986231565475,56,0,-2.440000057220459,-0.010627927258610725,,,,,,,,,,,,,,,,AHRS,0.006861533038318157,0.0005698220920749009,-0.002012035110965371,0.0,0.0,0.0004887855029664934,0.0038970750756561756,GPS_RAW_INT,0,1,0,0,-17000,9999,9999,0,0,0,0,4294967295,4294967295,1000000,0,0,RC_CHANNELS,6464536,16,1501,1499,1005,1501,1000,1000,1500,1500,0,0,0,0,0,0,0,0,0,0,0,MISSION_CURRENT,0,SYS_STATUS,52485167,52461615,53510447,35,0,-1,-1,0,0,0,0,0,0,GLOBAL_POSITION_INT,6464536,0,0,-2440,-2441,1,2,1,5622,RAW_IMU,2169569419,19,9,-990,-6,-1,2,293,-443,242,0,4308,BATTERY_STATUS,0,0,0,32767,[65535, 65535, 65535, 65535, 65535, 65535, 65535, 65535, 65535, 65535],-1,-1,-1,100,0,0,[0, 0, 0, 0],0,0,HEARTBEAT,6,8,0,0,0,3
1.6184399127960205,VFR_HUD,0.0,0.025955986231565475,56,0,-2.440000057220459,-0.010627927258610725,,,,,,,,,,,,,,,,AHRS,0.006861533038318157,0.0005698220920749009,-0.002012035110965371,0.0,0.0,0.0004887855029664934,0.0038970750756561756,GPS_RAW_INT,0,1,0,0,-17000,9999,9999,0,0,0,0,4294967295,4294967295,1000000,0,0,RC_CHANNELS,6464536,16,1501,1499,1005,1501,1000,1000,1500,1500,0,0,0,0,0,0,0,0,0,0,0,MISSION_CURRENT,0,SYS_STATUS,52485167,52461615,53510447,35,0,-1,-1,0,0,0,0,0,0,GLOBAL_POSITION_INT,6464536,0,0,-2440,-2441,1,2,1,5622,RAW_IMU,2169569419,19,9,-990,-6,-1,2,293,-443,242,0,4308,BATTERY_STATUS,0,0,0,32767,[65535, 65535, 65535, 65535, 65535, 65535, 65535, 65535, 65535, 65535],-1,-1,-1,100,0,0,[0, 0, 0, 0],0,0,HEARTBEAT,6,8,0,0,0,3
1.6685776710510254,VFR_HUD,0.0,0.025955986231565475,56,0,-2.440000057220459,-0.010627927258610725,,,,,,,,,,,,,,,,AHRS,0.006861533038318157,0.0005698220920749009,-0.002012035110965371,0.0,0.0,0.0004887855029664934,0.0038970750756561756,GPS_RAW_INT,0,1,0,0,-17000,9999,9999,0,0,0,0,4294967295,4294967295,1000000,0,0,RC_CHANNELS,6464536,16,1501,1499,1005,1501,1000,1000,1500,1500,0,0,0,0,0,0,0,0,0,0,0,MISSION_CURRENT,0,SYS_STATUS,52485167,52461615,53510447,35,0,-1,-1,0,0,0,0,0,0,GLOBAL_POSITION_INT,6464536,0,0,-2440,-2441,1,2,1,5622,RAW_IMU,2169569419,19,9,-990,-6,-1,2,293,-443,242,0,4308,BATTERY_STATUS,0,0,0,32767,[65535, 65535, 65535, 65535, 65535, 65535, 65535, 65535, 65535, 65535],-1,-1,-1,100,0,0,[0, 0, 0, 0],0,0,HEARTBEAT,6,8,0,0,0,3
1.7187178134918213,VFR_HUD,0.0,0.025955986231565475,56,0,-2.440000057220459,-0.010627927258610725,,,,,,,,,,,,,,,,AHRS,0.006861533038318157,0.0005698220920749009,-0.002012035110965371,0.0,0.0,0.0004887855029664934,0.0038970750756561756,GPS_RAW_INT,0,1,0,0,-17000,9999,9999,0,0,0,0,4294967295,4294967295,1000000,0,0,RC_CHANNELS,6464536,16,1501,1499,1005,1501,1000,1000,1500,1500,0,0,0,0,0,0,0,0,0,0,0,MISSION_CURRENT,0,SYS_STATUS,52485167,52461615,53510447,35,0,-1,-1,0,0,0,0,0,0,GLOBAL_POSITION_INT,6464536,0,0,-2440,-2441,1,2,1,5622,RAW_IMU,2169569419,19,9,-990,-6,-1,2,293,-443,242,0,4308,BATTERY_STATUS,0,0,0,32767,[65535, 65535, 65535, 65535, 65535, 65535, 65535, 65535, 65535, 65535],-1,-1,-1,100,0,0,[0, 0, 0, 0],0,0,HEARTBEAT,6,8,0,0,0,3
1.768864393234253,VFR_HUD,0.0,0.025955986231565475,56,0,-2.440000057220459,-0.010627927258610725,,,,,,,,,,,,,,,,AHRS,0.006861533038318157,0.0005698220920749009,-0.002012035110965371,0.0,0.0,0.0004887855029664934,0.0038970750756561756,GPS_RAW_INT,0,1,0,0,-17000,9999,9999,0,0,0,0,4294967295,4294967295,1000000,0,0,RC_CHANNELS,6464536,16,1501,1499,1005,1501,1000,1000,1500,1500,0,0,0,0,0,0,0,0,0,0,0,MISSION_CURRENT,0,SYS_STATUS,52485167,52461615,53510447,35,0,-1,-1,0,0,0,0,0,0,GLOBAL_POSITION_INT,6464536,0,0,-2440,-2441,1,2,1,5622,RAW_IMU,2169569419,19,9,-990,-6,-1,2,293,-443,242,0,4308,BATTERY_STATUS,0,0,0,32767,[65535, 65535, 65535, 65535, 65535, 65535, 65535, 65535, 65535, 65535],-1,-1,-1,100,0,0,[0, 0, 0, 0],0,0,HEARTBEAT,6,8,0,0,0,3
1.81907320022583,VFR_HUD,0.0,0.025955986231565475,56,0,-2.440000057220459,-0.010627927258610725,,,,,,,,,,,,,,,,AHRS,0.006861533038318157,0.0005698220920749009,-0.002012035110965371,0.0,0.0,0.0004887855029664934,0.0038970750756561756,GPS_RAW_INT,0,1,0,0,-17000,9999,9999,0,0,0,0,4294967295,4294967295,1000000,0,0,RC_CHANNELS,6464536,16,1501,1499,1005,1501,1000,1000,1500,1500,0,0,0,0,0,0,0,0,0,0,0,MISSION_CURRENT,0,SYS_STATUS,52485167,52461615,53510447,35,0,-1,-1,0,0,0,0,0,0,GLOBAL_POSITION_INT,6464536,0,0,-2440,-2441,1,2,1,5622,RAW_IMU,2169569419,19,9,-990,-6,-1,2,293,-443,242,0,4308,BATTERY_STATUS,0,0,0,32767,[65535, 65535, 65535, 65535, 65535, 65535, 65535, 65535, 65535, 65535],-1,-1,-1,100,0,0,[0, 0, 0, 0],0,0,HEARTBEAT,6,8,0,0,0,3
1.8692221641540527,VFR_HUD,0.0,0.025955986231565475,56,0,-2.440000057220459,-0.010627927258610725,,,,,,,,,,,,,,,,AHRS,0.006861533038318157,0.0005698220920749009,-0.002012035110965371,0.0,0.0,0.0004887855029664934,0.0038970750756561756,GPS_RAW_INT,0,1,0,0,-17000,9999,9999,0,0,0,0,4294967295,4294967295,1000000,0,0,RC_CHANNELS,6464536,16,1501,1499,1005,1501,1000,1000,1500,1500,0,0,0,0,0,0,0,0,0,0,0,MISSION_CURRENT,0,SYS_STATUS,52485167,52461615,53510447,34,0,-1,-1,0,0,0,0,0,0,GLOBAL_POSITION_INT,6465036,0,0,-2570,-2570,1,2,1,5622,RAW_IMU,2169569419,19,9,-990,-6,-1,2,293,-443,242,0,4308,BATTERY_STATUS,0,0,0,32767,[65535, 65535, 65535, 65535, 65535, 65535, 65535, 65535, 65535, 65535],-1,-1,-1,100,0,0,[0, 0, 0, 0],0,0,HEARTBEAT,6,8,0,0,0,3
1.9196674823760986,VFR_HUD,0.0,0.030125686898827553,56,0,-2.569999933242798,-0.01754697971045971,,,,,,,,,,,,,,,,AHRS,0.006864812225103378,0.0005701227346435189,-0.0020130127668380737,0.0,0.0,0.00048026072909124196,0.0040780468843877316,GPS_RAW_INT,0,1,0,0,-17000,9999,9999,0,0,0,0,4294967295,4294967295,1000000,0,0,RC_CHANNELS,6465036,16,1501,1499,1004,1502,1000,1000,1500,1500,0,0,0,0,0,0,0,0,0,0,0,MISSION_CURRENT,0,SYS_STATUS,52485167,52461615,53510447,34,0,-1,-1,0,0,0,0,0,0,GLOBAL_POSITION_INT,6465036,0,0,-2570,-2570,1,2,1,5622,RAW_IMU,2170069419,19,10,-992,-6,0,1,295,-445,237,0,4308,BATTERY_STATUS,0,0,0,32767,[65535, 65535, 65535, 65535, 65535, 65535, 65535, 65535, 65535, 65535],-1,-1,-1,100,0,0,[0, 0, 0, 0],0,0,HEARTBEAT,6,8,0,0,0,3
1.9698107242584229,VFR_HUD,0.0,0.030125686898827553,56,0,-2.569999933242798,-0.01754697971045971,,,,,,,,,,,,,,,,AHRS,0.006864812225103378,0.0005701227346435189,-0.0020130127668380737,0.0,0.0,0.00048026072909124196,0.0040780468843877316,GPS_RAW_INT,0,1,0,0,-17000,9999,9999,0,0,0,0,4294967295,4294967295,1000000,0,0,RC_CHANNELS,6465036,16,1501,1499,1004,1502,1000,1000,1500,1500,0,0,0,0,0,0,0,0,0,0,0,MISSION_CURRENT,0,SYS_STATUS,52485167,52461615,53510447,34,0,-1,-1,0,0,0,0,0,0,GLOBAL_POSITION_INT,6465036,0,0,-2570,-2570,1,2,1,5622,RAW_IMU,2170069419,19,10,-992,-6,0,1,295,-445,237,0,4308,BATTERY_STATUS,0,0,0,32767,[65535, 65535, 65535, 65535, 65535, 65535, 65535, 65535, 65535, 65535],-1,-1,-1,100,0,0,[0, 0, 0, 0],0,0,HEARTBEAT,6,8,0,0,0,3
2.0199692249298096,VFR_HUD,0.0,0.030125686898827553,56,0,-2.569999933242798,-0.01754697971045971,,,,,,,,,,,,,,,,AHRS,0.006864812225103378,0.0005701227346435189,-0.0020130127668380737,0.0,0.0,0.00048026072909124196,0.0040780468843877316,GPS_RAW_INT,0,1,0,0,-17000,9999,9999,0,0,0,0,4294967295,4294967295,1000000,0,0,RC_CHANNELS,6465036,16,1501,1499,1004,1502,1000,1000,1500,1500,0,0,0,0,0,0,0,0,0,0,0,MISSION_CURRENT,0,SYS_STATUS,52485167,52461615,53510447,34,0,-1,-1,0,0,0,0,0,0,GLOBAL_POSITION_INT,6465036,0,0,-2570,-2570,1,2,1,5622,RAW_IMU,2170069419,19,10,-992,-6,0,1,295,-445,237,0,4308,BATTERY_STATUS,0,0,0,32767,[65535, 65535, 65535, 65535, 65535, 65535, 65535, 65535, 65535, 65535],-1,-1,-1,100,0,0,[0, 0, 0, 0],0,0,HEARTBEAT,6,8,0,0,0,3
2.121152639389038,VFR_HUD,0.0,0.030125686898827553,56,0,-2.569999933242798,-0.01754697971045971,,,,,,,,,,,,,,,,AHRS,0.006864812225103378,0.0005701227346435189,-0.0020130127668380737,0.0,0.0,0.00048026072909124196,0.0040780468843877316,GPS_RAW_INT,0,1,0,0,-17000,9999,9999,0,0,0,0,4294967295,4294967295,1000000,0,0,RC_CHANNELS,6465036,16,1501,1499,1004,1502,1000,1000,1500,1500,0,0,0,0,0,0,0,0,0,0,0,MISSION_CURRENT,0,SYS_STATUS,52485167,52461615,53510447,34,0,-1,-1,0,0,0,0,0,0,GLOBAL_POSITION_INT,6465036,0,0,-2570,-2570,1,2,1,5622,RAW_IMU,2170069419,19,10,-992,-6,0,1,295,-445,237,0,4308,BATTERY_STATUS,0,0,0,32767,[65535, 65535, 65535, 65535, 65535, 65535, 65535, 65535, 65535, 65535],-1,-1,-1,100,0,0,[0, 0, 0, 0],0,0,HEARTBEAT,6,8,0,0,0,3
2.1713502407073975,VFR_HUD,0.0,0.030125686898827553,56,0,-2.569999933242798,-0.01754697971045971,,,,,,,,,,,,,,,,AHRS,0.006864812225103378,0.0005701227346435189,-0.0020130127668380737,0.0,0.0,0.00048026072909124196,0.0040780468843877316,GPS_RAW_INT,0,1,0,0,-17000,9999,9999,0,0,0,0,4294967295,4294967295,1000000,0,0,RC_CHANNELS,6465036,16,1501,1499,1004,1502,1000,1000,1500,1500,0,0,0,0,0,0,0,0,0,0,0,MISSION_CURRENT,0,SYS_STATUS,52485167,52461615,53510447,34,0,-1,-1,0,0,0,0,0,0,GLOBAL_POSITION_INT,6465036,0,0,-2570,-2570,1,2,1,5622,RAW_IMU,2170069419,19,10,-992,-6,0,1,295,-445,237,0,4308,BATTERY_STATUS,0,0,0,32767,[65535, 65535, 65535, 65535, 65535, 65535, 65535, 65535, 65535, 65535],-1,-1,-1,100,0,0,[0, 0, 0, 0],0,0,HEARTBEAT,6,8,0,0,0,3
2.2215466499328613,VFR_HUD,0.0,0.030125686898827553,56,0,-2.569999933242798,-0.01754697971045971,,,,,,,,,,,,,,,,AHRS,0.006864812225103378,0.0005701227346435189,-0.0020130127668380737,0.0,0.0,0.00048026072909124196,0.0040780468843877316,GPS_RAW_INT,0,1,0,0,-17000,9999,9999,0,0,0,0,4294967295,4294967295,1000000,0,0,RC_CHANNELS,6465036,16,1501,1499,1004,1502,1000,1000,1500,1500,0,0,0,0,0,0,0,0,0,0,0,MISSION_CURRENT,0,SYS_STATUS,52485167,52461615,53510447,34,0,-1,-1,0,0,0,0,0,0,GLOBAL_POSITION_INT,6465036,0,0,-2570,-2570,1,2,1,5622,RAW_IMU,2170069419,19,10,-992,-6,0,1,295,-445,237,0,4308,BATTERY_STATUS,0,0,0,32767,[65535, 65535, 65535, 65535, 65535, 65535, 65535, 65535, 65535, 65535],-1,-1,-1,100,0,0,[0, 0, 0, 0],0,0,HEARTBEAT,6,8,0,0,0,3
2.2717463970184326,VFR_HUD,0.0,0.030125686898827553,56,0,-2.569999933242798,-0.01754697971045971,,,,,,,,,,,,,,,,AHRS,0.006864812225103378,0.0005701227346435189,-0.0020130127668380737,0.0,0.0,0.00048026072909124196,0.0040780468843877316,GPS_RAW_INT,0,1,0,0,-17000,9999,9999,0,0,0,0,4294967295,4294967295,1000000,0,0,RC_CHANNELS,6465036,16,1501,1499,1004,1502,1000,1000,1500,1500,0,0,0,0,0,0,0,0,0,0,0,MISSION_CURRENT,0,SYS_STATUS,52485167,52461615,53510447,34,0,-1,-1,0,0,0,0,0,0,GLOBAL_POSITION_INT,6465036,0,0,-2570,-2570,1,2,1,5622,RAW_IMU,2170069419,19,10,-992,-6,0,1,295,-445,237,0,4308,BATTERY_STATUS,0,0,0,32767,[65535, 65535, 65535, 65535, 65535, 65535, 65535, 65535, 65535, 65535],-1,-1,-1,100,0,0,[0, 0, 0, 0],0,0,HEARTBEAT,6,8,0,0,0,3
2.3219375610351562,VFR_HUD,0.0,0.030125686898827553,56,0,-2.569999933242798,-0.01754697971045971,,,,,,,,,,,,,,,,AHRS,0.006864812225103378,0.0005701227346435189,-0.0020130127668380737,0.0,0.0,0.00048026072909124196,0.0040780468843877316,GPS_RAW_INT,0,1,0,0,-17000,9999,9999,0,0,0,0,4294967295,4294967295,1000000,0,0,RC_CHANNELS,6465036,16,1501,1499,1004,1502,1000,1000,1500,1500,0,0,0,0,0,0,0,0,0,0,0,MISSION_CURRENT,0,SYS_STATUS,52485167,52461615,53510447,34,0,-1,-1,0,0,0,0,0,0,GLOBAL_POSITION_INT,6465036,0,0,-2570,-2570,1,2,1,5622,RAW_IMU,2170069419,19,10,-992,-6,0,1,295,-445,237,0,4308,BATTERY_STATUS,0,0,0,32767,[65535, 65535, 65535, 65535, 65535, 65535, 65535, 65535, 65535, 65535],-1,-1,-1,100,0,0,[0, 0, 0, 0],0,0,HEARTBEAT,6,8,0,0,0,3
2.3721249103546143,VFR_HUD,0.0,0.030125686898827553,56,0,-2.569999933242798,-0.01754697971045971,,,,,,,,,,,,,,,,AHRS,0.006864812225103378,0.0005701227346435189,-0.0020130127668380737,0.0,0.0,0.00048026072909124196,0.0040780468843877316,GPS_RAW_INT,0,1,0,0,-17000,9999,9999,0,0,0,0,4294967295,4294967295,1000000,0,0,RC_CHANNELS,6465036,16,1501,1499,1004,1502,1000,1000,1500,1500,0,0,0,0,0,0,0,0,0,0,0,MISSION_CURRENT,0,SYS_STATUS,52485167,52461615,53510447,34,0,-1,-1,0,0,0,0,0,0,GLOBAL_POSITION_INT,6465036,0,0,-2570,-2570,1,2,1,5622,RAW_IMU,2170069419,19,10,-992,-6,0,1,295,-445,237,0,4308,BATTERY_STATUS,0,0,0,32767,[65535, 65535, 65535, 65535, 65535, 65535, 65535, 65535, 65535, 65535],-1,-1,-1,100,0,0,[0, 0, 0, 0],0,0,HEARTBEAT,6,8,0,0,0,3
2.4223079681396484,VFR_HUD,0.0,0.030125686898827553,56,0,-2.569999933242798,-0.01754697971045971,,,,,,,,,,,,,,,,AHRS,0.006864812225103378,0.0005701227346435189,-0.0020130127668380737,0.0,0.0,0.00048026072909124196,0.0040780468843877316,GPS_RAW_INT,0,1,0,0,-17000,9999,9999,0,0,0,0,4294967295,4294967295,1000000,0,0,RC_CHANNELS,6465036,16,1501,1499,1004,1502,1000,1000,1500,1500,0,0,0,0,0,0,0,0,0,0,0,MISSION_CURRENT,0,SYS_STATUS,52485167,52461615,53510447,34,0,-1,-1,0,0,0,0,0,0,GLOBAL_POSITION_INT,6465036,0,0,-2570,-2570,1,2,1,5622,RAW_IMU,2170069419,19,10,-992,-6,0,1,295,-445,237,0,4308,BATTERY_STATUS,0,0,0,32767,[65535, 65535, 65535, 65535, 65535, 65535, 65535, 65535, 65535, 65535],-1,-1,-1,100,0,0,[0, 0, 0, 0],0,0,HEARTBEAT,6,8,0,0,0,3
2.4724924564361572,VFR_HUD,0.0,0.030125686898827553,56,0,-2.569999933242798,-0.01754697971045971,,,,,,,,,,,,,,,,AHRS,0.006864812225103378,0.0005701227346435189,-0.0020130127668380737,0.0,0.0,0.00048026072909124196,0.0040780468843877316,GPS_RAW_INT,0,1,0,0,-17000,9999,9999,0,0,0,0,4294967295,4294967295,1000000,0,0,RC_CHANNELS,6465036,16,1501,1499,1004,1502,1000,1000,1500,1500,0,0,0,0,0,0,0,0,0,0,0,MISSION_CURRENT,0,SYS_STATUS,52485167,52461615,53510447,34,0,-1,-1,0,0,0,0,0,0,GLOBAL_POSITION_INT,6465036,0,0,-2570,-2570,1,2,1,5622,RAW_IMU,2170069419,19,10,-992,-6,0,1,295,-445,237,0,4308,BATTERY_STATUS,0,0,0,32767,[65535, 65535, 65535, 65535, 65535, 65535, 65535, 65535, 65535, 65535],-1,-1,-1,100,0,0,[0, 0, 0, 0],0,0,HEARTBEAT,6,8,0,0,0,3
2.5227222442626953,VFR_HUD,0.0,0.030125686898827553,56,0,-2.569999933242798,-0.01754697971045971,,,,,,,,,,,,,,,,AHRS,0.006864812225103378,0.0005701227346435189,-0.0020130127668380737,0.0,0.0,0.00048026072909124196,0.0040780468843877316,GPS_RAW_INT,0,1,0,0,-17000,9999,9999,0,0,0,0,4294967295,4294967295,1000000,0,0,RC_CHANNELS,6465036,16,1501,1499,1004,1502,1000,1000,1500,1500,0,0,0,0,0,0,0,0,0,0,0,MISSION_CURRENT,0,SYS_STATUS,52485167,52461615,53510447,35,0,-1,-1,0,0,0,0,0,0,GLOBAL_POSITION_INT,6465536,0,0,-2470,-2474,1,2,2,5622,RAW_IMU,2170069419,19,10,-992,-6,0,1,295,-445,237,0,4308,BATTERY_STATUS,0,0,0,32767,[65535, 65535, 65535, 65535, 65535, 65535, 65535, 65535, 65535, 65535],-1,-1,-1,100,0,0,[0, 0, 0, 0],0,0,HEARTBEAT,10,3,193,0,4,3
2.572981834411621,VFR_HUD,0.0,0.03336155414581299,56,0,-2.4700000286102295,-0.02846272476017475,,,,,,,,,,,,,,,,AHRS,0.006864812225103378,0.0005701227346435189,-0.0020130127668380737,0.0,0.0,0.00048026072909124196,0.0040780468843877316,GPS_RAW_INT,0,1,0,0,-17000,9999,9999,0,0,0,0,4294967295,4294967295,1000000,0,0,RC_CHANNELS,6465536,16,1501,1499,1004,1501,1001,1000,1500,1500,0,0,0,0,0,0,0,0,0,0,0,MISSION_CURRENT,0,SYS_STATUS,52485167,52461615,53510447,35,0,-1,-1,0,0,0,0,0,0,GLOBAL_POSITION_INT,6465536,0,0,-2470,-2474,1,2,2,5622,RAW_IMU,2170569376,19,10,-992,-6,0,2,293,-446,233,0,4308,BATTERY_STATUS,0,0,0,32767,[65535, 65535, 65535, 65535, 65535, 65535, 65535, 65535, 65535, 65535],-1,-1,-1,100,0,0,[0, 0, 0, 0],0,0,HEARTBEAT,10,3,193,0,4,3
2.623145341873169,VFR_HUD,0.0,0.03336155414581299,56,0,-2.4700000286102295,-0.02846272476017475,,,,,,,,,,,,,,,,AHRS,0.006866800133138895,0.0005703381611965597,-0.002013765973970294,0.0,0.0,0.00049817212857306,0.0034207715652883053,GPS_RAW_INT,0,1,0,0,-17000,9999,9999,0,0,0,0,4294967295,4294967295,1000000,0,0,RC_CHANNELS,6465536,16,1501,1499,1004,1501,1001,1000,1500,1500,0,0,0,0,0,0,0,0,0,0,0,MISSION_CURRENT,0,SYS_STATUS,52485167,52461615,53510447,35,0,-1,-1,0,0,0,0,0,0,GLOBAL_POSITION_INT,6465536,0,0,-2470,-2474,1,2,2,5622,RAW_IMU,2170569376,19,10,-992,-6,0,2,293,-446,233,0,4308,BATTERY_STATUS,0,0,0,32767,[65535, 65535, 65535, 65535, 65535, 65535, 65535, 65535, 65535, 65535],-1,-1,-1,100,0,0,[0, 0, 0, 0],0,0,HEARTBEAT,10,3,193,0,4,3
2.673302412033081,VFR_HUD,0.0,0.03336155414581299,56,0,-2.4700000286102295,-0.02846272476017475,,,,,,,,,,,,,,,,AHRS,0.006866800133138895,0.0005703381611965597,-0.002013765973970294,0.0,0.0,0.00049817212857306,0.0034207715652883053,GPS_RAW_INT,0,1,0,0,-17000,9999,9999,0,0,0,0,4294967295,4294967295,1000000,0,0,RC_CHANNELS,6465536,16,1501,1499,1004,1501,1001,1000,1500,1500,0,0,0,0,0,0,0,0,0,0,0,MISSION_CURRENT,0,SYS_STATUS,52485167,52461615,53510447,35,0,-1,-1,0,0,0,0,0,0,GLOBAL_POSITION_INT,6465536,0,0,-2470,-2474,1,2,2,5622,RAW_IMU,2170569376,19,10,-992,-6,0,2,293,-446,233,0,4308,BATTERY_STATUS,0,0,0,32767,[65535, 65535, 65535, 65535, 65535, 65535, 65535, 65535, 65535, 65535],-1,-1,-1,100,0,0,[0, 0, 0, 0],0,0,HEARTBEAT,10,3,193,0,4,3
2.7234630584716797,VFR_HUD,0.0,0.03336155414581299,56,0,-2.4700000286102295,-0.02846272476017475,,,,,,,,,,,,,,,,AHRS,0.006866800133138895,0.0005703381611965597,-0.002013765973970294,0.0,0.0,0.00049817212857306,0.0034207715652883053,GPS_RAW_INT,0,1,0,0,-17000,9999,9999,0,0,0,0,4294967295,4294967295,1000000,0,0,RC_CHANNELS,6465536,16,1501,1499,1004,1501,1001,1000,1500,1500,0,0,0,0,0,0,0,0,0,0,0,MISSION_CURRENT,0,SYS_STATUS,52485167,52461615,53510447,35,0,-1,-1,0,0,0,0,0,0,GLOBAL_POSITION_INT,6465536,0,0,-2470,-2474,1,2,2,5622,RAW_IMU,2170569376,19,10,-992,-6,0,2,293,-446,233,0,4308,BATTERY_STATUS,0,0,0,32767,[65535, 65535, 65535, 65535, 65535, 65535, 65535, 65535, 65535, 65535],-1,-1,-1,100,0,0,[0, 0, 0, 0],0,0,HEARTBEAT,10,3,193,0,4,3
2.7736055850982666,VFR_HUD,0.0,0.03336155414581299,56,0,-2.4700000286102295,-0.02846272476017475,,,,,,,,,,,,,,,,AHRS,0.006866800133138895,0.0005703381611965597,-0.002013765973970294,0.0,0.0,0.00049817212857306,0.0034207715652883053,GPS_RAW_INT,0,1,0,0,-17000,9999,9999,0,0,0,0,4294967295,4294967295,1000000,0,0,RC_CHANNELS,6465536,16,1501,1499,1004,1501,1001,1000,1500,1500,0,0,0,0,0,0,0,0,0,0,0,MISSION_CURRENT,0,SYS_STATUS,52485167,52461615,53510447,35,0,-1,-1,0,0,0,0,0,0,GLOBAL_POSITION_INT,6465536,0,0,-2470,-2474,1,2,2,5622,RAW_IMU,2170569376,19,10,-992,-6,0,2,293,-446,233,0,4308,BATTERY_STATUS,0,0,0,32767,[65535, 65535, 65535, 65535, 65535, 65535, 65535, 65535, 65535, 65535],-1,-1,-1,100,0,0,[0, 0, 0, 0],0,0,HEARTBEAT,6,8,0,0,0,3
2.823776960372925,VFR_HUD,0.0,0.03336155414581299,56,0,-2.4700000286102295,-0.02846272476017475,,,,,,,,,,,,,,,,AHRS,0.006866800133138895,0.0005703381611965597,-0.002013765973970294,0.0,0.0,0.00049817212857306,0.0034207715652883053,GPS_RAW_INT,0,1,0,0,-17000,9999,9999,0,0,0,0,4294967295,4294967295,1000000,0,0,RC_CHANNELS,6465536,16,1501,1499,1004,1501,1001,1000,1500,1500,0,0,0,0,0,0,0,0,0,0,0,MISSION_CURRENT,0,SYS_STATUS,52485167,52461615,53510447,35,0,-1,-1,0,0,0,0,0,0,GLOBAL_POSITION_INT,6465536,0,0,-2470,-2474,1,2,2,5622,RAW_IMU,2170569376,19,10,-992,-6,0,2,293,-446,233,0,4308,BATTERY_STATUS,0,0,0,32767,[65535, 65535, 65535, 65535, 65535, 65535, 65535, 65535, 65535, 65535],-1,-1,-1,100,0,0,[0, 0, 0, 0],0,0,HEARTBEAT,6,8,0,0,0,3
2.873960018157959,VFR_HUD,0.0,0.03336155414581299,56,0,-2.4700000286102295,-0.02846272476017475,,,,,,,,,,,,,,,,AHRS,0.006866800133138895,0.0005703381611965597,-0.002013765973970294,0.0,0.0,0.00049817212857306,0.0034207715652883053,GPS_RAW_INT,0,1,0,0,-17000,9999,9999,0,0,0,0,4294967295,4294967295,1000000,0,0,RC_CHANNELS,6465536,16,1501,1499,1004,1501,1001,1000,1500,1500,0,0,0,0,0,0,0,0,0,0,0,MISSION_CURRENT,0,SYS_STATUS,52485167,52461615,53510447,35,0,-1,-1,0,0,0,0,0,0,GLOBAL_POSITION_INT,6465536,0,0,-2470,-2474,1,2,2,5622,RAW_IMU,2170569376,19,10,-992,-6,0,2,293,-446,233,0,4308,BATTERY_STATUS,0,0,0,32767,[65535, 65535, 65535, 65535, 65535, 65535, 65535, 65535, 65535, 65535],-1,-1,-1,100,0,0,[0, 0, 0, 0],0,0,HEARTBEAT,6,8,0,0,0,3
2.9241015911102295,VFR_HUD,0.0,0.03336155414581299,56,0,-2.4700000286102295,-0.02846272476017475,,,,,,,,,,,,,,,,AHRS,0.006866800133138895,0.0005703381611965597,-0.002013765973970294,0.0,0.0,0.00049817212857306,0.0034207715652883053,GPS_RAW_INT,0,1,0,0,-17000,9999,9999,0,0,0,0,4294967295,4294967295,1000000,0,0,RC_CHANNELS,6465536,16,1501,1499,1004,1501,1001,1000,1500,1500,0,0,0,0,0,0,0,0,0,0,0,MISSION_CURRENT,0,SYS_STATUS,52485167,52461615,53510447,35,0,-1,-1,0,0,0,0,0,0,GLOBAL_POSITION_INT,6465536,0,0,-2470,-2474,1,2,2,5622,RAW_IMU,2170569376,19,10,-992,-6,0,2,293,-446,233,0,4308,BATTERY_STATUS,0,0,0,32767,[65535, 65535, 65535, 65535, 65535, 65535, 65535, 65535, 65535, 65535],-1,-1,-1,100,0,0,[0, 0, 0, 0],0,0,HEARTBEAT,6,8,0,0,0,3
2.974242687225342,VFR_HUD,0.0,0.03336155414581299,56,0,-2.4700000286102295,-0.02846272476017475,,,,,,,,,,,,,,,,AHRS,0.006866800133138895,0.0005703381611965597,-0.002013765973970294,0.0,0.0,0.00049817212857306,0.0034207715652883053,GPS_RAW_INT,0,1,0,0,-17000,9999,9999,0,0,0,0,4294967295,4294967295,1000000,0,0,RC_CHANNELS,6465536,16,1501,1499,1004,1501,1001,1000,1500,1500,0,0,0,0,0,0,0,0,0,0,0,MISSION_CURRENT,0,SYS_STATUS,52485167,52461615,53510447,35,0,-1,-1,0,0,0,0,0,0,GLOBAL_POSITION_INT,6465536,0,0,-2470,-2474,1,2,2,5622,RAW_IMU,2170569376,19,10,-992,-6,0,2,293,-446,233,0,4308,BATTERY_STATUS,0,0,0,32767,[65535, 65535, 65535, 65535, 65535, 65535, 65535, 65535, 65535, 65535],-1,-1,-1,100,0,0,[0, 0, 0, 0],0,0,HEARTBEAT,6,8,0,0,0,3
3.0244266986846924,VFR_HUD,0.0,0.03336155414581299,56,0,-2.4700000286102295,-0.02846272476017475,,,,,,,,,,,,,,,,AHRS,0.006866800133138895,0.0005703381611965597,-0.002013765973970294,0.0,0.0,0.00049817212857306,0.0034207715652883053,GPS_RAW_INT,0,1,0,0,-17000,9999,9999,0,0,0,0,4294967295,4294967295,1000000,0,0,RC_CHANNELS,6465536,16,1501,1499,1004,1501,1001,1000,1500,1500,0,0,0,0,0,0,0,0,0,0,0,MISSION_CURRENT,0,SYS_STATUS,52485167,52461615,53510447,35,0,-1,-1,0,0,0,0,0,0,GLOBAL_POSITION_INT,6465536,0,0,-2470,-2474,1,2,2,5622,RAW_IMU,2170569376,19,10,-992,-6,0,2,293,-446,233,0,4308,BATTERY_STATUS,0,0,0,32767,[65535, 65535, 65535, 65535, 65535, 65535, 65535, 65535, 65535, 65535],-1,-1,-1,100,0,0,[0, 0, 0, 0],0,0,HEARTBEAT,6,8,0,0,0,3
3.0745720863342285,VFR_HUD,0.0,0.03336155414581299,56,0,-2.4700000286102295,-0.02846272476017475,,,,,,,,,,,,,,,,AHRS,0.006866800133138895,0.0005703381611965597,-0.002013765973970294,0.0,0.0,0.00049817212857306,0.0034207715652883053,GPS_RAW_INT,0,1,0,0,-17000,9999,9999,0,0,0,0,4294967295,4294967295,1000000,0,0,RC_CHANNELS,6465536,16,1501,1499,1004,1501,1001,1000,1500,1500,0,0,0,0,0,0,0,0,0,0,0,MISSION_CURRENT,0,SYS_STATUS,52485167,52461615,53510447,35,0,-1,-1,0,0,0,0,0,0,GLOBAL_POSITION_INT,6465536,0,0,-2470,-2474,1,2,2,5622,RAW_IMU,2170569376,19,10,-992,-6,0,2,293,-446,233,0,4308,BATTERY_STATUS,0,0,0,32767,[65535, 65535, 65535, 65535, 65535, 65535, 65535, 65535, 65535, 65535],-1,-1,-1,100,0,0,[0, 0, 0, 0],0,0,HEARTBEAT,6,8,0,0,0,3
3.1250529289245605,VFR_HUD,0.0,0.03336155414581299,56,0,-2.4700000286102295,-0.02846272476017475,,,,,,,,,,,,,,,,AHRS,0.006866800133138895,0.0005703381611965597,-0.002013765973970294,0.0,0.0,0.00049817212857306,0.0034207715652883053,GPS_RAW_INT,0,1,0,0,-17000,9999,9999,0,0,0,0,4294967295,4294967295,1000000,0,0,RC_CHANNELS,6465536,16,1501,1499,1004,1501,1001,1000,1500,1500,0,0,0,0,0,0,0,0,0,0,0,MISSION_CURRENT,0,SYS_STATUS,52485167,52461615,53510447,34,0,-1,-1,0,0,0,0,0,0,GLOBAL_POSITION_INT,6466036,0,0,-2600,-2608,1,3,3,5622,RAW_IMU,2170569376,19,10,-992,-6,0,2,293,-446,233,0,4308,BATTERY_STATUS,0,0,0,32767,[65535, 65535, 65535, 65535, 65535, 65535, 65535, 65535, 65535, 65535],-1,-1,-1,100,0,0,[0, 0, 0, 0],0,0,HEARTBEAT,6,8,0,0,0,3
3.175212860107422,VFR_HUD,0.0,0.03652649000287056,56,0,-2.5999999046325684,-0.03557617589831352,,,,,,,,,,,,,,,,AHRS,0.006866800133138895,0.0005703381611965597,-0.002013765973970294,0.0,0.0,0.00049817212857306,0.0034207715652883053,GPS_RAW_INT,0,1,0,0,-17000,9999,9999,0,0,0,0,4294967295,4294967295,1000000,0,0,RC_CHANNELS,6466036,16,1502,1499,1004,1501,1000,1000,1501,1500,0,0,0,0,0,0,0,0,0,0,0,MISSION_CURRENT,0,SYS_STATUS,52485167,52461615,53510447,34,0,-1,-1,0,0,0,0,0,0,GLOBAL_POSITION_INT,6466036,0,0,-2600,-2608,1,3,3,5622,RAW_IMU,2171069348,19,11,-991,-6,0,2,291,-443,238,0,4308,BATTERY_STATUS,0,0,0,32767,[65535, 65535, 65535, 65535, 65535, 65535, 65535, 65535, 65535, 65535],-1,-1,-1,100,0,0,[0, 0, 0, 0],0,0,HEARTBEAT,6,8,0,0,0,3
3.225520372390747,VFR_HUD,0.0,0.03652649000287056,56,0,-2.5999999046325684,-0.03557617589831352,,,,,,,,,,,,,,,,AHRS,0.006867980118840933,0.0005705158109776676,-0.002014242112636566,0.0,0.0,0.0005082919378764927,0.002946999855339527,GPS_RAW_INT,0,1,0,0,-17000,9999,9999,0,0,0,0,4294967295,4294967295,1000000,0,0,RC_CHANNELS,6466036,16,1502,1499,1004,1501,1000,1000,1501,1500,0,0,0,0,0,0,0,0,0,0,0,MISSION_CURRENT,0,SYS_STATUS,52485167,52461615,53510447,34,0,-1,-1,0,0,0,0,0,0,GLOBAL_POSITION_INT,6466036,0,0,-2600,-2608,1,3,3,5622,RAW_IMU,2171069348,19,11,-991,-6,0,2,291,-443,238,0,4308,BATTERY_STATUS,0,0,0,32767,[65535, 65535, 65535, 65535, 65535, 65535, 65535, 65535, 65535, 65535],-1,-1,-1,100,0,0,[0, 0, 0, 0],0,0,HEARTBEAT,6,8,0,0,0,3
3.275660753250122,VFR_HUD,0.0,0.03652649000287056,56,0,-2.5999999046325684,-0.03557617589831352,,,,,,,,,,,,,,,,AHRS,0.006867980118840933,0.0005705158109776676,-0.002014242112636566,0.0,0.0,0.0005082919378764927,0.002946999855339527,GPS_RAW_INT,0,1,0,0,-17000,9999,9999,0,0,0,0,4294967295,4294967295,1000000,0,0,RC_CHANNELS,6466036,16,1502,1499,1004,1501,1000,1000,1501,1500,0,0,0,0,0,0,0,0,0,0,0,MISSION_CURRENT,0,SYS_STATUS,52485167,52461615,53510447,34,0,-1,-1,0,0,0,0,0,0,GLOBAL_POSITION_INT,6466036,0,0,-2600,-2608,1,3,3,5622,RAW_IMU,2171069348,19,11,-991,-6,0,2,291,-443,238,0,4308,BATTERY_STATUS,0,0,0,32767,[65535, 65535, 65535, 65535, 65535, 65535, 65535, 65535, 65535, 65535],-1,-1,-1,100,0,0,[0, 0, 0, 0],0,0,HEARTBEAT,6,8,0,0,0,3
3.3257997035980225,VFR_HUD,0.0,0.03652649000287056,56,0,-2.5999999046325684,-0.03557617589831352,,,,,,,,,,,,,,,,AHRS,0.006867980118840933,0.0005705158109776676,-0.002014242112636566,0.0,0.0,0.0005082919378764927,0.002946999855339527,GPS_RAW_INT,0,1,0,0,-17000,9999,9999,0,0,0,0,4294967295,4294967295,1000000,0,0,RC_CHANNELS,6466036,16,1502,1499,1004,1501,1000,1000,1501,1500,0,0,0,0,0,0,0,0,0,0,0,MISSION_CURRENT,0,SYS_STATUS,52485167,52461615,53510447,34,0,-1,-1,0,0,0,0,0,0,GLOBAL_POSITION_INT,6466036,0,0,-2600,-2608,1,3,3,5622,RAW_IMU,2171069348,19,11,-991,-6,0,2,291,-443,238,0,4308,BATTERY_STATUS,0,0,0,32767,[65535, 65535, 65535, 65535, 65535, 65535, 65535, 65535, 65535, 65535],-1,-1,-1,100,0,0,[0, 0, 0, 0],0,0,HEARTBEAT,6,8,0,0,0,3
3.3759608268737793,VFR_HUD,0.0,0.03652649000287056,56,0,-2.5999999046325684,-0.03557617589831352,,,,,,,,,,,,,,,,AHRS,0.006867980118840933,0.0005705158109776676,-0.002014242112636566,0.0,0.0,0.0005082919378764927,0.002946999855339527,GPS_RAW_INT,0,1,0,0,-17000,9999,9999,0,0,0,0,4294967295,4294967295,1000000,0,0,RC_CHANNELS,6466036,16,1502,1499,1004,1501,1000,1000,1501,1500,0,0,0,0,0,0,0,0,0,0,0,MISSION_CURRENT,0,SYS_STATUS,52485167,52461615,53510447,34,0,-1,-1,0,0,0,0,0,0,GLOBAL_POSITION_INT,6466036,0,0,-2600,-2608,1,3,3,5622,RAW_IMU,2171069348,19,11,-991,-6,0,2,291,-443,238,0,4308,BATTERY_STATUS,0,0,0,32767,[65535, 65535, 65535, 65535, 65535, 65535, 65535, 65535, 65535, 65535],-1,-1,-1,100,0,0,[0, 0, 0, 0],0,0,HEARTBEAT,6,8,0,0,0,3
3.4261727333068848,VFR_HUD,0.0,0.03652649000287056,56,0,-2.5999999046325684,-0.03557617589831352,,,,,,,,,,,,,,,,AHRS,0.006867980118840933,0.0005705158109776676,-0.002014242112636566,0.0,0.0,0.0005082919378764927,0.002946999855339527,GPS_RAW_INT,0,1,0,0,-17000,9999,9999,0,0,0,0,4294967295,4294967295,1000000,0,0,RC_CHANNELS,6466036,16,1502,1499,1004,1501,1000,1000,1501,1500,0,0,0,0,0,0,0,0,0,0,0,MISSION_CURRENT,0,SYS_STATUS,52485167,52461615,53510447,34,0,-1,-1,0,0,0,0,0,0,GLOBAL_POSITION_INT,6466036,0,0,-2600,-2608,1,3,3,5622,RAW_IMU,2171069348,19,11,-991,-6,0,2,291,-443,238,0,4308,BATTERY_STATUS,0,0,0,32767,[65535, 65535, 65535, 65535, 65535, 65535, 65535, 65535, 65535, 65535],-1,-1,-1,100,0,0,[0, 0, 0, 0],0,0,HEARTBEAT,6,8,0,0,0,3
3.476414442062378,VFR_HUD,0.0,0.03652649000287056,56,0,-2.5999999046325684,-0.03557617589831352,,,,,,,,,,,,,,,,AHRS,0.006867980118840933,0.0005705158109776676,-0.002014242112636566,0.0,0.0,0.0005082919378764927,0.002946999855339527,GPS_RAW_INT,0,1,0,0,-17000,9999,9999,0,0,0,0,4294967295,4294967295,1000000,0,0,RC_CHANNELS,6466036,16,1502,1499,1004,1501,1000,1000,1501,1500,0,0,0,0,0,0,0,0,0,0,0,MISSION_CURRENT,0,SYS_STATUS,52485167,52461615,53510447,34,0,-1,-1,0,0,0,0,0,0,GLOBAL_POSITION_INT,6466036,0,0,-2600,-2608,1,3,3,5622,RAW_IMU,2171069348,19,11,-991,-6,0,2,291,-443,238,0,4308,BATTERY_STATUS,0,0,0,32767,[65535, 65535, 65535, 65535, 65535, 65535, 65535, 65535, 65535, 65535],-1,-1,-1,100,0,0,[0, 0, 0, 0],0,0,HEARTBEAT,6,8,0,0,0,3
3.5265796184539795,VFR_HUD,0.0,0.03652649000287056,56,0,-2.5999999046325684,-0.03557617589831352,,,,,,,,,,,,,,,,AHRS,0.006867980118840933,0.0005705158109776676,-0.002014242112636566,0.0,0.0,0.0005082919378764927,0.002946999855339527,GPS_RAW_INT,0,1,0,0,-17000,9999,9999,0,0,0,0,4294967295,4294967295,1000000,0,0,RC_CHANNELS,6466036,16,1502,1499,1004,1501,1000,1000,1501,1500,0,0,0,0,0,0,0,0,0,0,0,MISSION_CURRENT,0,SYS_STATUS,52485167,52461615,53510447,34,0,-1,-1,0,0,0,0,0,0,GLOBAL_POSITION_INT,6466036,0,0,-2600,-2608,1,3,3,5622,RAW_IMU,2171069348,19,11,-991,-6,0,2,291,-443,238,0,4308,BATTERY_STATUS,0,0,0,32767,[65535, 65535, 65535, 65535, 65535, 65535, 65535, 65535, 65535, 65535],-1,-1,-1,100,0,0,[0, 0, 0, 0],0,0,HEARTBEAT,6,8,0,0,0,3
3.5767505168914795,VFR_HUD,0.0,0.03652649000287056,56,0,-2.5999999046325684,-0.03557617589831352,,,,,,,,,,,,,,,,AHRS,0.006867980118840933,0.0005705158109776676,-0.002014242112636566,0.0,0.0,0.0005082919378764927,0.002946999855339527,GPS_RAW_INT,0,1,0,0,-17000,9999,9999,0,0,0,0,4294967295,4294967295,1000000,0,0,RC_CHANNELS,6466036,16,1502,1499,1004,1501,1000,1000,1501,1500,0,0,0,0,0,0,0,0,0,0,0,MISSION_CURRENT,0,SYS_STATUS,52485167,52461615,53510447,34,0,-1,-1,0,0,0,0,0,0,GLOBAL_POSITION_INT,6466036,0,0,-2600,-2608,1,3,3,5622,RAW_IMU,2171069348,19,11,-991,-6,0,2,291,-443,238,0,4308,BATTERY_STATUS,0,0,0,32767,[65535, 65535, 65535, 65535, 65535, 65535, 65535, 65535, 65535, 65535],-1,-1,-1,100,0,0,[0, 0, 0, 0],0,0,HEARTBEAT,6,8,0,0,0,3
3.677126884460449,VFR_HUD,0.0,0.03652649000287056,56,0,-2.5999999046325684,-0.03557617589831352,,,,,,,,,,,,,,,,AHRS,0.006867980118840933,0.0005705158109776676,-0.002014242112636566,0.0,0.0,0.0005082919378764927,0.002946999855339527,GPS_RAW_INT,0,1,0,0,-17000,9999,9999,0,0,0,0,4294967295,4294967295,1000000,0,0,RC_CHANNELS,6466036,16,1502,1499,1004,1501,1000,1000,1501,1500,0,0,0,0,0,0,0,0,0,0,0,MISSION_CURRENT,0,SYS_STATUS,52485167,52461615,53510447,34,0,-1,-1,0,0,0,0,0,0,GLOBAL_POSITION_INT,6466036,0,0,-2600,-2608,1,3,3,5622,RAW_IMU,2171069348,19,11,-991,-6,0,2,291,-443,238,0,4308,BATTERY_STATUS,0,0,0,32767,[65535, 65535, 65535, 65535, 65535, 65535, 65535, 65535, 65535, 65535],-1,-1,-1,100,0,0,[0, 0, 0, 0],0,0,HEARTBEAT,6,8,0,0,0,3
3.727360248565674,VFR_HUD,0.0,0.03652649000287056,56,0,-2.5999999046325684,-0.03557617589831352,,,,,,,,,,,,,,,,AHRS,0.006867980118840933,0.0005705158109776676,-0.002014242112636566,0.0,0.0,0.0005082919378764927,0.002946999855339527,GPS_RAW_INT,0,1,0,0,-17000,9999,9999,0,0,0,0,4294967295,4294967295,1000000,0,0,RC_CHANNELS,6466036,16,1502,1499,1004,1501,1000,1000,1501,1500,0,0,0,0,0,0,0,0,0,0,0,MISSION_CURRENT,0,SYS_STATUS,52485167,52461615,53510447,34,0,-1,-1,0,0,0,0,0,0,GLOBAL_POSITION_INT,6466036,0,0,-2600,-2608,1,3,3,5622,RAW_IMU,2171069348,19,11,-991,-6,0,2,291,-443,238,0,4308,BATTERY_STATUS,0,0,0,32767,[65535, 65535, 65535, 65535, 65535, 65535, 65535, 65535, 65535, 65535],-1,-1,-1,100,0,0,[0, 0, 0, 0],0,0,HEARTBEAT,6,8,0,0,0,3
3.777585983276367,VFR_HUD,0.0,0.03652649000287056,56,0,-2.5999999046325684,-0.03557617589831352,,,,,,,,,,,,,,,,AHRS,0.006867980118840933,0.0005705158109776676,-0.002014242112636566,0.0,0.0,0.0005082919378764927,0.002946999855339527,GPS_RAW_INT,0,1,0,0,-17000,9999,9999,0,0,0,0,4294967295,4294967295,1000000,0,0,RC_CHANNELS,6466036,16,1502,1499,1004,1501,1000,1000,1501,1500,0,0,0,0,0,0,0,0,0,0,0,MISSION_CURRENT,0,SYS_STATUS,52485167,52461615,53510447,34,0,-1,-1,0,0,0,0,0,0,GLOBAL_POSITION_INT,6466536,0,0,-2620,-2624,1,3,3,5622,RAW_IMU,2171069348,19,11,-991,-6,0,2,291,-443,238,0,4308,BATTERY_STATUS,0,0,0,32767,[65535, 65535, 65535, 65535, 65535, 65535, 65535, 65535, 65535, 65535],-1,-1,-1,100,0,0,[0, 0, 0, 0],0,0,HEARTBEAT,10,3,193,0,4,3
3.8277881145477295,VFR_HUD,0.0,0.04049776867032051,56,0,-2.619999885559082,-0.03703244403004646,,,,,,,,,,,,,,,,AHRS,0.006867980118840933,0.0005705158109776676,-0.002014242112636566,0.0,0.0,0.0005082919378764927,0.002946999855339527,GPS_RAW_INT,0,1,0,0,-17000,9999,9999,0,0,0,0,4294967295,4294967295,1000000,0,0,RC_CHANNELS,6466536,16,1502,1499,1004,1501,1000,1000,1501,1500,0,0,0,0,0,0,0,0,0,0,0,MISSION_CURRENT,0,SYS_STATUS,52485167,52461615,53510447,35,0,-1,-1,0,0,0,0,0,0,GLOBAL_POSITION_INT,6466536,0,0,-2620,-2624,1,3,3,5622,RAW_IMU,2171069348,19,11,-991,-6,0,2,291,-443,238,0,4308,BATTERY_STATUS,0,0,0,32767,[65535, 65535, 65535, 65535, 65535, 65535, 65535, 65535, 65535, 65535],-1,-1,-1,100,0,0,[0, 0, 0, 0],0,0,HEARTBEAT,10,3,193,0,4,3
3.878204107284546,VFR_HUD,0.0,0.04049776867032051,56,0,-2.619999885559082,-0.03703244403004646,,,,,,,,,,,,,,,,AHRS,0.0068617877550423145,0.0005701165646314621,-0.002012487268075347,0.0,0.0,0.0004870677075814456,0.0035449787974357605,GPS_RAW_INT,0,1,0,0,-17000,9999,9999,0,0,0,0,4294967295,4294967295,1000000,0,0,RC_CHANNELS,6466536,16,1502,1499,1004,1501,1000,1000,1501,1500,0,0,0,0,0,0,0,0,0,0,0,MISSION_CURRENT,0,SYS_STATUS,52485167,52461615,53510447,35,0,-1,-1,0,0,0,0,0,0,GLOBAL_POSITION_INT,6466536,0,0,-2620,-2624,1,3,3,5622,RAW_IMU,2171569357,19,10,-991,-6,-1,2,291,-447,241,0,4308,BATTERY_STATUS,0,0,0,32767,[65535, 65535, 65535, 65535, 65535, 65535, 65535, 65535, 65535, 65535],-1,-1,-1,100,0,0,[0, 0, 0, 0],0,0,HEARTBEAT,10,3,193,0,4,3
3.928354263305664,VFR_HUD,0.0,0.04049776867032051,56,0,-2.619999885559082,-0.03703244403004646,,,,,,,,,,,,,,,,AHRS,0.0068617877550423145,0.0005701165646314621,-0.002012487268075347,0.0,0.0,0.0004870677075814456,0.0035449787974357605,GPS_RAW_INT,0,1,0,0,-17000,9999,9999,0,0,0,0,4294967295,4294967295,1000000,0,0,RC_CHANNELS,6466536,16,1502,1499,1004,1501,1000,1000,1501,1500,0,0,0,0,0,0,0,0,0,0,0,MISSION_CURRENT,0,SYS_STATUS,52485167,52461615,53510447,35,0,-1,-1,0,0,0,0,0,0,GLOBAL_POSITION_INT,6466536,0,0,-2620,-2624,1,3,3,5622,RAW_IMU,2171569357,19,10,-991,-6,-1,2,291,-447,241,0,4308,BATTERY_STATUS,0,0,0,32767,[65535, 65535, 65535, 65535, 65535, 65535, 65535, 65535, 65535, 65535],-1,-1,-1,100,0,0,[0, 0, 0, 0],0,0,HEARTBEAT,10,3,193,0,4,3
3.97849440574646,VFR_HUD,0.0,0.04049776867032051,56,0,-2.619999885559082,-0.03703244403004646,,,,,,,,,,,,,,,,AHRS,0.0068617877550423145,0.0005701165646314621,-0.002012487268075347,0.0,0.0,0.0004870677075814456,0.0035449787974357605,GPS_RAW_INT,0,1,0,0,-17000,9999,9999,0,0,0,0,4294967295,4294967295,1000000,0,0,RC_CHANNELS,6466536,16,1502,1499,1004,1501,1000,1000,1501,1500,0,0,0,0,0,0,0,0,0,0,0,MISSION_CURRENT,0,SYS_STATUS,52485167,52461615,53510447,35,0,-1,-1,0,0,0,0,0,0,GLOBAL_POSITION_INT,6466536,0,0,-2620,-2624,1,3,3,5622,RAW_IMU,2171569357,19,10,-991,-6,-1,2,291,-447,241,0,4308,BATTERY_STATUS,0,0,0,32767,[65535, 65535, 65535, 65535, 65535, 65535, 65535, 65535, 65535, 65535],-1,-1,-1,100,0,0,[0, 0, 0, 0],0,0,HEARTBEAT,10,3,193,0,4,3
4.0286359786987305,VFR_HUD,0.0,0.04049776867032051,56,0,-2.619999885559082,-0.03703244403004646,,,,,,,,,,,,,,,,AHRS,0.0068617877550423145,0.0005701165646314621,-0.002012487268075347,0.0,0.0,0.0004870677075814456,0.0035449787974357605,GPS_RAW_INT,0,1,0,0,-17000,9999,9999,0,0,0,0,4294967295,4294967295,1000000,0,0,RC_CHANNELS,6466536,16,1502,1499,1004,1501,1000,1000,1501,1500,0,0,0,0,0,0,0,0,0,0,0,MISSION_CURRENT,0,SYS_STATUS,52485167,52461615,53510447,35,0,-1,-1,0,0,0,0,0,0,GLOBAL_POSITION_INT,6466536,0,0,-2620,-2624,1,3,3,5622,RAW_IMU,2171569357,19,10,-991,-6,-1,2,291,-447,241,0,4308,BATTERY_STATUS,0,0,0,32767,[65535, 65535, 65535, 65535, 65535, 65535, 65535, 65535, 65535, 65535],-1,-1,-1,100,0,0,[0, 0, 0, 0],0,0,HEARTBEAT,10,3,193,0,4,3
4.078836441040039,VFR_HUD,0.0,0.04049776867032051,56,0,-2.619999885559082,-0.03703244403004646,,,,,,,,,,,,,,,,AHRS,0.0068617877550423145,0.0005701165646314621,-0.002012487268075347,0.0,0.0,0.0004870677075814456,0.0035449787974357605,GPS_RAW_INT,0,1,0,0,-17000,9999,9999,0,0,0,0,4294967295,4294967295,1000000,0,0,RC_CHANNELS,6466536,16,1502,1499,1004,1501,1000,1000,1501,1500,0,0,0,0,0,0,0,0,0,0,0,MISSION_CURRENT,0,SYS_STATUS,52485167,52461615,53510447,35,0,-1,-1,0,0,0,0,0,0,GLOBAL_POSITION_INT,6466536,0,0,-2620,-2624,1,3,3,5622,RAW_IMU,2171569357,19,10,-991,-6,-1,2,291,-447,241,0,4308,BATTERY_STATUS,0,0,0,32767,[65535, 65535, 65535, 65535, 65535, 65535, 65535, 65535, 65535, 65535],-1,-1,-1,100,0,0,[0, 0, 0, 0],0,0,HEARTBEAT,6,8,0,0,0,3
